timestamp_abs,timestamp_rel,x,y,z,vx,vy,vz,ax,ay,az,roll,pitch,yaw
1765470634.8077998,0.9584686756134033,8.75103415808e-13,7.61803466722e-13,-0.0283544236702,1.24422025673e-07,1.08313061955e-07,-5.86360998224e-07,0.008845273574,0.00770007287259,-0.013330111567,0.036597942003439105,-0.06758231077483026,1.3624156894049926
1765470634.8123488,0.9630177021026611,2.13975431223e-06,1.86271956381e-06,-0.0285012722907,0.000212710319583,0.000185170639193,-0.000595798623883,0.0106768190742,0.0092944875284,-0.0160908497744,0.036597942003439105,-0.06758231077483026,1.3624156894049926
1765470634.8335292,0.9841980934143066,9.16352918412e-06,7.97712381618e-06,-0.0285630984057,0.000456650087129,0.000397527438666,-0.00118480670919,0.0114863675291,0.00999922345821,-0.0173114151329,0.036597942003439105,-0.06758231077483026,1.3624156894049926
1765470634.8538601,1.0045289993286133,2.13623897011e-05,1.85965935429e-05,-0.0286070705238,0.00071098361278,0.000618932312701,-0.00168193275772,0.0119508958961,0.0104036091731,-0.0180116436474,0.036597942003439105,-0.06758231077483026,1.3624156894049926
1765470634.8743207,1.0249896049499512,3.88091460925e-05,3.3784512207e-05,-0.0286429199846,0.000970121421853,0.000844519457882,-0.00205035778709,0.0122556241696,0.0106688841691,-0.0184704907134,0.036597942003439105,-0.06758231077483026,1.3624156894049926
1765470634.8939736,1.044642448425293,6.15446822039e-05,5.35764704082e-05,-0.0310313975717,0.0012320555119,0.00107254084855,-0.022701535337,0.0124718975141,0.0108571565271,-0.0188978387693,0.036597942003439105,-0.06758231077483026,1.3624156894049926
1765470634.9136791,1.0643479824066162,8.95518994104e-05,7.79575832867e-05,-0.03290742672,0.00149544142783,0.00130182609669,-0.0348815069579,0.0126331038442,0.0109974914166,-0.019185824842,0.036597942003439105,-0.06758231077483026,1.3624156894049926
1765470634.9341953,1.0848641395568848,0.000122837185549,0.000106933411644,-0.0343218364642,0.00175978650414,0.00153194632238,-0.0408047455963,0.0127571238187,0.0111054544811,-0.0193785609313,0.036597942003439105,-0.06758231077483026,1.3624156894049926
1765470634.954596,1.1052649021148682,0.000161409182872,0.000140511478817,-0.0353535523305,0.0020248121721,0.00176265902327,-0.0426908820415,0.0128545337193,0.0111902526873,-0.0195067292645,0.036597942003439105,-0.06758231077483026,1.3624156894049926
1765470634.974931,1.1255998611450195,0.0001809490575,0.000183838225812,-0.0361008217709,0.00193520268397,0.00205329106812,-0.0418576692706,0.00861892557196,0.0118623599611,-0.0144513099085,0.03715737227992387,-0.06744386384884897,1.363119429723046
1765470634.9955933,1.1462621688842773,0.000199509436878,0.000231182796778,-0.0365979699622,0.00181616202318,0.00233897900999,-0.0397861640504,0.00522484045877,0.0124009341666,-0.0103877672501,0.03715737227992387,-0.06744386384884897,1.363119429723046
1765470635.0155191,1.1661880016326904,0.000218047430124,0.000283849816891,-0.036936143292,0.00168179464448,0.00262681826798,-0.0371628464638,0.00248648061867,0.012835457735,-0.00710023049693,0.03715737227992387,-0.06744386384884897,1.363119429723046
1765470635.0357704,1.1864392757415771,0.000236133013821,0.000341958364073,-0.036033911013,0.00153570615335,0.00291652058906,-0.0283638875137,0.000266677634197,0.0131876965825,-0.00435212532435,0.03715737227992387,-0.06744386384884897,1.363119429723046
1765470635.0557096,1.20637845993042,0.000253317917637,0.0004055789436,-0.0353011194346,0.00138041869594,0.00320768260422,-0.0218395629383,-0.0015384626699,0.0134741366607,-0.00213333995847,0.03715737227992387,-0.06744386384884897,1.363119429723046
1765470635.0756676,1.2263364791870117,0.000269189804396,0.000474784029565,-0.0347035881336,0.00121783367969,0.00350002783194,-0.0169395674688,-0.00300952588142,0.013707565309,-0.000338428256078,0.03715737227992387,-0.06744386384884897,1.363119429723046
1765470635.0964112,1.2470800876617432,0.000283393643637,0.000549711734751,-0.0342139465302,0.00104933476957,0.00379360482583,-0.0132105447948,-0.00421022185396,0.0138980920217,0.00111549219634,0.03715737227992387,-0.06744386384884897,1.363119429723046
1765470635.1165235,1.2671923637390137,0.000295541990574,0.000630239733051,-0.033810096226,0.000876241131374,0.00408757340416,-0.0103371473953,-0.00519089226894,0.0140537050285,0.00229351065138,0.03715737227992387,-0.06744386384884897,1.363119429723046
1765470635.136583,1.2872519493103027,0.000305369451981,0.000716485077512,-0.033475283849,0.000699403026207,0.00438207937832,-0.00809510524711,-0.00599237058885,0.0141808837924,0.00324815225136,0.03715737227992387,-0.06744386384884897,1.363119429723046
1765470635.1564915,1.3071603775024414,0.000312631198891,0.000808545599172,-0.0331960917961,0.000519462155535,0.00467719440842,-0.00632412311065,-0.00664774888504,0.014284879371,0.00402175604307,0.03715737227992387,-0.06744386384884897,1.363119429723046
1765470635.176394,1.3270628452301025,0.000312097077336,0.000923335168319,-0.0340975032214,0.000284792330114,0.00514910340923,-0.00897037457175,-0.00776134973326,0.0163200422995,0.00489532868619,0.03764679887044239,-0.0672261629133026,1.3637021293695553
1765470635.197072,1.347740888595581,0.000308285744642,0.00104488047298,-0.0348277379706,4.60793395685e-05,0.00562836382121,-0.0107217175851,-0.00867226604032,0.0179847887857,0.00563130380474,0.03764679887044239,-0.0672261629133026,1.3637021293695553
1765470635.2171016,1.3677704334259033,0.000300879558376,0.00117392166879,-0.0354194138363,-0.000196118397028,0.00611401519132,-0.0118177009698,-0.00941758670123,0.0193469006963,0.00625150775764,0.03764679887044239,-0.0672261629133026,1.3637021293695553
1765470635.2373557,1.3880245685577393,0.000289599798258,0.00131095013034,-0.0358981645911,-0.000441159973225,0.00660487910108,-0.0124319395262,-0.0100274987919,0.0204615464679,0.00677417843204,0.03764679887044239,-0.0672261629133026,1.3637021293695553
1765470635.2571084,1.4077773094177246,0.00027422420892,0.00145627964912,-0.0362842985177,-0.000688378377226,0.00709970243511,-0.012691545871,-0.0105265841876,0.0213736507438,0.00721454441762,0.03764679887044239,-0.0672261629133026,1.3637021293695553
1765470635.2775962,1.42826509475708,0.000254553765953,0.00161037102511,-0.0365944967213,-0.000937526464649,0.00759806916889,-0.0126899968986,-0.0109350269282,0.0221201008974,0.00758546797839,0.03764679887044239,-0.0672261629133026,1.3637021293695553
1765470635.2977288,1.4483976364135742,0.000230442701833,0.00177340263509,-0.0368419286565,-0.0011881057437,0.00809903620287,-0.0124969878311,-0.0112692730778,0.0227309529579,0.0078976989216,0.03764679887044239,-0.0672261629133026,1.3637021293695553
1765470635.317797,1.468465805053711,0.000201750966278,0.00194569071695,-0.0342092234899,-0.00143995138633,0.00860232420123,-0.00404942148006,-0.011542815977,0.0232308667004,0.00857572578853,0.03764679887044239,-0.0672261629133026,1.3637021293695553
1765470635.3380783,1.4887471199035645,0.00016837306925,0.0021274112537,-0.0319857147362,-0.00169280699696,0.00910745847738,0.00259937625827,-0.0117666824469,0.023639994209,0.00905501856979,0.03764679887044239,-0.0672261629133026,1.3637021293695553
1765470635.3584414,1.5091102123260498,0.00013016734463,0.00231898635696,-0.0301066697202,-0.00194680913032,0.00961474613267,0.00780949394707,-0.0119499315465,0.0239748913804,0.00938206543414,0.03764679887044239,-0.0672261629133026,1.3637021293695553
1765470635.3770247,1.527693510055542,0.000134568231552,0.00247284711676,-0.028530535248,-0.00172774132919,0.00965274861265,0.011613718443,-0.00688637999666,0.0190773419027,0.00640485485184,0.03784691045922662,-0.06718647765187122,1.3639707091654898
1765470635.3984075,1.5490763187408447,0.00013603439183,0.00263490515272,-0.0272017218626,-0.00149041471805,0.0096735882178,0.0144723090516,-0.0027417156413,0.0150685550761,0.00391977574327,0.03784691045922662,-0.06718647765187122,1.3639707091654898
1765470635.4182122,1.5688810348510742,0.000136346455135,0.00280296067636,-0.0260841799777,-0.0012377670991,0.00967936338351,0.016566348833,0.000650046495842,0.0117879875298,0.00184488915663,0.03784691045922662,-0.06718647765187122,1.3639707091654898
1765470635.4386754,1.5893442630767822,0.000136780365912,0.00297653507028,-0.0251452810172,-0.000972525520371,0.00967380709465,0.0180425192714,0.00342715136857,0.00910192649431,0.000110881834301,0.03784691045922662,-0.06718647765187122,1.3639707091654898
1765470635.4585254,1.609194278717041,0.000138616723633,0.00315323529843,-0.0247431671976,-0.000697185478344,0.00965766634353,0.0180379446085,0.00569929259685,0.00690427451499,-0.00140239615283,0.03784691045922662,-0.06718647765187122,1.3639707091654898
1765470635.4790058,1.6296746730804443,0.000142705815787,0.00333278392419,-0.024415412139,-0.000413556751504,0.00963349087929,0.0178328943157,0.00755844234286,0.00510607461952,-0.00265346414758,0.03784691045922662,-0.06718647765187122,1.3639707091654898
1765470635.499145,1.6498138904571533,0.000149809913683,0.00351441093784,-0.0241510114553,-0.000123180921968,0.00960273029994,0.0174707276502,0.00907971780952,0.00363467222658,-0.00368766447006,0.03784691045922662,-0.06718647765187122,1.3639707091654898
1765470635.5219817,1.6726505756378174,0.000161032272033,0.00372501216169,-0.0239031864811,0.000201114180857,0.00957471362047,0.0169443636201,0.0103507726559,0.00240528729039,-0.00456262563206,0.03784691045922662,-0.06718647765187122,1.3639707091654898
1765470635.5426,1.6932687759399414,0.000176653344319,0.00390939053059,-0.0237486115863,0.000503533765907,0.00953254983608,0.0163431589109,0.0113791574083,0.00141061681894,-0.00527684071642,0.03784691045922662,-0.06718647765187122,1.3639707091654898
1765470635.5625215,1.7131903171539307,0.000196806019198,0.00409423971689,-0.0236310549279,0.000808994786977,0.00948721045546,0.0156794993685,0.0122142316095,0.000602919459181,-0.00586161254609,0.03784691045922662,-0.06718647765187122,1.3639707091654898
1765470635.5821662,1.732835054397583,0.000202107957215,0.00430209905356,-0.0235344178656,0.000921721692794,0.00966473191918,0.0151949239793,0.0107564628872,0.00241285484957,-0.00354467078126,0.03775998737795996,-0.06722156063804381,1.3639719075879804
1765470635.6051998,1.755868673324585,0.000212388384354,0.00451576364968,-0.0264676002543,0.00103467762888,0.00984989373307,0.00734110740042,0.00956323342484,0.00389434378508,-0.00219997740888,0.03775998737795996,-0.06722156063804381,1.3639719075879804
1765470635.623188,1.7738568782806396,0.000226189165164,0.00472626378398,-0.0289845964608,0.00113856085616,0.0100387374253,0.000941278437025,0.00859079466675,0.00510170356464,-0.00100100993334,0.03775998737795996,-0.06722156063804381,1.3639719075879804
1765470635.6436644,1.7943332195281982,0.000243527672532,0.00493866546329,-0.0311385664345,0.00123912921463,0.010231546416,-0.00423819595175,0.00779725545297,0.00608694538295,6.53177696793e-05,0.03775998737795996,-0.06722156063804381,1.3639719075879804
1765470635.6635027,1.814171552658081,0.000264067405117,0.00515340044721,-0.0329801450167,0.00133696683457,0.0104276255357,-0.00838971769386,0.00714911775679,0.00689165969474,0.00101136422034,0.03775998737795996,-0.06722156063804381,1.3639719075879804
1765470635.6836908,1.8343596458435059,0.00028754695131,0.00537090729248,-0.0345523952841,0.00143261031678,0.0106264626854,-0.0116744460391,0.00661937418212,0.00754937832248,0.0018487089426,0.03775998737795996,-0.06722156063804381,1.3639719075879804
1765470635.7040615,1.8547303676605225,0.00031374766092,0.00559148681519,-0.0358920122906,0.00152645200422,0.0108276045744,-0.0142279887078,0.00618619255345,0.00808720764215,0.00258807943977,0.03775998737795996,-0.06722156063804381,1.3639719075879804
1765470635.7281175,1.878786325454712,0.000342517386488,0.0058155589753,-0.0370307390581,0.00161890954039,0.0110308070977,-0.0161652260673,0.00583181604958,0.00852719415445,0.00323943038659,0.03775998737795996,-0.06722156063804381,1.3639719075879804
1765470635.7464657,1.89713454246521,0.000373686916106,0.00604314434797,-0.0379953744694,0.00171014227846,0.0112356242886,-0.0175835964913,0.00554186701541,0.00888718885752,0.00381180465662,0.03775998737795996,-0.06722156063804381,1.3639719075879804
1765470635.7643995,1.9150683879852295,0.000407071186043,0.0062739827503,-0.0373333902442,0.00180017427238,0.0114414548612,-0.0150326472082,0.00530467525321,0.00918168122668,0.00458834371591,0.03775998737795996,-0.06722156063804381,1.3639719075879804
1765470635.7845743,1.9352431297302246,0.000439602378502,0.00648798898987,-0.0367503217236,0.00185952660027,0.0114451724443,-0.0127990924867,0.00478264707194,0.00719027398973,0.00508362406008,0.037323074995186445,-0.06730639896351964,1.3637774968284047
1765470635.8050184,1.9556872844696045,0.000474110420448,0.00670507170187,-0.0362362559243,0.00191703602025,0.0114418018113,-0.0108365407092,0.00435547578124,0.00556072211832,0.005467918713,0.037323074995186445,-0.06730639896351964,1.3637774968284047
1765470635.8251796,1.9758484363555908,0.000510450269782,0.00692473833693,-0.035782972532,0.00197309827995,0.0114326707872,-0.00911189784151,0.00400585542278,0.00422700770022,0.00576394299118,0.037323074995186445,-0.06730639896351964,1.3637774968284047
1765470635.8450294,1.9956982135772705,0.000548384306784,0.00714589494448,-0.0353830127803,0.00202779241906,0.0114186000936,-0.00759741088876,0.00371977805482,0.00313569393341,0.00598979073756,0.037323074995186445,-0.06730639896351964,1.3637774968284047
1765470635.8652449,2.015913724899292,0.000587825581943,0.00736828777376,-0.035030284737,0.00208142696963,0.0114005716721,-0.00626789819628,0.0034856936389,0.00224272030354,0.00616013948966,0.037323074995186445,-0.06730639896351964,1.3637774968284047
1765470635.8853908,2.036059617996216,0.000628684826289,0.00759159604896,-0.0347192586567,0.00213420669717,0.0113793165762,-0.0051012077565,0.00329414330592,0.00151200358551,0.00628678672669,0.037323074995186445,-0.06730639896351964,1.3637774968284047
1765470635.9055243,2.0561931133270264,0.000670897329062,0.00781559655121,-0.0304044085402,0.00218630751831,0.0113554268174,0.0055509926998,0.00313738419974,0.00091400671541,0.00713739676771,0.037323074995186445,-0.06730639896351964,1.3637774968284047
1765470635.925546,2.0762147903442383,0.000714395774791,0.00804002645264,-0.026689769564,0.00223784883216,0.0113293710512,0.0142638628993,0.00300909137245,0.000424601595375,0.00768116155811,0.037323074995186445,-0.06730639896351964,1.3637774968284047
1765470635.9471295,2.0977983474731445,0.000759143604484,0.0082647627592,-0.0234986022083,0.00228895329974,0.0113015381321,0.0213126631315,0.00290408731748,2.40373299113e-05,0.00799529440825,0.037323074995186445,-0.06730639896351964,1.3637774968284047
1765470635.9660904,2.1167593002319336,0.000805354350266,0.008490869551,-0.0207599595232,0.00234001361536,0.0112722190053,0.0269406459131,0.00281807215057,-0.000304089066341,0.00814056060121,0.037323074995186445,-0.06730639896351964,1.3637774968284047
1765470635.9862452,2.136914014816284,0.000852240064605,0.00875254549177,-0.0184148689356,0.00238816671896,0.0116068616787,0.0315143006095,0.0027225636668,0.00344702914119,0.010242802998,0.03708551686476217,-0.06735279622313586,1.3634728311996995
1765470636.0061655,2.156834363937378,0.000900189775563,0.00901524141346,-0.0164173335912,0.00243591954398,0.0119550938092,0.0350560085369,0.00264443217397,0.0065156619343,0.0118804126146,0.03708551686476217,-0.06735279622313586,1.3634728311996995
1765470636.0260572,2.1767261028289795,0.000949233297643,0.00928053842749,-0.0147207229401,0.00248340697764,0.0123145124058,0.0377220537776,0.00258050385111,0.00902646187995,0.0131505959407,0.03708551686476217,-0.06735279622313586,1.3634728311996995
1765470636.0463097,2.1969785690307617,0.000999275623611,0.00954914122859,-0.0164056451695,0.00253060943706,0.0126828602764,0.0322285203544,0.00252820123835,0.0110806593217,0.0135437885173,0.03708551686476217,-0.06735279622313586,1.3634728311996995
1765470636.066441,2.2171099185943604,0.00105036338919,0.00982224248985,-0.0178785745554,0.0025776406034,0.0130587251961,0.0275050410931,0.00248540242399,0.0127615928416,0.0139261578468,0.03708551686476217,-0.06735279622313586,1.3634728311996995
1765470636.0866084,2.2372772693634033,0.00110251488119,0.0101007274125,-0.0191650634999,0.00262456677132,0.0134409771102,0.023453127377,0.00245037322443,0.0141373729092,0.014291997614,0.03708551686476217,-0.06735279622313586,1.3634728311996995
1765470636.1071768,2.257845640182495,0.00115559488615,0.0103845510151,-0.0202881666759,0.00267130197598,0.0138278870474,0.0199878021477,0.0024217099162,0.0152631310945,0.0146376107917,0.03708551686476217,-0.06735279622313586,1.3634728311996995
1765470636.1267195,2.277388334274292,0.00120966435625,0.0106745508655,-0.0212670465631,0.00271793887949,0.0142189209433,0.0170337074196,0.00239825346726,0.0161843886546,0.0149607384169,0.03708551686476217,-0.06735279622313586,1.3634728311996995
1765470636.1469433,2.297612190246582,0.00126478310799,0.0109714775107,-0.0221191094673,0.00276455587102,0.0146137632012,0.014524141952,0.00237905337049,0.0169384769797,0.015260254253,0.03708551686476217,-0.06735279622313586,1.3634728311996995
1765470636.1670325,2.3177013397216797,0.00132086190096,0.0112752213709,-0.0228601334134,0.0028110954818,0.0150113288166,0.0124010322485,0.00236333894415,0.0175556647776,0.0155358809964,0.03708551686476217,-0.06735279622313586,1.3634728311996995
1765470636.1872914,2.3379602432250977,0.00139437403118,0.011587234434,-0.0214902388907,0.00302150176806,0.0154262396403,0.0153243976466,0.00415621295644,0.0182320348545,0.0151295888379,0.036675910205540375,-0.06749210035409303,1.363160176087724
1765470636.2075489,2.358217716217041,0.00146963548628,0.0119072805319,-0.0203167564133,0.00323863973201,0.0158443932465,0.0176373338774,0.00562381609234,0.0187856949774,0.0147487353469,0.036675910205540375,-0.06749210035409303,1.363160176087724
1765470636.2278578,2.3785266876220703,0.00154747703394,0.0122365680957,-0.0193131982449,0.00346183662624,0.0162664853918,0.0194300748515,0.00682589602059,0.0192391852327,0.0143955488151,0.036675910205540375,-0.06749210035409303,1.363160176087724
1765470636.2481275,2.398796319961548,0.00162755968149,0.012571320326,-0.0184623426395,0.00368853702431,0.0166874677576,0.0207758835104,0.00780895877505,0.0196100502384,0.0140715657958,0.036675910205540375,-0.06749210035409303,1.363160176087724
1765470636.2681057,2.4187746047973633,0.00171080000451,0.0129141546911,-0.0177416765402,0.00391885553612,0.0171099620756,0.0217455009956,0.00861317858764,0.0199134459108,0.0137767998608,0.036675910205540375,-0.06749210035409303,1.363160176087724
1765470636.2884367,2.43910551071167,0.00179753716434,0.0132652042159,-0.0171339649596,0.00415216698853,0.0175337285234,0.0223980544511,0.00927122847216,0.0201616982967,0.0135105613381,0.036675910205540375,-0.06749210035409303,1.363160176087724
1765470636.3083673,2.459036111831665,0.00188795614817,0.0136241975081,-0.0166245641819,0.00438775071988,0.0179581376556,0.0227845478256,0.009809657759,0.0203648232545,0.0132717291153,0.036675910205540375,-0.06749210035409303,1.363160176087724
1765470636.3289893,2.4796581268310547,0.00198236273783,0.0139915662173,-0.0174834220641,0.00462535721375,0.0183834251021,0.0199001320182,0.0102502750738,0.02053104819,0.0128169297932,0.036675910205540375,-0.06749210035409303,1.363160176087724
1765470636.3492334,2.4999022483825684,0.0020808610605,0.0143670652082,-0.0182357444434,0.00486446044419,0.0188091063593,0.0174041469674,0.0106108344154,0.020667070882,0.0124757338286,0.036675910205540375,-0.06749210035409303,1.363160176087724
1765470636.3693655,2.5200343132019043,0.00218377083567,0.014751407309,-0.0188939965724,0.00510513793613,0.0192357907358,0.0152480208304,0.0109059545954,0.0207784063454,0.0122235118838,0.036675910205540375,-0.06749210035409303,1.363160176087724
1765470636.3896272,2.5402960777282715,0.00226931521423,0.0151311825338,-0.0194687137037,0.00513188456777,0.0195377306866,0.0134163485155,0.00878240710636,0.0194962905207,0.0123760550508,0.03576252085304885,-0.0677943524930602,1.3626740160307302
1765470636.4096937,2.5603625774383545,0.00235843396321,0.0155186469104,-0.019970769142,0.00515080508904,0.0198347560268,0.011846186075,0.00704472769472,0.0184471469138,0.0125215760039,0.03576252085304885,-0.0677943524930602,1.3626740160307302
1765470636.4298215,2.5804903507232666,0.00245050953154,0.0159137568169,-0.0204087313709,0.00516347145974,0.0201281001068,0.010504195555,0.00562260596207,0.0175885248263,0.0126587060398,0.03576252085304885,-0.0677943524930602,1.3626740160307302
1765470636.4499893,2.6006581783294678,0.00254492361854,0.0163160456984,-0.0207904111851,0.00517097101955,0.0204183382025,0.00936098023597,0.00445869267189,0.0168857990075,0.0127866511662,0.03576252085304885,-0.0677943524930602,1.3626740160307302
1765470636.4715142,2.622183084487915,0.00264286331678,0.0167318866767,-0.0211213760505,0.00517546570065,0.0207113407136,0.00839069665015,0.00350382288331,0.0163092855682,0.0129049823378,0.03576252085304885,-0.0677943524930602,1.3626740160307302
1765470636.4904943,2.6411631107330322,0.0027406441481,0.0171479603294,-0.0248996814765,0.00517513229285,0.0209969747771,-0.000717586563935,0.00272327645389,0.0158380218294,0.0123556434919,0.03576252085304885,-0.0677943524930602,1.3626740160307302
1765470636.510306,2.6609747409820557,0.00284001350914,0.0175723294711,-0.0281506459625,0.0051721886775,0.0212822680833,-0.00813962404692,0.00208456064765,0.0154523899342,0.0120401236378,0.03576252085304885,-0.0677943524930602,1.3626740160307302
1765470636.530725,2.68139386177063,0.00293976843012,0.0180010002654,-0.0309387801186,0.00516670233535,0.0215646894822,-0.0141107370255,0.00156230939887,0.0151370748335,0.0118974886976,0.03576252085304885,-0.0677943524930602,1.3626740160307302
1765470636.5508807,2.701549530029297,0.00304025746796,0.0184361521762,-0.0333246717332,0.00515936024902,0.021846207035,-0.0188412582529,0.00113509833274,0.0148791413183,0.0118792846727,0.03576252085304885,-0.0677943524930602,1.3626740160307302
1765470636.57319,2.7238588333129883,0.00314118607641,0.0188771897227,-0.0353601585446,0.0051504645274,0.0221266816568,-0.0225137831399,0.000785595894406,0.0146681252665,0.0119483541581,0.03576252085304885,-0.0677943524930602,1.3626740160307302
1765470636.5926802,2.743349075317383,0.00329306068162,0.0192974542388,-0.037105371451,0.00564234466666,0.0221435948379,-0.0256013443121,0.00602560215344,0.0116045018842,0.00815610763336,0.0353273478473623,-0.06782373048883515,1.3626282096599809
1765470636.6121125,2.7627813816070557,0.00344730054807,0.0197230481627,-0.0385871908306,0.00615334349433,0.0221496727147,-0.0279395291399,0.0103140090695,0.00909724081398,0.00511334937924,0.0353273478473623,-0.06782373048883515,1.3626282096599809
1765470636.632066,2.7827348709106445,0.00360802079124,0.0201606433879,-0.0370925682111,0.00668467455142,0.0221494642893,-0.023091068804,0.013833194068,0.00703971322431,0.00318928194006,0.0353273478473623,-0.06782373048883515,1.3626282096599809
1765470636.6522825,2.8029513359069824,0.00377177510672,0.0205925579027,-0.0357783352528,0.00722445946308,0.0221384163406,-0.018943572506,0.0167085183212,0.00535862542051,0.00156234388711,0.0353273478473623,-0.06782373048883515,1.3626282096599809
1765470636.6722672,2.8229360580444336,0.0039421727618,0.02102673204,-0.0346318776517,0.0077744904155,0.0221213851526,-0.015403601677,0.0190591402482,0.00398431021119,0.000184628874699,0.0353273478473623,-0.06782373048883515,1.3626282096599809
1765470636.6923497,2.8430185317993164,0.00412010286131,0.0214623441799,-0.033632660759,0.00833270726568,0.0220994056957,-0.0123920123861,0.0209813942496,0.00286044470142,-0.000983468101147,0.0353273478473623,-0.06782373048883515,1.3626282096599809
1765470636.7124848,2.8631536960601807,0.00430654713094,0.0218994218321,-0.0327628796231,0.0088980505256,0.0220734364367,-0.00983905707613,0.0225539518244,0.00194103279274,-0.00197505208697,0.0353273478473623,-0.06782373048883515,1.3626282096599809
1765470636.732469,2.8831379413604736,0.00450377623998,0.0223413104931,-0.0320067836222,0.00947328962999,0.0220444153197,-0.00768103524067,0.0238423419256,0.0011877623109,-0.00281844902524,0.0353273478473623,-0.06782373048883515,1.3626282096599809
1765470636.7528903,2.9035592079162598,0.00470895507826,0.0227796206001,-0.0313493371483,0.01004894051,0.0220123474717,-0.00587002498213,0.0248958064181,0.000571843494742,-0.00353536182723,0.0353273478473623,-0.06782373048883515,1.3626282096599809
1765470636.7745483,2.9252171516418457,0.00492419432151,0.0232182315309,-0.0311467816596,0.0106284114356,0.0219780750482,-0.00523064500504,0.0257574790997,6.80577271583e-05,-0.00421453903569,0.0353273478473623,-0.06782373048883515,1.3626282096599809
1765470636.7932804,2.9439492225646973,0.00513403672537,0.0236880630715,-0.0309573608635,0.0110549799701,0.0222520052839,-0.00442060723452,0.0247473467194,0.0030674617002,-0.00145879770354,0.03588932893282866,-0.06764780789288939,1.3628657636292159
1765470636.813486,2.9641549587249756,0.0053547010634,0.0241604897217,-0.0307901043613,0.0114795076318,0.0225370327919,-0.00368287956569,0.0239204363068,0.00552282143832,0.000790374963008,0.03588932893282866,-0.06764780789288939,1.3628657636292159
1765470636.833513,2.9841818809509277,0.00558441846084,0.0246336908548,-0.0306416473808,0.0118995480612,0.0228307120653,-0.0030106184081,0.0232439246647,0.00753159944253,0.00262446228347,0.03588932893282866,-0.06764780789288939,1.3628657636292159
1765470636.85366,3.004328966140747,0.00582360898636,0.0251099090889,-0.0305096800081,0.0123171962893,0.0231316588034,-0.00239738719026,0.0226903688514,0.00917528252621,0.00411986472764,0.03588932893282866,-0.06764780789288939,1.3628657636292159
1765470636.8739562,3.024625062942505,0.00607194834884,0.0255896499956,-0.0303920192306,0.0127327184168,0.0234384988367,-0.00183751145071,0.0222374003257,0.0105202899945,0.00533876920921,0.03588932893282866,-0.06764780789288939,1.3628657636292159
1765470636.89419,3.044858932495117,0.00632933579873,0.0260736364712,-0.0302868386345,0.0131466385515,0.0237502234528,-0.00132587626567,0.0218667066617,0.0116209972586,0.00633201395011,0.03588932893282866,-0.06764780789288939,1.3628657636292159
1765470636.9141989,3.0648677349090576,0.00659576199653,0.0265625787905,-0.0283596397186,0.0135594779854,0.0240660878132,0.00349629499432,0.0215633022555,0.012521901337,0.00748656019386,0.03588932893282866,-0.06764780789288939,1.3628657636292159
1765470636.934179,3.084847927093506,0.00687078648012,0.0270562863003,-0.0266988499543,0.013970966012,0.0243850888837,0.00746274243847,0.0213149979622,0.0132591956743,0.00836312270294,0.03588932893282866,-0.06764780789288939,1.3628657636292159
1765470636.9541867,3.104855537414551,0.00715459738901,0.0275555778462,-0.025270497716,0.0143817588463,0.0247069024916,0.0106931828896,0.021111765542,0.0138626573003,0.00902185355408,0.03588932893282866,-0.06764780789288939,1.3628657636292159
1765470636.9752283,3.125897169113159,0.00744854067481,0.0280631112034,-0.0240432688094,0.0147940278956,0.0250324179363,0.0132938840005,0.0209452967388,0.0143569560668,0.00951111079417,0.03588932893282866,-0.06764780789288939,1.3628657636292159
1765470636.9955924,3.146261215209961,0.00771315677478,0.0285789732089,-0.0229745853502,0.0147518810027,0.0252415448526,0.0155319342198,0.0156726992299,0.0133639706316,0.0119693234236,0.03592792396268879,-0.0676579403885993,1.3632607104188748
1765470637.0159252,3.1665940284729004,0.00797565317199,0.0290855308956,-0.0220696378656,0.0146779790927,0.0254385248455,0.0173031179094,0.0113672936424,0.0125531359276,0.0139389651206,0.03592792396268879,-0.0676579403885993,1.3632607104188748
1765470637.0358033,3.186472177505493,0.0082410525139,0.0295939006493,-0.0213018631913,0.0145870973461,0.0256309391802,0.0186801613812,0.00785304822711,0.0118912999906,0.0155147680753,0.03592792396268879,-0.0676579403885993,1.3632607104188748
1765470637.056366,3.2070348262786865,0.00851223774848,0.0301114362409,-0.0213836727616,0.0144849319563,0.0258229687016,0.0179798963395,0.00497842800364,0.0113499243198,0.0166376299106,0.03592792396268879,-0.0676579403885993,1.3632607104188748
1765470637.076086,3.226754903793335,0.00878320096016,0.0306294050461,-0.0214649378429,0.0143714530503,0.0260111645629,0.0173266003235,0.00262999873475,0.0109076459066,0.0175584828628,0.03592792396268879,-0.0676579403885993,1.3632607104188748
1765470637.0962913,3.246960163116455,0.00905600686717,0.0311530320308,-0.021541971511,0.0142497839038,0.0261983020472,0.0167194895061,0.000709596646398,0.0105459776207,0.0183147687943,0.03592792396268879,-0.0676579403885993,1.3632607104188748
1765470637.1165395,3.2672083377838135,0.00932848640113,0.0316796697739,-0.0216159872896,0.0141212203066,0.0263836297093,0.0161546779024,-0.00086057751784,0.0102502675702,0.0189362871446,0.03592792396268879,-0.0676579403885993,1.3632607104188748
1765470637.1365168,3.2871856689453125,0.00960089060343,0.0322108525293,-0.0216859967047,0.0139870676913,0.0265680537443,0.0156301199748,-0.00214498163192,0.0100083764386,0.0194476458325,0.03592792396268879,-0.0676579403885993,1.3632607104188748
1765470637.1565943,3.307263135910034,0.0098725967465,0.0327463281104,-0.0217521699986,0.0138482917731,0.0267516939626,0.0151429330481,-0.00319587604133,0.00981046206323,0.0198688151573,0.03592792396268879,-0.0676579403885993,1.3632607104188748
1765470637.1762261,3.326894998550415,0.0101563055197,0.0332580166671,-0.0218335286955,0.0138365440251,0.0266589160441,0.0142838667282,-0.00261677512655,0.00661561037464,0.01515036216,0.036166726288684836,-0.0676560179191874,1.3634531238076328
1765470637.1971247,3.3477935791015625,0.0104387004426,0.0337720864984,-0.0222789497499,0.0138269294198,0.0265544984149,0.0125699973755,-0.0021429431917,0.00400151891231,0.0112234535311,0.036166726288684836,-0.0676560179191874,1.3634531238076328
1765470637.217273,3.3679418563842773,0.0107201009482,0.0342876888733,-0.0226707569717,0.0138190365571,0.0264406417437,0.011039268853,-0.00175522862528,0.0018625298249,0.00802620662413,0.036166726288684836,-0.0676560179191874,1.3634531238076328
1765470637.2373884,3.388057231903076,0.0110007078934,0.0348040126011,-0.0230159152317,0.0138125475853,0.0263190772164,0.00967119621762,-0.00143796056365,0.000112188258273,0.0054239541546,0.036166726288684836,-0.0676560179191874,1.3634531238076328
1765470637.2574964,3.408165216445923,0.0112810447961,0.0353210759881,-0.0233203129063,0.0138071723174,0.026191183876,0.00844746675764,-0.00117827211755,-0.00132049134792,0.00330636084843,0.036166726288684836,-0.0676560179191874,1.3634531238076328
1765470637.27759,3.4282588958740234,0.0115605707646,0.0358370514446,-0.0235894083816,0.0138027676283,0.0260581186688,0.00735232299766,-0.000965758558519,-0.0024929110171,0.00158442709568,0.036166726288684836,-0.0676560179191874,1.3634531238076328
1765470637.2977026,3.448371410369873,0.011839841486,0.0363523392526,-0.0238274196317,0.0137991223769,0.0259207816627,0.00637165902069,-0.000791824762582,-0.00345248933492,0.000184798586789,0.036166726288684836,-0.0676560179191874,1.3634531238076328
1765470637.3177161,3.4683849811553955,0.012118665858,0.0368660453179,-0.02403829077,0.0137961155043,0.0257799899006,0.00549310624121,-0.000649475530959,-0.00423781823254,-0.000952064134742,0.036166726288684836,-0.0676560179191874,1.3634531238076328
1765470637.3393013,3.4899702072143555,0.0123974219722,0.0373784405684,-0.0242252626388,0.0137936167214,0.0256362813065,0.00470550333574,-0.000532958616979,-0.0048806323775,-0.00187499110224,0.036166726288684836,-0.0676560179191874,1.3634531238076328
1765470637.3580613,3.508730173110962,0.0126757996046,0.0378885898681,-0.0276898767441,0.013791548773,0.025490285337,-0.00383739090807,-0.000437597532867,-0.00540673156474,-0.00324501048696,0.036166726288684836,-0.0676560179191874,1.3634531238076328
1765470637.3774867,3.528155565261841,0.0129695246127,0.0384173799929,-0.0306658238075,0.0139276911058,0.0255185699746,-0.0106042741663,0.00115949718327,-0.0038896880376,-0.00123301854567,0.03682808073351398,-0.06752077510889262,1.3640861571987448
1765470637.3984036,3.549072504043579,0.0132621342886,0.0389417229438,-0.0332200986173,0.0140696735811,0.0255529517923,-0.0160328444497,0.00246610351784,-0.00264857274096,0.00051848446489,0.03682808073351398,-0.06752077510889262,1.3640861571987448
1765470637.4193394,3.5700082778930664,0.013555521492,0.0394646373261,-0.0354063967766,0.0142163619472,0.0255918631255,-0.0203163251087,0.00353511319905,-0.00163314503905,0.00204169729483,0.03682808073351398,-0.06752077510889262,1.3640861571987448
1765470637.4398367,3.590505599975586,0.013857178596,0.039999133487,-0.0372853691306,0.0143688940299,0.0256339322546,-0.0236297474874,0.00441294855482,-0.000799309430605,0.0033690327172,0.03682808073351398,-0.06752077510889262,1.3640861571987448
1765470637.4603899,3.6110587120056152,0.0141541099871,0.0405216111932,-0.0388732096342,0.0145229446305,0.0256797166188,-0.0261068990228,0.00513005527267,-0.000118146257501,0.00451941901053,0.03682808073351398,-0.06752077510889262,1.3640861571987448
1765470637.479647,3.6303157806396484,0.0144540250244,0.0410456476713,-0.040218429511,0.0146799114107,0.0257279532746,-0.0278772704444,0.00571649427554,0.000438898659357,0.0055159049076,0.03682808073351398,-0.06752077510889262,1.3640861571987448
1765470637.5004299,3.6510987281799316,0.0147623009862,0.0415803503972,-0.0380452605603,0.0148414940406,0.0257785395827,-0.0211722373153,0.00619758495383,0.000895875626403,0.00700855160408,0.03682808073351398,-0.06752077510889262,1.3640861571987448
1765470637.520206,3.670874834060669,0.0150660282472,0.0421030620345,-0.0361463239085,0.015002011269,0.0258305057166,-0.0154638153348,0.00659025441807,0.0012688633165,0.00814729550577,0.03682808073351398,-0.06752077510889262,1.3640861571987448
1765470637.5405354,3.691204309463501,0.0153722889991,0.0426260659682,-0.0344975681102,0.015163851299,0.0258837676181,-0.0106151518006,0.00691102540759,0.0015735562996,0.00900886082778,0.03682808073351398,-0.06752077510889262,1.3640861571987448
1765470637.5605524,3.711221218109131,0.0156815611047,0.0431500762233,-0.0330668719732,0.0153269243837,0.0259381269921,-0.00650957575246,0.00717325833715,0.0018226453263,0.00965388151808,0.03682808073351398,-0.06752077510889262,1.3640861571987448
1765470637.5799904,3.730659246444702,0.0159980308057,0.0436767599401,-0.0318239658587,0.0155331393685,0.0260120198566,-0.00299625018968,0.00785152813817,0.0022312919602,0.0107656819208,0.037421919883520414,-0.06742988641431526,1.3642575316148913
1765470637.6009085,3.751577377319336,0.0163174853172,0.0442040455291,-0.0307471602817,0.0157416912235,0.0260873480562,-3.79652775104e-05,0.00840631864975,0.00256554431042,0.0116306038724,0.037421919883520414,-0.06742988641431526,1.3642575316148913
1765470637.620782,3.7714507579803467,0.0166427796644,0.0447363857161,-0.0298143048483,0.0159535690635,0.0261642951967,0.00244462983317,0.00886071668614,0.00283931181083,0.0123007280748,0.037421919883520414,-0.06742988641431526,1.3642575316148913
1765470637.641228,3.7918968200683594,0.0169692667864,0.0452659213379,-0.0308442267854,0.0161657954176,0.0262418300729,0.000150404796073,0.00923229210373,0.00306318001698,0.0124689097112,0.037421919883520414,-0.06742988641431526,1.3642575316148913
1765470637.6612115,3.811880350112915,0.0172994150162,0.0457965825166,-0.031726934873,0.016379313074,0.0263201530671,-0.00168357090907,0.00953621879561,0.00324629095514,0.0126429967854,0.037421919883520414,-0.06742988641431526,1.3642575316148913
1765470637.681485,3.832153797149658,0.0176333325936,0.0463284194351,-0.0324814290193,0.0165938718673,0.0263991158422,-0.00312440494509,0.00978485541678,0.00339609051595,0.0128165949482,0.037421919883520414,-0.06742988641431526,1.3642575316148913
1765470637.7016034,3.8522722721099854,0.017971211942,0.0468616384451,-0.0331243701799,0.0168093280865,0.0264786181102,-0.00423034951817,0.00998829351428,0.00351865869402,0.0129851771529,0.037421919883520414,-0.06742988641431526,1.3642575316148913
1765470637.721708,3.8723769187927246,0.0183130567648,0.047396163977,-0.0336702898133,0.0170254736946,0.0265585464491,-0.00505202393206,0.0101547617498,0.00361895312552,0.0131456460316,0.037421919883520414,-0.06742988641431526,1.3642575316148913
1765470637.7417684,3.892437219619751,0.0186590732008,0.0479322526053,-0.034131982773,0.0172422584971,0.0266388503588,-0.00563324495918,0.0102909942918,0.00370103103854,0.0132960019348,0.037421919883520414,-0.06742988641431526,1.3642575316148913
1765470637.7621613,3.912830114364624,0.0190094368227,0.048470117683,-0.0345206554415,0.0174596449763,0.0267194905522,-0.00601197546899,0.0104024963252,0.00376820921828,0.0134350761707,0.037421919883520414,-0.06742988641431526,1.3642575316148913
1765470637.7815614,3.932230234146118,0.0193533315767,0.0490054339664,-0.0341241457157,0.0175697744923,0.0267570869811,-0.00472331022106,0.00930715080538,0.00334614149186,0.0106575726585,0.03686624299969698,-0.06747531827803632,1.363907592247655
1765470637.803728,3.954396963119507,0.0197015204002,0.0495428409343,-0.0337759575469,0.0176761307118,0.0267932230385,-0.00362922836235,0.00841045578943,0.00300061944441,0.00836931889518,0.03686624299969698,-0.06747531827803632,1.363907592247655
1765470637.8224835,3.9731523990631104,0.0200527200882,0.050080810183,-0.0334708350371,0.0177789765194,0.0268280124469,-0.00270572493027,0.00767662656477,0.00271785421023,0.00648397720601,0.03686624299969698,-0.06747531827803632,1.363907592247655
1765470637.8425517,3.993220567703247,0.0204068995283,0.0506196443662,-0.033204180888,0.0178790718931,0.0268617442682,-0.00193058301881,0.00707612045269,0.00248646215645,0.00493007165448,0.03686624299969698,-0.06747531827803632,1.363907592247655
1765470637.8636713,4.014340162277222,0.0207675928459,0.0511649090624,-0.0329716284623,0.0179783366363,0.0268951076961,-0.00128227347639,0.00658396582611,0.00229682100621,0.0036469559653,0.03686624299969698,-0.06747531827803632,1.363907592247655
1765470637.8838978,4.034566640853882,0.0211271743643,0.0517054004942,-0.0327692609105,0.0180743307506,0.0269272619342,-0.000747203851524,0.00618156263973,0.00214176363399,0.00258937933765,0.03686624299969698,-0.06747531827803632,1.363907592247655
1765470637.90316,4.053828954696655,0.0214895169153,0.0522471202006,-0.0325938893856,0.018168955405,0.0269588853312,-0.000308850371088,0.00585240128259,0.00201492841796,0.00171699012952,0.03686624299969698,-0.06747531827803632,1.363907592247655
1765470637.9246063,4.075275182723999,0.0218540431168,0.0527893602777,-0.0306081410851,0.0182623236843,0.0269900273024,0.00440288142551,0.00558312707216,0.0019111694198,0.00134279073216,0.03686624299969698,-0.06747531827803632,1.363907592247655
1765470637.9438713,4.094540119171143,0.0222205722255,0.0533319799022,-0.0289010590379,0.0183546384306,0.0270207668677,0.00822508167028,0.00536283293814,0.00182628383566,0.00096622282307,0.03686624299969698,-0.06747531827803632,1.363907592247655
1765470637.9635177,4.114186525344849,0.0225896728,0.0538759163556,-0.0274366728346,0.0184462711594,0.027051238536,0.0112852869822,0.00518255115364,0.00175681614576,0.000597729892139,0.03686624299969698,-0.06747531827803632,1.363907592247655
1765470637.9825332,4.133202075958252,0.0229625196067,0.0544133201434,-0.0261762532771,0.0185565785469,0.0270142762004,0.0138684194971,0.00524883297787,0.000960631759927,0.00242724543482,0.03690086409386801,-0.06749528782502272,1.3636404771903199
1765470638.0037458,4.154414653778076,0.0233377872738,0.0549515764462,-0.0250998303774,0.018667210144,0.0269744419259,0.0159027808268,0.00530308154858,0.000308992106832,0.00388042593439,0.03690086409386801,-0.06749528782502272,1.3636404771903199
1765470638.0265265,4.177195310592651,0.0237153826869,0.0554902401426,-0.0241832742761,0.0187780903332,0.0269322319844,0.0174694928166,0.00534748432289,-0.000224378783457,0.00503223533558,0.03690086409386801,-0.06749528782502272,1.3636404771903199
1765470638.0450604,4.1957292556762695,0.0241015694101,0.0560379764578,-0.0233996358558,0.018890959367,0.0268878943216,0.0186407498699,0.00538391780214,-0.000662021646099,0.00594530450836,0.03690086409386801,-0.06749528782502272,1.3636404771903199
1765470638.0647388,4.215407609939575,0.0244834377335,0.0565761409103,-0.0271511914436,0.0190021076704,0.0268420669719,0.00900309936913,0.00541369411378,-0.00101969789701,0.00583244823567,0.03690086409386801,-0.06749528782502272,1.3636404771903199
1765470638.0848727,4.235541582107544,0.0248675649113,0.0571139966865,-0.0303865344404,0.0191133810474,0.0267949508822,0.00105198090188,0.00543804152647,-0.00131216163117,0.0058741025585,0.03690086409386801,-0.06749528782502272,1.3636404771903199
1765470638.1050923,4.25576114654541,0.0252535863656,0.0576508983967,-0.0331712518704,0.0192246538371,0.0267468040841,-0.00544825605501,0.00545795337314,-0.0015513448703,0.0060232973914,0.03690086409386801,-0.06749528782502272,1.3636404771903199
1765470638.1251884,4.275857210159302,0.0256442479709,0.0581905365043,-0.0355657488033,0.0193366852958,0.0266975867337,-0.0107074431117,0.00547425711144,-0.00174718712437,0.00624389719778,0.03690086409386801,-0.06749528782502272,1.3636404771903199
1765470638.1452603,4.295929193496704,0.0260349571297,0.0587264515082,-0.0376161699619,0.0194481585778,0.0266478404441,-0.0148985178082,0.00548759097661,-0.00190735494382,0.0065090983645,0.03690086409386801,-0.06749528782502272,1.3636404771903199
1765470638.1665514,4.317220211029053,0.0264276914916,0.0592613266708,-0.0393673921578,0.0195596236003,0.0265975371378,-0.0181772449068,0.0054984977079,-0.00203836777049,0.0067983579016,0.03690086409386801,-0.06749528782502272,1.3636404771903199
1765470638.1858528,4.336521625518799,0.0268368885069,0.0598155442031,-0.0408656227448,0.0198146386682,0.0267499999748,-0.0208395556871,0.00708761931062,9.08808234454e-05,0.00510224534114,0.03673579387936433,-0.06754140628496233,1.3633055846832425
1765470638.2065535,4.357222318649292,0.0272668926102,0.0603938403237,-0.03994422578,0.0200825034393,0.0269112369698,-0.0175916920748,0.00839645326303,0.00184457471829,0.00417769257742,0.03673579387936433,-0.06754140628496233,1.3633055846832425
1765470638.2285101,4.379179000854492,0.0276839602163,0.0609508055998,-0.0391226046163,0.0203491700305,0.0270786006952,-0.0147877380809,0.00946418465737,0.00327521763839,0.00338872100477,0.03673579387936433,-0.06754140628496233,1.3633055846832425
1765470638.247633,4.398301839828491,0.0281034904319,0.0615072594465,-0.0384030323705,0.0206189743695,0.0272507831052,-0.0123683218898,0.0103356650893,0.00444290580091,0.00271448618728,0.03673579387936433,-0.06754140628496233,1.3633055846832425
1765470638.2671373,4.417806148529053,0.0285272977684,0.0620656296367,-0.0377736930641,0.0208918830064,0.027427064386,-0.0102829056891,0.0110476554512,0.00539689476842,0.00213734966637,0.03673579387936433,-0.06754140628496233,1.3633055846832425
1765470638.2871704,4.4378392696380615,0.0289554489898,0.0626260104318,-0.0372233360507,0.0211672415252,0.02760667309,-0.00848849275763,0.0116296675548,0.00617672713053,0.0016426654984,0.03673579387936433,-0.06754140628496233,1.3633055846832425
1765470638.3073292,4.457998037338257,0.0293884594069,0.0631890828402,-0.0367423478573,0.0214447532772,0.027789090645,-0.00694749397535,0.0121056557244,0.00681449905379,0.00121813835673,0.03673579387936433,-0.06754140628496233,1.3633055846832425
1765470638.3284774,4.479146242141724,0.0298274195425,0.0637562571954,-0.0363223044416,0.0217245658863,0.0279741313824,-0.00562674752206,0.0124951698284,0.00733640521692,0.0008533739968,0.03673579387936433,-0.06754140628496233,1.3633055846832425
1765470638.348515,4.499183893203735,0.0302702083412,0.0643248035403,-0.0359555394879,0.0220050772682,0.028160642115,-0.00449896698685,0.0128137754828,0.00776330183723,0.000539805904325,0.03673579387936433,-0.06754140628496233,1.3633055846832425
1765470638.3679395,4.518608331680298,0.0307182498082,0.0648965712243,-0.0334349841939,0.0222867705494,0.028348705068,0.00168781000772,0.0130744416316,0.00811256587716,0.000685257347735,0.03673579387936433,-0.06754140628496233,1.3633055846832425
1765470638.3883164,4.538985252380371,0.0311673676397,0.065475657145,-0.0312635213431,0.0225029611064,0.0285457723373,0.0067340524231,0.012539927798,0.00847309325629,0.000485114898417,0.03627957357868774,-0.06766934620820542,1.3627899966962032
1765470638.4080684,4.558737277984619,0.031619266434,0.0660551991843,-0.0293988547326,0.0227158595253,0.0287432880209,0.0108094163858,0.0121026928193,0.00876800644853,0.000244277309664,0.03627957357868774,-0.06766934620820542,1.3627899966962032
1765470638.4283333,4.579002141952515,0.03207554989,0.0666375975357,-0.0278019588165,0.0229268973004,0.0289416550292,0.0140529962986,0.0117450376303,0.00900924340037,-1.87367793436e-05,0.03627957357868774,-0.06766934620820542,1.3627899966962032
1765470638.4485362,4.599205017089844,0.0325366330956,0.0672236680304,-0.0264380115005,0.0231366667149,0.0291408977252,0.0165866235044,0.0114524156043,0.00920661575166,-0.00029022525917,0.03627957357868774,-0.06766934620820542,1.3627899966962032
1765470638.4687216,4.619390487670898,0.0330023895238,0.0678134864794,-0.0252767451317,0.0233453941431,0.0293408593835,0.0185159853089,0.0112129682272,0.00936812202119,-0.000560266162287,0.03627957357868774,-0.06766934620820542,1.3627899966962032
1765470638.4887276,4.63939642906189,0.0334730460286,0.0684075290379,-0.0242914048124,0.02355342139,0.0295415435877,0.0199328270391,0.011016994713,0.00950030534937,-0.000821873510489,0.03627957357868774,-0.06766934620820542,1.3627899966962032
1765470638.5088394,4.659508228302002,0.0339481736108,0.0690054127134,-0.0254755230304,0.0237607335083,0.0297427061065,0.016126562693,0.0108566028035,0.00960848903166,-0.0014503554398,0.03627957357868774,-0.06766934620820542,1.3627899966962032
1765470638.5289764,4.679645299911499,0.0344274141121,0.0696068181695,-0.0265100318927,0.0239673283986,0.0299441424833,0.0128539893665,0.0107253443596,0.00969702231142,-0.00192208347296,0.03627957357868774,-0.06766934620820542,1.3627899966962032
1765470638.548814,4.6994829177856445,0.0349108090951,0.0702119040418,-0.0274128971126,0.0241733610097,0.0301458208667,0.0100476548264,0.0106179286951,0.0097694737347,-0.00227094938977,0.03627957357868774,-0.06766934620820542,1.3627899966962032
1765470638.5693507,4.720019578933716,0.0354007096661,0.0708236836964,-0.0281999956427,0.0243799589312,0.0303486478667,0.00764580368816,0.0105299603748,0.00982880800441,-0.00252439619304,0.03627957357868774,-0.06766934620820542,1.3627899966962032
1765470638.5895188,4.740187644958496,0.0359125874453,0.0714272335352,-0.0288958326902,0.024779791444,0.0304535784233,0.00538823412902,0.0125986687382,0.00880545802431,-0.00533475668911,0.03566667618213042,-0.06776067598883832,1.362296379788157
1765470638.6097465,4.760415315628052,0.0364294983373,0.0720344080461,-0.0295027141935,0.0251871374595,0.0305547993663,0.00343114022869,0.0142914903134,0.00796805196164,-0.00760962566785,0.03566667618213042,-0.06776067598883832,1.362296379788157
1765470638.6296468,4.780315637588501,0.0369523039064,0.0726450499813,-0.0300319587785,0.0256007360357,0.0306530276764,0.00173674303853,0.0156768876954,0.00728272269609,-0.00944970971349,0.03566667618213042,-0.06776067598883832,1.362296379788157
1765470638.6498218,4.800490617752075,0.0374813634584,0.0732586132696,-0.0282937694566,0.026019354393,0.0307487441157,0.00549779869112,0.016810695991,0.00672184968116,-0.0105223022984,0.03566667618213042,-0.06776067598883832,1.362296379788157
1765470638.6715462,4.8222150802612305,0.03801703742,0.0738747398583,-0.0268045239255,0.0264420017709,0.0308423778443,0.00848049614965,0.0177385820814,0.00626284239479,-0.0114614460574,0.03566667618213042,-0.06776067598883832,1.362296379788157
1765470638.6900828,4.840751647949219,0.0385601446422,0.0744937468127,-0.0255323024717,0.0268682171087,0.0309344043249,0.0107983558706,0.0184980331556,0.00588715665024,-0.0122824948662,0.03566667618213042,-0.06776067598883832,1.362296379788157
1765470638.7102437,4.860912561416626,0.0391120408812,0.0751166504079,-0.0244485893984,0.0272981196434,0.0310253310481,0.0125501054103,0.0191198345831,0.00557956352128,-0.0129992991552,0.03566667618213042,-0.06776067598883832,1.362296379788157
1765470638.731019,4.881687879562378,0.0396714916929,0.0757415932386,-0.0235297033112,0.0277301826136,0.0311150707313,0.013821702736,0.0196287998772,0.00532778824314,-0.0136238740564,0.03566667618213042,-0.06776067598883832,1.362296379788157
1765470638.7505248,4.901193618774414,0.0402377176065,0.0763673825957,-0.0227547680501,0.0281632801076,0.0312036568895,0.0146880997116,0.0200452293392,0.00512178864973,-0.0141668592454,0.03566667618213042,-0.06776067598883832,1.362296379788157
1765470638.770875,4.921543836593628,0.0408123155018,0.0769955405835,-0.0221040859927,0.0285980765642,0.0312915388446,0.0152137934633,0.0203860046066,0.00495321372186,-0.014638019305,0.03566667618213042,-0.06776067598883832,1.362296379788157
1765470638.7909567,4.941625595092773,0.0413652310791,0.0776018397256,-0.0241192461239,0.0287415554583,0.0311470222247,0.00954803095308,0.0174465582798,0.00226357652444,-0.0131635424708,0.035403455997889716,-0.06785605876775519,1.361995708901087
1765470638.8110096,4.961678504943848,0.0419251597624,0.0782089765115,-0.0258672764536,0.0288742613144,0.0309927297746,0.00479782698726,0.0150412378259,6.26724611416e-05,-0.0118849209155,0.035403455997889716,-0.06785605876775519,1.361995708901087
1765470638.8310251,4.981693983078003,0.0424917666937,0.0788167478118,-0.0273810875888,0.0289984721344,0.0308304323253,0.000839272910188,0.0130725801991,-0.00173867860751,-0.0107760792645,0.035403455997889716,-0.06785605876775519,1.361995708901087
1765470638.851159,5.001827955245972,0.0430630835638,0.0794231785011,-0.0286893854292,0.0291152127005,0.0306616130569,-0.0024339912938,0.0114616081881,-0.00321274200695,-0.00981477591048,0.035403455997889716,-0.06785605876775519,1.361995708901087
1765470638.8713152,5.021984100341797,0.0436393200721,0.0800285927864,-0.0298177332323,0.0292261919578,0.0304874208466,-0.00511695767866,0.0101431514538,-0.00441914956863,-0.00898155091096,0.035403455997889716,-0.06785605876775519,1.361995708901087
1765470638.8917003,5.04236912727356,0.0442252791736,0.080638011019,-0.0307906854412,0.0293341587381,0.0303078753852,-0.00729602528928,0.00906255872051,-0.0054079080243,-0.00825881063545,0.035403455997889716,-0.06785605876775519,1.361995708901087
1765470638.912087,5.062755823135376,0.0448097738505,0.0812398687836,-0.031624444986,0.0294364124546,0.0301255325885,-0.0090359543524,0.00817874105647,-0.00621661435898,-0.00763320899275,0.035403455997889716,-0.06785605876775519,1.361995708901087
1765470638.9321866,5.082855463027954,0.0453977758187,0.0818393946521,-0.0305034270975,0.0295355012841,0.0299402220122,-0.00604508132632,0.007455681076,-0.00687822501733,-0.00674620780063,0.035403455997889716,-0.06785605876775519,1.361995708901087
1765470638.9517202,5.102389097213745,0.045988725039,0.0824360485593,-0.029534634469,0.029631934385,0.0297525304007,-0.00355300676288,0.00686408081851,-0.00741954806991,-0.00606035777002,0.035403455997889716,-0.06785605876775519,1.361995708901087
1765470638.9739335,5.124602317810059,0.0465825877356,0.0830298194614,-0.0286988147176,0.0297262397212,0.0295628428568,-0.00149140215428,0.00637997955357,-0.00786250794219,-0.00553352225455,0.035403455997889716,-0.06785605876775519,1.361995708901087
1765470638.9928977,5.143566608428955,0.0471892438852,0.083635103296,-0.0279752991397,0.0298846781885,0.0294808594264,0.000270355392012,0.00670093310843,-0.00701076814614,-0.00425871902642,0.03521305662470586,-0.06780528393709714,1.361889182457484
1765470639.012852,5.163520812988281,0.047794404122,0.0842333385946,-0.027353266032,0.0300433686614,0.0294030442208,0.0017155721192,0.00696342063582,-0.00631418426458,-0.00324177453546,0.03521305662470586,-0.06780528393709714,1.361889182457484
1765470639.0328133,5.1834821701049805,0.0484027189992,0.0848293232302,-0.0268195600965,0.0302030854476,0.0293276688842,0.00288861850319,0.00717816797117,-0.00574429230095,-0.002431740666,0.03521305662470586,-0.06780528393709714,1.361889182457484
1765470639.0529668,5.2036356925964355,0.0490138922095,0.0854229145045,-0.0263626639784,0.030363569971,0.0292543664201,0.0038285620569,0.00735387930521,-0.0052779932569,-0.00178773421873,0.03521305662470586,-0.06780528393709714,1.361889182457484
1765470639.0733285,5.223997354507446,0.0496281633039,0.0860144660977,-0.0261558391869,0.0305247219747,0.0291827348097,0.00413383585179,0.00749766834136,-0.00489640893582,-0.00131131107408,0.03521305662470586,-0.06780528393709714,1.361889182457484
1765470639.093659,5.244327783584595,0.0502523464778,0.0866105405931,-0.0259803792158,0.0306880949248,0.0291114405289,0.00435074405522,0.00761553454457,-0.00458361808379,-0.000927952635166,0.03521305662470586,-0.06780528393709714,1.361889182457484
1765470639.1138775,5.2645463943481445,0.0508727496541,0.0871981816959,-0.0258338243989,0.0308502057559,0.0290423711684,0.00449366155821,0.00771190653999,-0.0043278681085,-0.000620539897551,0.03521305662470586,-0.06780528393709714,1.361889182457484
1765470639.1338053,5.28447413444519,0.0514961725377,0.0877839603618,-0.0257113911777,0.0310126378586,0.028974237149,0.00457453970105,0.00779072771225,-0.00411869413873,-0.000374146081479,0.03521305662470586,-0.06780528393709714,1.361889182457484
1765470639.153952,5.304620742797852,0.0521228098111,0.0883681159075,-0.0256097057117,0.0311753691481,0.0289068498155,0.00460389525226,0.00785521015402,-0.00394757199046,-0.000176751804249,0.03521305662470586,-0.06780528393709714,1.361889182457484
1765470639.1752264,5.325895309448242,0.0527528087248,0.0889508290124,-0.0255258482193,0.031338378789,0.0288400592952,0.00459075818086,0.00790797228042,-0.00380755296871,-1.86785817641e-05,0.03521305662470586,-0.06780528393709714,1.361889182457484
1765470639.1959002,5.346569061279297,0.0533744047486,0.0895494855514,-0.0254565925048,0.0313899478074,0.0289503700398,0.00455949000255,0.00672321123061,-0.00174940743499,0.000314408454148,0.03535679658335369,-0.06778097426977177,1.361909821955932
1765470639.2145336,5.3652024269104,0.0539992002929,0.0901477451213,-0.0254003855192,0.0314373105713,0.0290681227615,0.00450080517146,0.00575360896814,-6.50318671863e-05,0.000584710464127,0.03535679658335369,-0.06778097426977177,1.361909821955932
1765470639.2349405,5.38560938835144,0.0546265479253,0.090746080629,-0.0257220244765,0.0314811699955,0.0291920182418,0.0035491679007,0.00496005090562,0.00131352289065,0.000734982533482,0.03535679658335369,-0.06778097426977177,1.361909821955932
1765470639.2545292,5.405198097229004,0.0552553679158,0.0913443665591,-0.0260018289277,0.0315220476459,0.0293209136756,0.00274357811918,0.00431067191121,0.00244161237102,0.000869489761194,0.03535679658335369,-0.06778097426977177,1.361909821955932
1765470639.2745605,5.42522931098938,0.0558857875642,0.0919434358831,-0.0262448340311,0.0315605458444,0.0294538881976,0.00206483798208,0.00377926498664,0.00336476289878,0.000989578955222,0.03535679658335369,-0.06778097426977177,1.361909821955932
1765470639.2947884,5.445457220077515,0.0565179250161,0.0925439864462,-0.0264555397974,0.0315971346991,0.0295902316825,0.00149604176154,0.0033443535894,0.00412028313633,0.00109654175209,0.03535679658335369,-0.06778097426977177,1.361909821955932
1765470639.3148575,5.465526342391968,0.0571514272477,0.0931461703064,-0.0266379313526,0.0316321402475,0.0297293232908,0.00102241379092,0.00298840854747,0.00473862444524,0.00119159565893,0.03535679658335369,-0.06778097426977177,1.361909821955932
1765470639.3348222,5.485491037368774,0.0577901940598,0.0937540597545,-0.0267955732924,0.0316662060129,0.0298713140882,0.000630720811366,0.00269681337032,0.00524517832934,0.00127592396967,0.03535679658335369,-0.06778097426977177,1.361909821955932
1765470639.3562229,5.50689172744751,0.0584258496744,0.0943600899804,-0.026931519083,0.0316988211852,0.0300145013949,0.00031003120247,0.00245829062605,0.00565953573997,0.00135052209842,0.03535679658335369,-0.06778097426977177,1.361909821955932
1765470639.3761733,5.52684211730957,0.0591418307527,0.0950061156907,-0.0268683112404,0.0320649240169,0.0301094762298,0.000396964619646,0.00590591840341,0.00536101910429,0.000301636701034,0.035589261418193185,-0.06771816527993793,1.3620469747520711
1765470639.3978267,5.548495531082153,0.0598140013084,0.0956108268693,-0.0268151068007,0.0324389207507,0.030195256435,0.000448399608712,0.00871045849806,0.00511818492156,-0.00055392506015,0.035589261418193185,-0.06771816527993793,1.3620469747520711
1765470639.4178128,5.568481683731079,0.0604900058717,0.0962180733436,-0.0267702917216,0.0328225146498,0.0302802924645,0.000471879717033,0.0109967735449,0.00492022182347,-0.00125332977943,0.035589261418193185,-0.06771816527993793,1.3620469747520711
1765470639.4373646,5.588033437728882,0.0611699956271,0.0968270071999,-0.026732857244,0.0332138209173,0.0303645991063,0.000472180322492,0.0128629130081,0.00475864008953,-0.00182580345175,0.035589261418193185,-0.06771816527993793,1.3620469747520711
1765470639.4597225,5.61039137840271,0.0618945555213,0.0974736426776,-0.0267012884557,0.0336278696551,0.0304538333938,0.000451141724724,0.0144006417369,0.00462549415953,-0.00229884175023,0.035589261418193185,-0.06771816527993793,1.3620469747520711
1765470639.4805696,5.6312384605407715,0.0625876616317,0.0980881571525,-0.0266759863833,0.0340326291206,0.0305372943955,0.000416376375788,0.0156522270088,0.00451712427486,-0.00268495778974,0.035589261418193185,-0.06771816527993793,1.3620469747520711
1765470639.4989748,5.649643659591675,0.0632851612303,0.0987028240969,-0.0266556796511,0.034440711955,0.0306201428195,0.000369120458934,0.0166722998645,0.00442880014688,-0.00300052973948,0.035589261418193185,-0.06771816527993793,1.3620469747520711
1765470639.5191464,5.669815301895142,0.0639895245849,0.0993194440116,-0.027376239458,0.034852295361,0.0307027175445,-0.0014354941391,0.0175048823592,0.00435671007763,-0.00339822429469,0.035589261418193185,-0.06771816527993793,1.3620469747520711
1765470639.5391257,5.689794540405273,0.064701025952,0.0999379142478,-0.0279958611103,0.0352667587257,0.0307850583061,-0.00291730969856,0.0181850733281,0.00429781499592,-0.00369728302684,0.035589261418193185,-0.06771816527993793,1.3620469747520711
1765470639.559576,5.71024489402771,0.0654203459344,0.100558549219,-0.0285280087569,0.0356838190369,0.0308672540131,-0.00412292071532,0.0187411574918,0.00424966583817,-0.00391966436488,0.035589261418193185,-0.06771816527993793,1.3620469747520711
1765470639.5787292,5.729398012161255,0.0661111179181,0.101151774705,-0.0289820547577,0.0357422010158,0.0306580976661,-0.00504592396462,0.0152360189721,0.00101422160746,-0.00350710366191,0.03567155725706583,-0.06773225090539092,1.3623010403200646
1765470639.5997777,5.750446557998657,0.0668070820155,0.101744575256,-0.0293697357583,0.0357877318709,0.0304375052339,-0.00576492140209,0.012369334034,-0.00163189328708,-0.00315359116765,0.03567155725706583,-0.06773225090539092,1.3623010403200646
1765470639.61988,5.7705488204956055,0.0675085204484,0.102337118505,-0.0296998684092,0.0358232699809,0.0302075738079,-0.00631060335296,0.0100240493962,-0.00379672574886,-0.00285069555129,0.03567155725706583,-0.06773225090539092,1.3623010403200646
1765470639.639994,5.79066276550293,0.068214001314,0.102928115222,-0.0299798935603,0.0358504398253,0.0299699677718,-0.00670931719969,0.00810512112317,-0.00556800679105,-0.00259127345982,0.03567155725706583,-0.06773225090539092,1.3623010403200646
1765470639.6598518,5.810520648956299,0.0689232537225,0.103517268333,-0.0298497566581,0.0358708432317,0.0297259728075,-0.00611301118682,0.00653474432863,-0.00701755479361,-0.00229996949935,0.03567155725706583,-0.06773225090539092,1.3623010403200646
