timestamp_abs,timestamp_rel,x,y,z,vx,vy,vz,ax,ay,az,roll,pitch,yaw
1765472102.8678207,0.9548840522766113,0.0,0.0,-0.0721915439984,0.0,0.0,-5.78942543346e-07,0.0,0.0,-2.55356718337e-12,0.0,0.0,0.0
1765472102.87872,0.9657833576202393,0.0,0.0,-0.0765105214243,0.0,0.0,-0.000904156048614,0.0,0.0,-2.72590225957e-05,0.0,0.0,0.0
1765472102.901723,0.9887862205505371,0.0,0.0,-0.0779226356696,0.0,0.0,-0.00152231941485,0.0,0.0,-6.94684795172e-05,0.0,0.0,0.0
1765472102.9191387,1.006201982498169,0.0,0.0,-0.0784525735632,0.0,0.0,-0.00185139782615,0.0,0.0,-0.000105813168365,0.0,0.0,0.0
1765472102.9392254,1.0262887477874756,0.0,0.0,-0.0805697587237,0.0,0.0,-0.00362605916222,0.0,0.0,-0.00038245642671,0.0,0.0,0.0
1765472102.9592745,1.0463378429412842,0.0,0.0,-0.0813807962573,0.0,0.0,-0.00440003722591,0.0,0.0,-0.000537734574757,0.0,0.0,0.0
1765472102.9795136,1.0665769577026367,0.0,0.0,-0.0816909390262,0.0,0.0,-0.00468045455116,0.0,0.0,-0.00060508429231,0.0,0.0,0.0
1765472102.9999564,1.087019681930542,0.0,0.0,-0.0818088698353,0.0,0.0,-0.00472530539927,0.0,0.0,-0.000614788225086,0.0,0.0,0.0
1765472103.0215216,1.1085848808288574,0.0,0.0,-0.0818530923643,0.0,0.0,-0.00465724430226,0.0,0.0,-0.000587056473112,0.0,0.0,0.0
1765472103.0403452,1.127408504486084,0.0,0.0,-0.081868697518,0.0,0.0,-0.00453403671636,0.0,0.0,-0.00053421433042,0.0,0.0,0.0
1765472103.0604053,1.1474685668945312,0.0,0.0,-0.0818733227693,0.0,0.0,-0.00438220291127,0.0,0.0,-0.000463098888663,0.0,0.0,0.0
1765472103.0805755,1.1676387786865234,0.0,0.0,-0.0902921266556,0.0,0.0,-0.0212200790545,0.0,0.0,-0.00858624919872,0.0,0.0,0.0
1765472103.100825,1.1878883838653564,0.0,0.0,-0.0935109750517,0.0,0.0,-0.0274263293561,0.0,0.0,-0.0117667914486,0.0,0.0,0.0
1765472103.1208317,1.207895040512085,0.0,0.0,-0.0947349590701,0.0,0.0,-0.0292000360489,0.0,0.0,-0.0126436826187,0.0,0.0,0.0
1765472103.1408756,1.2279388904571533,0.0,0.0,-0.0951941235357,0.0,0.0,-0.0291357966076,0.0,0.0,-0.012448190374,0.0,0.0,0.0
1765472103.1610048,1.24806809425354,0.0,0.0,-0.0953599838812,0.0,0.0,-0.0283076616971,0.0,0.0,-0.0117423375301,0.0,0.0,0.0
1765472103.181313,1.268376350402832,0.0,0.0,-0.0954146458889,0.0,0.0,-0.0271492826019,0.0,0.0,-0.0107723279581,0.0,0.0,0.0
1765472103.2015305,1.2885937690734863,0.0,0.0,-0.0954240703838,0.0,0.0,-0.0258629943355,0.0,0.0,-0.00966942236838,0.0,0.0,0.0
1765472103.2215698,1.3086330890655518,0.0,0.0,-0.0888712960535,0.0,0.0,-0.00566028828344,0.0,0.0,0.00605771435203,0.0,0.0,0.0
1765472103.2416477,1.3287110328674316,0.0,0.0,-0.0863614158812,0.0,0.0,0.00228350631636,0.0,0.0,0.012371356946,0.0,0.0,0.0
1765472103.262081,1.3491442203521729,0.0,0.0,-0.0854007491935,0.0,0.0,0.00534048590873,0.0,0.0,0.0147352218151,0.0,0.0,0.0
1765472103.2824078,1.3694710731506348,0.0,0.0,-0.085033893748,0.0,0.0,0.0064489395348,0.0,0.0,0.0154456825971,0.0,0.0,0.0
1765472103.3022091,1.3892724514007568,0.0,0.0,-0.0848945200836,0.0,0.0,0.006780487357,0.0,0.0,0.0154637695407,0.0,0.0,0.0
1765472103.3230278,1.4100911617279053,0.0,0.0,-0.0848425355824,0.0,0.0,0.0067995001136,0.0,0.0,0.0151894990495,0.0,0.0,0.0
1765472103.3424225,1.42948579788208,0.0,0.0,-0.0848239902581,0.0,0.0,0.00669105377637,0.0,0.0,0.0147887168156,0.0,0.0,0.0
1765472103.3630219,1.450085163116455,0.0,0.0,-0.084818328075,0.0,0.0,0.00652884119179,0.0,0.0,0.0143310705755,0.0,0.0,0.0
1765472103.382697,1.4697604179382324,0.0,0.0,-0.0900974685134,0.0,0.0,-0.0124025312807,0.0,0.0,-0.00529332318674,0.0,0.0,0.0
1765472103.402909,1.4899723529815674,0.0,0.0,-0.0921083568439,0.0,0.0,-0.0188756594884,0.0,0.0,-0.0119530302199,0.0,0.0,0.0
1765472103.4230242,1.510087490081787,0.0,0.0,-0.0928674624364,0.0,0.0,-0.0205009935286,0.0,0.0,-0.0134341139146,0.0,0.0,0.0
1765472103.4440665,1.5311298370361328,0.0,0.0,-0.0931476301974,0.0,0.0,-0.0202637040155,0.0,0.0,-0.0128790730315,0.0,0.0,0.0
1765472103.4638183,1.5508816242218018,0.0,0.0,-0.0932445796881,0.0,0.0,-0.0193322745771,0.0,0.0,-0.0115529884046,0.0,0.0,0.0
1765472103.4846303,1.5716936588287354,0.0,0.0,-0.0932720783852,0.0,0.0,-0.0181601417171,0.0,0.0,-0.00995998713982,0.0,0.0,0.0
1765472103.5039227,1.5909860134124756,0.0,0.0,-0.0932728544055,0.0,0.0,-0.0169312138735,0.0,0.0,-0.00831260903826,0.0,0.0,0.0
1765472103.5240703,1.6111335754394531,0.0,0.0,-0.0965798375679,0.0,0.0,-0.0287673410545,0.0,0.0,-0.0219644615814,0.0,0.0,0.0
1765472103.5441165,1.6311798095703125,0.0,0.0,-0.0978277063444,0.0,0.0,-0.0318514150936,0.0,0.0,-0.025098921936,0.0,0.0,0.0
1765472103.564219,1.6512823104858398,0.0,0.0,-0.0982881878045,0.0,0.0,-0.0316074006833,0.0,0.0,-0.0241975714783,0.0,0.0,0.0
1765472103.584324,1.6713871955871582,0.0,0.0,-0.0984476192047,0.0,0.0,-0.0301395507685,0.0,0.0,-0.0218190582724,0.0,0.0,0.0
1765472103.6045485,1.6916117668151855,0.0,0.0,-0.098492809362,0.0,0.0,-0.0282611691805,0.0,0.0,-0.0189677956668,0.0,0.0,0.0
1765472103.6246622,1.7117254734039307,0.0,0.0,-0.0984949072586,0.0,0.0,-0.0262877116931,0.0,0.0,-0.0160405434659,0.0,0.0,0.0
1765472103.6448057,1.7318689823150635,0.0,0.0,-0.0984813838453,0.0,0.0,-0.0243386468321,0.0,0.0,-0.0131898684344,0.0,0.0,0.0
1765472103.6653118,1.7523751258850098,0.0,0.0,-0.0971321752763,0.0,0.0,-0.0168838061742,0.0,0.0,-0.00341870607411,0.0,0.0,0.0
1765472103.6850092,1.7720725536346436,0.0,0.0,-0.0966069117448,0.0,0.0,-0.0133000016868,0.0,0.0,0.00124146287144,0.0,0.0,0.0
1765472103.7052107,1.792273998260498,0.0,0.0,-0.0963976815058,0.0,0.0,-0.011251429347,0.0,0.0,0.00384242133586,0.0,0.0,0.0
1765472103.7253208,1.8123841285705566,0.0,0.0,-0.0963099144716,0.0,0.0,-0.00983606487755,0.0,0.0,0.00557397140197,0.0,0.0,0.0
1765472103.745426,1.832489252090454,0.0,0.0,-0.0962691361104,0.0,0.0,-0.00870432476706,0.0,0.0,0.00690168108714,0.0,0.0,0.0
1765472103.7655883,1.852651596069336,0.0,0.0,-0.0962468103903,0.0,0.0,-0.00771988228803,0.0,0.0,0.0080091436218,0.0,0.0,0.0
1765472103.7859762,1.8730394840240479,0.0,0.0,-0.096231988061,0.0,0.0,-0.00682870864998,0.0,0.0,0.00897034719371,0.0,0.0,0.0
1765472103.8060248,1.8930881023406982,0.0,0.0,-0.0855563447362,0.0,0.0,0.0403444078751,0.0,0.0,0.0711625224092,0.0,0.0,0.0
1765472103.8261094,1.913172721862793,0.0,0.0,-0.081501545879,0.0,0.0,0.0558590974287,0.0,0.0,0.0898826552754,0.0,0.0,0.0
1765472103.8468955,1.9339587688446045,0.0,0.0,-0.0799794210568,0.0,0.0,0.0593276369883,0.0,0.0,0.0920960942625,0.0,0.0,0.0
1765472103.8663683,1.9534316062927246,0.0,0.0,-0.0794250893068,0.0,0.0,0.058284717669,0.0,0.0,0.0882117318874,0.0,0.0,0.0
1765472103.8869665,1.974029779434204,0.0,0.0,-0.0792400408316,0.0,0.0,0.0556243616389,0.0,0.0,0.0822444419845,0.0,0.0,0.0
1765472103.9067464,1.993809700012207,0.0,0.0,-0.0791945569773,0.0,0.0,0.0524505381554,0.0,0.0,0.0757250790168,0.0,0.0,0.0
1765472103.9268496,2.0139129161834717,0.0,0.0,-0.0792018803558,0.0,0.0,0.0491919043676,0.0,0.0,0.0692511556719,0.0,0.0,0.0
1765472103.9470108,2.034074068069458,0.0,0.0,-0.0865681310668,0.0,0.0,0.0133942161709,0.0,0.0,0.0187877329332,0.0,0.0,0.0
1765472103.9680426,2.0551059246063232,0.0,0.0,-0.0893831636015,0.0,0.0,9.83121577345e-06,0.0,0.0,6.70760025081e-05,0.0,0.0,0.0
1765472103.9872458,2.0743091106414795,0.0,0.0,-0.0904564176915,0.0,0.0,-0.00477941357304,0.0,0.0,-0.00646389613389,0.0,0.0,0.0
1765472104.0083406,2.0954039096832275,0.0,0.0,-0.0908633141009,0.0,0.0,-0.00629253446731,0.0,0.0,-0.00835292645412,0.0,0.0,0.0
1765472104.0277236,2.1147868633270264,0.0,0.0,-0.0910153196593,0.0,0.0,-0.0065661290167,0.0,0.0,-0.00849702189879,0.0,0.0,0.0
1765472104.0492966,2.136359930038452,0.0,0.0,-0.0910701690055,0.0,0.0,-0.00638008876382,0.0,0.0,-0.00800634925804,0.0,0.0,0.0
1765472104.0682623,2.1553256511688232,0.0,0.0,-0.0910877293414,0.0,0.0,-0.0060351440504,0.0,0.0,-0.00731094766564,0.0,0.0,0.0
1765472104.0888283,2.175891637802124,0.0,0.0,-0.0870841966537,0.0,0.0,0.0124024367881,0.0,0.0,0.0182522041919,0.0,0.0,0.0
1765472104.1088223,2.19588565826416,0.0,0.0,-0.0855642151883,0.0,0.0,0.0184736756554,0.0,0.0,0.0261077279404,0.0,0.0,0.0
1765472104.1286542,2.2157175540924072,0.0,0.0,-0.0849936758944,0.0,0.0,0.0198696367686,0.0,0.0,0.0273072482661,0.0,0.0,0.0
1765472104.1488256,2.235888957977295,0.0,0.0,-0.0847857755286,0.0,0.0,0.0195253436559,0.0,0.0,0.0260719062109,0.0,0.0,0.0
1765472104.1690779,2.256141185760498,0.0,0.0,-0.0847161610923,0.0,0.0,0.0185629341903,0.0,0.0,0.0240156497531,0.0,0.0,0.0
1765472104.189142,2.27620530128479,0.0,0.0,-0.0846983930217,0.0,0.0,0.0174031944035,0.0,0.0,0.0217388146343,0.0,0.0,0.0
1765472104.2103,2.29736328125,0.0,0.0,-0.0847011308974,0.0,0.0,0.0162214063158,0.0,0.0,0.0194965195199,0.0,0.0,0.0
1765472104.2294438,2.31650710105896,0.0,0.0,-0.0847105409116,0.0,0.0,0.0150750760186,0.0,0.0,0.0173645573456,0.0,0.0,0.0
1765472104.2495594,2.336622714996338,0.0,0.0,-0.085389930956,0.0,0.0,0.0109559554657,0.0,0.0,0.0111693145154,0.0,0.0,0.0
1765472104.2696264,2.356689691543579,0.0,0.0,-0.0856548451376,0.0,0.0,0.00897001846754,0.0,0.0,0.00810262851485,0.0,0.0,0.0
1765472104.2897418,2.376805067062378,0.0,0.0,-0.0857608157544,0.0,0.0,0.00782549337223,0.0,0.0,0.00628772018481,0.0,0.0,0.0
1765472104.309932,2.3969953060150146,0.0,0.0,-0.0858056914194,0.0,0.0,0.00702690485537,0.0,0.0,0.00500300473734,0.0,0.0,0.0
1765472104.3300343,2.417097568511963,0.0,0.0,-0.0858269498979,0.0,0.0,0.00638385982773,0.0,0.0,0.00396982447785,0.0,0.0,0.0
1765472104.350219,2.4372823238372803,0.0,0.0,-0.085838874193,0.0,0.0,0.00582152290527,0.0,0.0,0.00307726800135,0.0,0.0,0.0
1765472104.3706193,2.4576826095581055,0.0,0.0,-0.0858470236706,0.0,0.0,0.00531081268158,0.0,0.0,0.00228121161795,0.0,0.0,0.0
1765472104.3905017,2.477565050125122,0.0,0.0,-0.0945398021366,0.0,0.0,-0.0346797375411,0.0,0.0,-0.0533899299778,0.0,0.0,0.0
1765472104.4106424,2.4977056980133057,0.0,0.0,-0.0978369126775,0.0,0.0,-0.0475304921248,0.0,0.0,-0.0697681383251,0.0,0.0,0.0
1765472104.4307747,2.5178380012512207,0.0,0.0,-0.0990707580009,0.0,0.0,-0.050130328418,0.0,0.0,-0.0714305816291,0.0,0.0,0.0
1765472104.4508939,2.537957191467285,0.0,0.0,-0.0995169105438,0.0,0.0,-0.0489370539632,0.0,0.0,-0.0677676306995,0.0,0.0,0.0
1765472104.4725142,2.559577465057373,0.0,0.0,-0.0996634435801,0.0,0.0,-0.0464093920704,0.0,0.0,-0.0623462603674,0.0,0.0,0.0
1765472104.4913096,2.5783729553222656,0.0,0.0,-0.0996959839921,0.0,0.0,-0.0434912463206,0.0,0.0,-0.0565332917641,0.0,0.0,0.0
1765472104.5117965,2.5988597869873047,0.0,0.0,-0.0996863506448,0.0,0.0,-0.040538586905,0.0,0.0,-0.0508349154099,0.0,0.0,0.0
1765472104.53175,2.6188132762908936,0.0,0.0,-0.0969888426066,0.0,0.0,-0.0255028031205,0.0,0.0,-0.028467765739,0.0,0.0,0.0
1765472104.5518174,2.638880729675293,0.0,0.0,-0.0959472239198,0.0,0.0,-0.0189623236332,0.0,0.0,-0.0185584430557,0.0,0.0,0.0
1765472104.5719745,2.6590378284454346,0.0,0.0,-0.0955397835105,0.0,0.0,-0.0157209194546,0.0,0.0,-0.0135219495345,0.0,0.0,0.0
1765472104.5920749,2.67913818359375,0.0,0.0,-0.0953755467877,0.0,0.0,-0.0137886224525,0.0,0.0,-0.0104502472495,0.0,0.0,0.0
1765472104.6129851,2.7000484466552734,0.0,0.0,-0.0953050332479,0.0,0.0,-0.0123985424578,0.0,0.0,-0.00821948759864,0.0,0.0,0.0
1765472104.6324599,2.7195231914520264,0.0,0.0,-0.0952706569648,0.0,0.0,-0.0112591472673,0.0,0.0,-0.00640071204731,0.0,0.0,0.0
1765472104.652574,2.7396373748779297,0.0,0.0,-0.0952505855162,0.0,0.0,-0.01025642387,0.0,0.0,-0.00482352771943,0.0,0.0,0.0
1765472104.672744,2.7598073482513428,0.0,0.0,-0.0952365216574,0.0,0.0,-0.00934298100638,0.0,0.0,-0.00341493366199,0.0,0.0,0.0
1765472104.6928215,2.7798848152160645,0.0,0.0,-0.0952251654235,0.0,0.0,-0.00849879570977,0.0,0.0,-0.00214234511055,0.0,0.0,0.0
1765472104.71297,2.8000333309173584,0.0,0.0,-0.0952152616981,0.0,0.0,-0.0077138714763,0.0,0.0,-0.000988005517763,0.0,0.0,0.0
1765472104.7329779,2.8200411796569824,0.0,0.0,-0.0952062796715,0.0,0.0,-0.00698263567557,0.0,0.0,5.91386408034e-05,0.0,0.0,0.0
1765472104.7531173,2.8401806354522705,0.0,0.0,-0.0951979726978,0.0,0.0,-0.00630177472786,0.0,0.0,0.00100669028526,0.0,0.0,0.0
1765472104.7733767,2.8604400157928467,0.0,0.0,-0.0951902766962,0.0,0.0,-0.00566795738319,0.0,0.0,0.00186208274302,0.0,0.0,0.0
1765472104.7936542,2.8807175159454346,0.0,0.0,-0.0951831254879,0.0,0.0,-0.00507835563955,0.0,0.0,0.00263183352894,0.0,0.0,0.0
1765472104.813694,2.900757312774658,0.0,0.0,-0.0938399104959,0.0,0.0,0.00156833528336,0.0,0.0,0.0118254512726,0.0,0.0,0.0
1765472104.8337777,2.9208409786224365,0.0,0.0,-0.0933272539332,0.0,0.0,0.00399223046484,0.0,0.0,0.0148727972333,0.0,0.0,0.0
1765472104.8538716,2.940934896469116,0.0,0.0,-0.0931324591374,0.0,0.0,0.00480021208281,0.0,0.0,0.0155816717807,0.0,0.0,0.0
1765472104.8740985,2.9611618518829346,0.0,0.0,-0.0930592528135,0.0,0.0,0.00499239788265,0.0,0.0,0.0154119232673,0.0,0.0,0.0
1765472104.894798,2.9818613529205322,0.0,0.0,-0.0930325647559,0.0,0.0,0.0049514092409,0.0,0.0,0.0149219648912,0.0,0.0,0.0
1765472104.9146664,3.001729726791382,0.0,0.0,-0.0930235456975,0.0,0.0,0.00482298404699,0.0,0.0,0.0143226052819,0.0,0.0,0.0
1765472104.9352038,3.0222671031951904,0.0,0.0,-0.0930214487223,0.0,0.0,0.00466419233791,0.0,0.0,0.0136988585856,0.0,0.0,0.0
1765472104.9546797,3.041743040084839,0.0,0.0,-0.0896802817588,0.0,0.0,0.0197533465251,0.0,0.0,0.03435804036,0.0,0.0,0.0
1765472104.97482,3.0618832111358643,0.0,0.0,-0.0884155064567,0.0,0.0,0.0243712359527,0.0,0.0,0.0398330525536,0.0,0.0,0.0
1765472104.9949305,3.081993818283081,0.0,0.0,-0.0879445553725,0.0,0.0,0.025045322551,0.0,0.0,0.0396539650009,0.0,0.0,0.0
1765472105.0150657,3.1021289825439453,0.0,0.0,-0.0877766959588,0.0,0.0,0.0242709915415,0.0,0.0,0.0374601545251,0.0,0.0,0.0
1765472105.0351863,3.1222496032714844,0.0,0.0,-0.0877240804554,0.0,0.0,0.0229997714454,0.0,0.0,0.0346349785816,0.0,0.0,0.0
1765472105.0556574,3.1427206993103027,0.0,0.0,-0.0877148813971,0.0,0.0,0.0215922537827,0.0,0.0,0.0316988159304,0.0,0.0,0.0
1765472105.0763807,3.1634440422058105,0.0,0.0,-0.0877217245614,0.0,0.0,0.0201842706624,0.0,0.0,0.0288444603057,0.0,0.0,0.0
1765472105.1002865,3.187349796295166,0.0,0.0,-0.0877336713522,0.0,0.0,0.0188186228304,0.0,0.0,0.0261261706138,0.0,0.0,0.0
1765472105.1163492,3.2034125328063965,0.0,0.0,-0.0930951883751,0.0,0.0,-0.00692123288286,0.0,0.0,-0.0105117064013,0.0,0.0,0.0
1765472105.1362073,3.2232706546783447,0.0,0.0,-0.0951350083482,0.0,0.0,-0.0158014874951,0.0,0.0,-0.0226034635053,0.0,0.0,0.0
1765472105.1564157,3.243479013442993,0.0,0.0,-0.0959047713496,0.0,0.0,-0.018296872128,0.0,0.0,-0.0254490845235,0.0,0.0,0.0
1765472105.17652,3.2635834217071533,0.0,0.0,-0.0961891531039,0.0,0.0,-0.0184015455511,0.0,0.0,-0.0248799513196,0.0,0.0,0.0
1765472105.1966288,3.2836921215057373,0.0,0.0,-0.0962883862141,0.0,0.0,-0.0176407478745,0.0,0.0,-0.0231196590263,0.0,0.0,0.0
1765472105.2167697,3.3038330078125,0.0,0.0,-0.0963173208031,0.0,0.0,-0.0165956133842,0.0,0.0,-0.0210123713181,0.0,0.0,0.0
1765472105.2369168,3.3239800930023193,0.0,0.0,-0.0963199346781,0.0,0.0,-0.0154853666637,0.0,0.0,-0.0188733268841,0.0,0.0,0.0
1765472105.2570121,3.3440754413604736,0.0,0.0,-0.0929714507131,0.0,0.0,0.000862866853536,0.0,0.0,0.00446061780455,0.0,0.0,0.0
1765472105.2770796,3.364142894744873,0.0,0.0,-0.0916951226507,0.0,0.0,0.00669658111199,0.0,0.0,0.0124724617872,0.0,0.0,0.0
1765472105.2972205,3.3842837810516357,0.0,0.0,-0.0912114516836,0.0,0.0,0.0085289129333,0.0,0.0,0.0146777316981,0.0,0.0,0.0
1765472105.3173718,3.404435157775879,0.0,0.0,-0.0910308846335,0.0,0.0,0.00885093991848,0.0,0.0,0.0147144589053,0.0,0.0,0.0
1765472105.3374913,3.4245545864105225,0.0,0.0,-0.090966048905,0.0,0.0,0.00861546587203,0.0,0.0,0.0139724984029,0.0,0.0,0.0
1765472105.3576107,3.444674015045166,0.0,0.0,-0.0909452812243,0.0,0.0,0.00818622726154,0.0,0.0,0.0129811639659,0.0,0.0,0.0
1765472105.3777375,3.4648008346557617,0.0,0.0,-0.0909411524494,0.0,0.0,0.0077014876462,0.0,0.0,0.0119402900035,0.0,0.0,0.0
1765472105.3979428,3.485006093978882,0.0,0.0,-0.0896065436447,0.0,0.0,0.0133171751938,0.0,0.0,0.0194376413233,0.0,0.0,0.0
1765472105.4180639,3.505127191543579,0.0,0.0,-0.0891042839161,0.0,0.0,0.0147592932104,0.0,0.0,0.0209030095508,0.0,0.0,0.0
1765472105.4381907,3.525254011154175,0.0,0.0,-0.088920033407,0.0,0.0,0.014644646423,0.0,0.0,0.0201557563292,0.0,0.0,0.0
1765472105.4583104,3.5453736782073975,0.0,0.0,-0.0888570377223,0.0,0.0,0.0139725687373,0.0,0.0,0.0186520368275,0.0,0.0,0.0
1765472105.4784548,3.5655181407928467,0.0,0.0,-0.0888400199991,0.0,0.0,0.0131237859531,0.0,0.0,0.0169442118965,0.0,0.0,0.0
1765472105.498664,3.5857272148132324,0.0,0.0,-0.0888401571077,0.0,0.0,0.0122417682057,0.0,0.0,0.0152379621573,0.0,0.0,0.0
1765472105.5189364,3.605999708175659,0.0,0.0,-0.0888464567351,0.0,0.0,0.0113794054535,0.0,0.0,0.0136069160032,0.0,0.0,0.0
1765472105.5412934,3.628356695175171,0.0,0.0,-0.0955398630462,0.0,0.0,-0.0200614933314,0.0,0.0,-0.030631524758,0.0,0.0,0.0
1765472105.559274,3.6463372707366943,0.0,0.0,-0.0980807972114,0.0,0.0,-0.0304176888447,0.0,0.0,-0.0442160340253,0.0,0.0,0.0
1765472105.5795147,3.6665780544281006,0.0,0.0,-0.0990342195063,0.0,0.0,-0.0328231402301,0.0,0.0,-0.0463289954871,0.0,0.0,0.0
1765472105.5996506,3.686713933944702,0.0,0.0,-0.0993816246326,0.0,0.0,-0.0322799966298,0.0,0.0,-0.0442689672527,0.0,0.0,0.0
1765472105.6198063,3.706869602203369,0.0,0.0,-0.0994979534313,0.0,0.0,-0.0306945348863,0.0,0.0,-0.0408136279927,0.0,0.0,0.0
1765472105.639948,3.727011203765869,0.0,0.0,-0.0995271043874,0.0,0.0,-0.0287881982336,0.0,0.0,-0.0370069472085,0.0,0.0,0.0
1765472105.6601484,3.7472116947174072,0.0,0.0,-0.099523516933,0.0,0.0,-0.0268362835005,0.0,0.0,-0.0332443731002,0.0,0.0,0.0
1765472105.6803203,3.767383575439453,0.0,0.0,-0.0954986479871,0.0,0.0,-0.00663524789057,0.0,0.0,-0.00413066599819,0.0,0.0,0.0
1765472105.7004356,3.787498950958252,0.0,0.0,-0.0939605624267,0.0,0.0,0.000918499518626,0.0,0.0,0.00652242285223,0.0,0.0,0.0
1765472105.72054,3.807603359222412,0.0,0.0,-0.0933740122944,0.0,0.0,0.0036371465353,0.0,0.0,0.0101314824405,0.0,0.0,0.0
1765472105.7406235,3.8276867866516113,0.0,0.0,-0.0931514827435,0.0,0.0,0.00451335937971,0.0,0.0,0.0110690507945,0.0,0.0,0.0
1765472105.7607384,3.847801685333252,0.0,0.0,-0.0930681806151,0.0,0.0,0.00469138038231,0.0,0.0,0.0110064420558,0.0,0.0,0.0
1765472105.781052,3.8681154251098633,0.0,0.0,-0.0930380626112,0.0,0.0,0.00460891509158,0.0,0.0,0.0105821755002,0.0,0.0,0.0
1765472105.8010752,3.88813853263855,0.0,0.0,-0.0930282349429,0.0,0.0,0.0044332797462,0.0,0.0,0.0100399280224,0.0,0.0,0.0
1765472105.8219342,3.9089975357055664,0.0,0.0,-0.0856653364458,0.0,0.0,0.0381462733728,0.0,0.0,0.0567775103947,0.0,0.0,0.0
1765472105.8416743,3.9287376403808594,0.0,0.0,-0.0828833099953,0.0,0.0,0.0484523706807,0.0,0.0,0.0695604267774,0.0,0.0,0.0
1765472105.861728,3.948791265487671,0.0,0.0,-0.081847101221,0.0,0.0,0.0500633784103,0.0,0.0,0.069852817263,0.0,0.0,0.0
1765472105.8818698,3.96893310546875,0.0,0.0,-0.0814767695483,0.0,0.0,0.0484948076218,0.0,0.0,0.0657003644969,0.0,0.0,0.0
1765472105.902019,3.9890823364257812,0.0,0.0,-0.0813595856305,0.0,0.0,0.0458355145701,0.0,0.0,0.0601423672683,0.0,0.0,0.0
1765472105.9221854,4.009248733520508,0.0,0.0,-0.0813378997696,0.0,0.0,0.0428772240712,0.0,0.0,0.0543234599305,0.0,0.0,0.0
1765472105.9423501,4.029413461685181,0.0,0.0,-0.0813515863151,0.0,0.0,0.0399195828685,0.0,0.0,0.048670131753,0.0,0.0,0.0
1765472105.9630458,4.050109148025513,0.0,0.0,-0.0813773627255,0.0,0.0,0.0370694305104,0.0,0.0,0.0433259144201,0.0,0.0,0.0
1765472105.9826138,4.069677114486694,0.0,0.0,-0.086752911267,0.0,0.0,0.00994576884571,0.0,0.0,0.00426508846131,0.0,0.0,0.0
1765472106.0031374,4.090200662612915,0.0,0.0,-0.0888082518419,0.0,0.0,-0.000275333656325,0.0,0.0,-0.0101144610015,0.0,0.0,0.0
1765472106.0229602,4.110023498535156,0.0,0.0,-0.0895929360827,0.0,0.0,-0.00402789780066,0.0,0.0,-0.0150651218333,0.0,0.0,0.0
1765472106.0430791,4.130142450332642,0.0,0.0,-0.0898914043325,0.0,0.0,-0.00530957595112,0.0,0.0,-0.0164296733913,0.0,0.0,0.0
1765472106.063521,4.1505842208862305,0.0,0.0,-0.0900038926868,0.0,0.0,-0.00565052018215,0.0,0.0,-0.0164434716122,0.0,0.0,0.0
1765472106.0837362,4.170799493789673,0.0,0.0,-0.0900452760547,0.0,0.0,-0.00563558380561,0.0,0.0,-0.0159602410581,0.0,0.0,0.0
1765472106.103848,4.190911293029785,0.0,0.0,-0.0900594721905,0.0,0.0,-0.00548862651848,0.0,0.0,-0.0153065274623,0.0,0.0,0.0
1765472106.1240315,4.211094856262207,0.0,0.0,-0.0880583272384,0.0,0.0,0.00386024671237,0.0,0.0,-0.00183529605569,0.0,0.0,0.0
1765472106.144068,4.231131315231323,0.0,0.0,-0.087298586333,0.0,0.0,0.00693865000086,0.0,0.0,0.00251032549694,0.0,0.0,0.0
1765472106.1642919,4.251355171203613,0.0,0.0,-0.0870134638759,0.0,0.0,0.00765028253412,0.0,0.0,0.00343238173834,0.0,0.0,0.0
1765472106.1845205,4.271583795547485,0.0,0.0,-0.0869096422934,0.0,0.0,0.00748663005733,0.0,0.0,0.00310766422442,0.0,0.0,0.0
1765472106.2044594,4.291522741317749,0.0,0.0,-0.0868748069588,0.0,0.0,0.00701650303723,0.0,0.0,0.00236456646267,0.0,0.0,0.0
1765472106.2246528,4.311716079711914,0.0,0.0,-0.0868660573942,0.0,0.0,0.00645590257734,0.0,0.0,0.00151615242655,0.0,0.0,0.0
1765472106.2447922,4.331855535507202,0.0,0.0,-0.0868670306476,0.0,0.0,0.00588681447112,0.0,0.0,0.000679793889875,0.0,0.0,0.0
1765472106.264899,4.351962327957153,0.0,0.0,-0.0808567460094,0.0,0.0,0.03279477273,0.0,0.0,0.0381911911509,0.0,0.0,0.0
1765472106.284978,4.37204122543335,0.0,0.0,-0.0785832422104,0.0,0.0,0.0408914295889,0.0,0.0,0.0484113907876,0.0,0.0,0.0
1765472106.3050199,4.392083168029785,0.0,0.0,-0.0777377985787,0.0,0.0,0.0419200680307,0.0,0.0,0.0484854897675,0.0,0.0,0.0
1765472106.325197,4.412260293960571,0.0,0.0,-0.0774376947205,0.0,0.0,0.0403665232711,0.0,0.0,0.0449565982736,0.0,0.0,0.0
1765472106.3453102,4.432373523712158,0.0,0.0,-0.0773447263738,0.0,0.0,0.0379413083291,0.0,0.0,0.0403109150248,0.0,0.0,0.0
1765472106.36545,4.452513217926025,0.0,0.0,-0.0773297868347,0.0,0.0,0.0352937945034,0.0,0.0,0.0354858486699,0.0,0.0,0.0
1765472106.3855739,4.472637176513672,0.0,0.0,-0.0773434586706,0.0,0.0,0.0326669354021,0.0,0.0,0.030825298303,0.0,0.0,0.0
1765472106.4057314,4.492794752120972,0.0,0.0,-0.0827133354136,0.0,0.0,0.00573551714954,0.0,0.0,-0.00760091039664,0.0,0.0,0.0
1765472106.425864,4.512927293777466,0.0,0.0,-0.0847651255714,0.0,0.0,-0.00430575425847,0.0,0.0,-0.0213915354068,0.0,0.0,0.0
1765472106.4460242,4.533087491989136,0.0,0.0,-0.0855473384535,0.0,0.0,-0.00789277935946,0.0,0.0,-0.0257930936597,0.0,0.0,0.0
1765472106.466235,4.553298234939575,0.0,0.0,-0.0858438402105,0.0,0.0,-0.00901642546065,0.0,0.0,-0.0266348838911,0.0,0.0,0.0
1765472106.4868295,4.573892831802368,0.0,0.0,-0.0859544191802,0.0,0.0,-0.00920399215444,0.0,0.0,-0.0261484480803,0.0,0.0,0.0
1765472106.506521,4.593584299087524,0.0,0.0,-0.0859940685784,0.0,0.0,-0.00904063053432,0.0,0.0,-0.0251856485439,0.0,0.0,0.0
1765472106.527722,4.614785194396973,0.0,0.0,-0.0860065471247,0.0,0.0,-0.00875036412682,0.0,0.0,-0.0240735731212,0.0,0.0,0.0
1765472106.5470839,4.6341471672058105,0.0,0.0,-0.0980400935878,0.0,0.0,-0.0634120883365,0.0,0.0,-0.0996319462766,0.0,0.0,0.0
1765472106.5669603,4.65402364730835,0.0,0.0,-0.102595905837,0.0,0.0,-0.0803001309479,0.0,0.0,-0.120387448283,0.0,0.0,0.0
1765472106.5870898,4.674153089523315,0.0,0.0,-0.10429404473,0.0,0.0,-0.0829827339685,0.0,0.0,-0.12074738588,0.0,0.0,0.0
1765472106.607566,4.694629430770874,0.0,0.0,-0.104901990918,0.0,0.0,-0.0804389988365,0.0,0.0,-0.113803631627,0.0,0.0,0.0
1765472106.6275253,4.714588642120361,0.0,0.0,-0.105093973821,0.0,0.0,-0.0761020850845,0.0,0.0,-0.104556632306,0.0,0.0,0.0
1765472106.6477168,4.7347800731658936,0.0,0.0,-0.105129417235,0.0,0.0,-0.0712754930513,0.0,0.0,-0.0948875643883,0.0,0.0,0.0
1765472106.6678114,4.7548747062683105,0.0,0.0,-0.105107274023,0.0,0.0,-0.0664458446284,0.0,0.0,-0.0854863358566,0.0,0.0,0.0
1765472106.6888788,4.775942087173462,0.0,0.0,-0.105065276303,0.0,0.0,-0.0617881923515,0.0,0.0,-0.0765888998519,0.0,0.0,0.0
1765472106.708104,4.7951672077178955,0.0,0.0,-0.107690659914,0.0,0.0,-0.0695649746498,0.0,0.0,-0.0852847833961,0.0,0.0,0.0
1765472106.7282312,4.815294504165649,0.0,0.0,-0.108655933554,0.0,0.0,-0.069210416683,0.0,0.0,-0.0823931222718,0.0,0.0,0.0
1765472106.7483985,4.835461854934692,0.0,0.0,-0.108987689701,0.0,0.0,-0.06594016951,0.0,0.0,-0.0755165230997,0.0,0.0,0.0
1765472106.7685125,4.855575799942017,0.0,0.0,-0.109079138123,0.0,0.0,-0.0617450093115,0.0,0.0,-0.067544226088,0.0,0.0,0.0
1765472106.7892754,4.876338720321655,0.0,0.0,-0.109081076364,0.0,0.0,-0.0573726293932,0.0,0.0,-0.0595482944468,0.0,0.0,0.0
1765472106.8088884,4.895951747894287,0.0,0.0,-0.109050664282,0.0,0.0,-0.0531008387801,0.0,0.0,-0.0519172747319,0.0,0.0,0.0
1765472106.8289766,4.916039943695068,0.0,0.0,-0.109009768142,0.0,0.0,-0.0490272980253,0.0,0.0,-0.0447771276916,0.0,0.0,0.0
1765472106.8491788,4.93624210357666,0.0,0.0,-0.0922554259701,0.0,0.0,0.031326575717,0.0,0.0,0.0685609693273,0.0,0.0,0.0
1765472106.8694656,4.956528902053833,0.0,0.0,-0.0858824250844,0.0,0.0,0.0588854044372,0.0,0.0,0.105074001232,0.0,0.0,0.0
1765472106.8893926,4.976455926895142,0.0,0.0,-0.0834794830501,0.0,0.0,0.0664611493131,0.0,0.0,0.112688764978,0.0,0.0,0.0
1765472106.9095113,4.996574640274048,0.0,0.0,-0.0825932588473,0.0,0.0,0.066559563584,0.0,0.0,0.109658961863,0.0,0.0,0.0
1765472106.9296587,5.016721963882446,0.0,0.0,-0.082285630146,0.0,0.0,0.063948789229,0.0,0.0,0.102935040635,0.0,0.0,0.0
1765472106.9498956,5.036958932876587,0.0,0.0,-0.0821973998515,0.0,0.0,0.0604414989141,0.0,0.0,0.0951471082476,0.0,0.0,0.0
1765472106.9700048,5.057068109512329,0.0,0.0,-0.08219226546,0.0,0.0,0.0567339857292,0.0,0.0,0.0873016082748,0.0,0.0,0.0
1765472106.9901402,5.0772035121917725,0.0,0.0,-0.0855584229976,0.0,0.0,0.0378226276927,0.0,0.0,0.0584674535358,0.0,0.0,0.0
1765472107.0102396,5.0973029136657715,0.0,0.0,-0.0868591193432,0.0,0.0,0.02952770046,0.0,0.0,0.0452532259047,0.0,0.0,0.0
1765472107.030388,5.117451429367065,0.0,0.0,-0.0873687477545,0.0,0.0,0.025353638021,0.0,0.0,0.0381587536258,0.0,0.0,0.0
1765472107.0505626,5.1376259326934814,0.0,0.0,-0.0875750660411,0.0,0.0,0.0228133449604,0.0,0.0,0.0335431043562,0.0,0.0,0.0
1765472107.071112,5.158175230026245,0.0,0.0,-0.0876646073882,0.0,0.0,0.0209507613893,0.0,0.0,0.0300023893937,0.0,0.0,0.0
1765472107.0910356,5.178098917007446,0.0,0.0,-0.0877088366977,0.0,0.0,0.0193970732951,0.0,0.0,0.0269916736219,0.0,0.0,0.0
1765472107.11108,5.198143243789673,0.0,0.0,-0.0877352454388,0.0,0.0,0.0180099905509,0.0,0.0,0.0242980853679,0.0,0.0,0.0
1765472107.1312377,5.218301057815552,0.0,0.0,-0.0870859424269,0.0,0.0,0.0197850193116,0.0,0.0,0.0260910355967,0.0,0.0,0.0
1765472107.1513352,5.238398551940918,0.0,0.0,-0.0868484237965,0.0,0.0,0.0195506940248,0.0,0.0,0.0250308759679,0.0,0.0,0.0
1765472107.1716228,5.258686065673828,0.0,0.0,-0.0867678651362,0.0,0.0,0.0186015786992,0.0,0.0,0.0230037320359,0.0,0.0,0.0
1765472107.1924841,5.279547452926636,0.0,0.0,-0.0867464696897,0.0,0.0,0.0174261536454,0.0,0.0,0.0207164628182,0.0,0.0,0.0
1765472107.2118878,5.298951148986816,0.0,0.0,-0.0867476528839,0.0,0.0,0.0162155292931,0.0,0.0,0.0184455928682,0.0,0.0,0.0
1765472107.2321153,5.319178581237793,0.0,0.0,-0.0867566878855,0.0,0.0,0.0150376219753,0.0,0.0,0.0162842889566,0.0,0.0,0.0
1765472107.252236,5.339299201965332,0.0,0.0,-0.0867681909172,0.0,0.0,0.0139153924914,0.0,0.0,0.0142613962995,0.0,0.0,0.0
1765472107.2724116,5.3594748973846436,0.0,0.0,-0.082770373129,0.0,0.0,0.031161375288,0.0,0.0,0.0379170902179,0.0,0.0,0.0
1765472107.2924867,5.379549980163574,0.0,0.0,-0.0812627234449,0.0,0.0,0.0359078194012,0.0,0.0,0.0434725998139,0.0,0.0,0.0
1765472107.3127027,5.399765968322754,0.0,0.0,-0.0807065519655,0.0,0.0,0.0359793217164,0.0,0.0,0.0423505579434,0.0,0.0,0.0
1765472107.3327756,5.419838905334473,0.0,0.0,-0.0805134758613,0.0,0.0,0.0343658989033,0.0,0.0,0.0389103522285,0.0,0.0,0.0
1765472107.352876,5.439939260482788,0.0,0.0,-0.0804580940155,0.0,0.0,0.032206732998,0.0,0.0,0.0348057892209,0.0,0.0,0.0
1765472107.37304,5.460103273391724,0.0,0.0,-0.0804541745651,0.0,0.0,0.0299306595902,0.0,0.0,0.0306530813184,0.0,0.0,0.0
1765472107.3930337,5.480097055435181,0.0,0.0,-0.0804689906834,0.0,0.0,0.0276981091359,0.0,0.0,0.0266777220401,0.0,0.0,0.0
1765472107.413176,5.500239372253418,0.0,0.0,-0.0898464592653,0.0,0.0,-0.0171635558039,0.0,0.0,-0.0366448274677,0.0,0.0,0.0
1765472107.433337,5.520400285720825,0.0,0.0,-0.0934137999547,0.0,0.0,-0.0325751558037,0.0,0.0,-0.0571120547099,0.0,0.0,0.0
1765472107.453447,5.540510416030884,0.0,0.0,-0.0947594014321,0.0,0.0,-0.0368208418763,0.0,0.0,-0.0614293358222,0.0,0.0,0.0
1765472107.4736094,5.560672760009766,0.0,0.0,-0.0952557126299,0.0,0.0,-0.0368808302958,0.0,0.0,-0.0597871984946,0.0,0.0,0.0
1765472107.4937167,5.580780029296875,0.0,0.0,-0.0954280466078,0.0,0.0,-0.03542381888,0.0,0.0,-0.056075186157,0.0,0.0,0.0
1765472107.5139213,5.600984573364258,0.0,0.0,-0.0954773776793,0.0,0.0,-0.033466973962,0.0,0.0,-0.0517700164167,0.0,0.0,0.0
1765472107.5358558,5.622919082641602,0.0,0.0,-0.0954807985237,0.0,0.0,-0.0313922024656,0.0,0.0,-0.0474191413705,0.0,0.0,0.0
1765472107.5543482,5.641411542892456,0.0,0.0,-0.0954669055535,0.0,0.0,-0.0293501507804,0.0,0.0,-0.0432380099267,0.0,0.0,0.0
1765472107.5744882,5.661551475524902,0.0,0.0,-0.0947791579682,0.0,0.0,-0.0243401402615,0.0,0.0,-0.0350349346728,0.0,0.0,0.0
1765472107.5945618,5.681625127792358,0.0,0.0,-0.094505232072,0.0,0.0,-0.0215246827916,0.0,0.0,-0.0301236631971,0.0,0.0,0.0
1765472107.615218,5.70228123664856,0.0,0.0,-0.0943903144843,0.0,0.0,-0.0195996043697,0.0,0.0,-0.0265922305925,0.0,0.0,0.0
1765472107.6350694,5.722132682800293,0.0,0.0,-0.0943370177094,0.0,0.0,-0.0180603934832,0.0,0.0,-0.0236967818699,0.0,0.0,0.0
1765472107.6549616,5.742024898529053,0.0,0.0,-0.0943074191011,0.0,0.0,-0.0167183197988,0.0,0.0,-0.0211587082128,0.0,0.0,0.0
1765472107.6752062,5.762269496917725,0.0,0.0,-0.094287594849,0.0,0.0,-0.0154964007231,0.0,0.0,-0.0188596877223,0.0,0.0,0.0
1765472107.6970007,5.784064054489136,0.0,0.0,-0.0942722172385,0.0,0.0,-0.0143594298167,0.0,0.0,-0.0167426727199,0.0,0.0,0.0
1765472107.7156703,5.802733659744263,0.0,0.0,-0.083564655568,0.0,0.0,0.0355684949716,0.0,0.0,0.0533756924882,0.0,0.0,0.0
1765472107.7358108,5.822874069213867,0.0,0.0,-0.0795010086211,0.0,0.0,0.0518798705272,0.0,0.0,0.0746298754554,0.0,0.0,0.0
1765472107.7559152,5.842978477478027,0.0,0.0,-0.077977328433,0.0,0.0,0.0554988524575,0.0,0.0,0.0775807805196,0.0,0.0,0.0
1765472107.776031,5.863094329833984,0.0,0.0,-0.0774239390874,0.0,0.0,0.0544131494412,0.0,0.0,0.0738865983468,0.0,0.0,0.0
1765472107.796312,5.883375406265259,0.0,0.0,-0.0772399161434,0.0,0.0,0.0516692422854,0.0,0.0,0.0679827375692,0.0,0.0,0.0
1765472107.8164792,5.903542518615723,0.0,0.0,-0.0771956592737,0.0,0.0,0.048424943584,0.0,0.0,0.0615465122388,0.0,0.0,0.0
1765472107.8365605,5.92362380027771,0.0,0.0,-0.0772034719184,0.0,0.0,0.0451181513724,0.0,0.0,0.0552043188111,0.0,0.0,0.0
1765472107.8566697,5.943732976913452,0.0,0.0,-0.0852493099195,0.0,0.0,0.00529984227261,0.0,0.0,-0.00188988822858,0.0,0.0,0.0
1765472107.8767729,5.963836193084717,0.0,0.0,-0.0883200042324,0.0,0.0,-0.00924899473555,0.0,0.0,-0.0221309741057,0.0,0.0,0.0
1765472107.897929,5.984992265701294,0.0,0.0,-0.0894874892483,0.0,0.0,-0.0141591489569,0.0,0.0,-0.0283568282514,0.0,0.0,0.0
1765472107.9169974,6.004060745239258,0.0,0.0,-0.0899266299589,0.0,0.0,-0.0154067074609,0.0,0.0,-0.0292995183502,0.0,0.0,0.0
1765472107.9371433,6.024206638336182,0.0,0.0,-0.0900874999714,0.0,0.0,-0.0152869180022,0.0,0.0,-0.0283089503772,0.0,0.0,0.0
1765472107.9572866,6.044349908828735,0.0,0.0,-0.0901423398926,0.0,0.0,-0.0146752338322,0.0,0.0,-0.0266601134029,0.0,0.0,0.0
1765472107.9774125,6.064475774765015,0.0,0.0,-0.0901569015257,0.0,0.0,-0.0139053197479,0.0,0.0,-0.0248374096309,0.0,0.0,0.0
1765472107.9975638,6.084627151489258,0.0,0.0,-0.0928296944778,0.0,0.0,-0.0253061194097,0.0,0.0,-0.0400430192761,0.0,0.0,0.0
1765472108.0176687,6.104732036590576,0.0,0.0,-0.0938367244735,0.0,0.0,-0.028346099968,0.0,0.0,-0.0431584029495,0.0,0.0,0.0
1765472108.0384994,6.12556266784668,0.0,0.0,-0.094207175521,0.0,0.0,-0.0282599465719,0.0,0.0,-0.0418256267829,0.0,0.0,0.0
1765472108.058924,6.145987272262573,0.0,0.0,-0.0943348866074,0.0,0.0,-0.0270474804848,0.0,0.0,-0.0389591477579,0.0,0.0,0.0
1765472108.0784013,6.165464639663696,0.0,0.0,-0.0943706754192,0.0,0.0,-0.0254680667904,0.0,0.0,-0.035660073476,0.0,0.0,0.0
1765472108.0984592,6.185522556304932,0.0,0.0,-0.0943716394628,0.0,0.0,-0.0238142030815,0.0,0.0,-0.0323509661307,0.0,0.0,0.0
1765472108.1185231,6.2055864334106445,0.0,0.0,-0.0943602020226,0.0,0.0,-0.0221925279961,0.0,0.0,-0.0291797313567,0.0,0.0,0.0
1765472108.138777,6.225840330123901,0.0,0.0,-0.0976884728303,0.0,0.0,-0.035942729102,0.0,0.0,-0.0475346607523,0.0,0.0,0.0
1765472108.1599271,6.246990442276001,0.0,0.0,-0.0989377495268,0.0,0.0,-0.0392533573712,0.0,0.0,-0.0508142175542,0.0,0.0,0.0
1765472108.179271,6.266334295272827,0.0,0.0,-0.0993938959832,0.0,0.0,-0.0386940643714,0.0,0.0,-0.0486026071903,0.0,0.0,0.0
1765472108.1993296,6.2863929271698,0.0,0.0,-0.0995474017716,0.0,0.0,-0.0367691331805,0.0,0.0,-0.0445505206004,0.0,0.0,0.0
1765472108.2195349,6.30659818649292,0.0,0.0,-0.0995868246763,0.0,0.0,-0.0344252643534,0.0,0.0,-0.0400282627834,0.0,0.0,0.0
1765472108.2408724,6.327935695648193,0.0,0.0,-0.0995842626416,0.0,0.0,-0.0320098320408,0.0,0.0,-0.0355308496815,0.0,0.0,0.0
1765472108.259924,6.346987247467041,0.0,0.0,-0.0995658897084,0.0,0.0,-0.0296625024192,0.0,0.0,-0.0312564489575,0.0,0.0,0.0
1765472108.2801156,6.367178916931152,0.0,0.0,-0.0808297922622,0.0,0.0,0.0579961841484,0.0,0.0,0.0919238684739,0.0,0.0,0.0
1765472108.30021,6.38727331161499,0.0,0.0,-0.0737161380887,0.0,0.0,0.0868953394786,0.0,0.0,0.129660223891,0.0,0.0,0.0
1765472108.3203077,6.4073710441589355,0.0,0.0,-0.0710458691882,0.0,0.0,0.0935843747453,0.0,0.0,0.135347488627,0.0,0.0,0.0
1765472108.3404648,6.427528142929077,0.0,0.0,-0.0700734784039,0.0,0.0,0.0920199205548,0.0,0.0,0.129361713074,0.0,0.0,0.0
1765472108.3615146,6.448577880859375,0.0,0.0,-0.0697467636295,0.0,0.0,0.0875193188756,0.0,0.0,0.119441676667,0.0,0.0,0.0
1765472108.3809972,6.468060493469238,0.0,0.0,-0.0696659694168,0.0,0.0,0.0821205934944,0.0,0.0,0.10854926674,0.0,0.0,0.0
1765472108.4025822,6.489645481109619,0.0,0.0,-0.0696767611484,0.0,0.0,0.076596936696,0.0,0.0,0.0977908370853,0.0,0.0,0.0
1765472108.421002,6.508065223693848,0.0,0.0,-0.0697200396454,0.0,0.0,0.071231595823,0.0,0.0,0.0875571617292,0.0,0.0,0.0
1765472108.441139,6.528202295303345,0.0,0.0,-0.0844761978896,0.0,0.0,-0.001006497526,0.0,0.0,-0.0156754403748,0.0,0.0,0.0
1765472108.4612644,6.548327684402466,0.0,0.0,-0.0901018550055,0.0,0.0,-0.0268951643069,0.0,0.0,-0.0513487091938,0.0,0.0,0.0
1765472108.4814699,6.568533182144165,0.0,0.0,-0.0922349363306,0.0,0.0,-0.0351464004782,0.0,0.0,-0.0614154270923,0.0,0.0,0.0
1765472108.501595,6.588658332824707,0.0,0.0,-0.0930324918867,0.0,0.0,-0.0367355736049,0.0,0.0,-0.0619064799592,0.0,0.0,0.0
1765472108.52173,6.608793258666992,0.0,0.0,-0.0933200993708,0.0,0.0,-0.0358592643499,0.0,0.0,-0.0589443132572,0.0,0.0,0.0
1765472108.5418854,6.62894868850708,0.0,0.0,-0.0934134537474,0.0,0.0,-0.0341194040875,0.0,0.0,-0.0548608888053,0.0,0.0,0.0
1765472108.5620048,6.649068117141724,0.0,0.0,-0.0934333275197,0.0,0.0,-0.0321262199483,0.0,0.0,-0.0505392643005,0.0,0.0,0.0
1765472108.5821767,6.6692399978637695,0.0,0.0,-0.0867429612579,0.0,0.0,0.000400291141675,0.0,0.0,-0.00375203665624,0.0,0.0,0.0
1765472108.6022646,6.689327955245972,0.0,0.0,-0.0841937860733,0.0,0.0,0.0119305408379,0.0,0.0,0.0124353210041,0.0,0.0,0.0
1765472108.6224246,6.7094879150390625,0.0,0.0,-0.0832286952138,0.0,0.0,0.015478488915,0.0,0.0,0.0170345124017,0.0,0.0,0.0
1765472108.6430607,6.730123996734619,0.0,0.0,-0.0828691078962,0.0,0.0,0.0160243004976,0.0,0.0,0.0173172963205,0.0,0.0,0.0
1765472108.662739,6.749802350997925,0.0,0.0,-0.0827405055171,0.0,0.0,0.0154685725854,0.0,0.0,0.0160551412823,0.0,0.0,0.0
1765472108.6836197,6.77068305015564,0.0,0.0,-0.0827000777403,0.0,0.0,0.0145396619395,0.0,0.0,0.0143087655465,0.0,0.0,0.0
1765472108.7030303,6.790093660354614,0.0,0.0,-0.0826926066086,0.0,0.0,0.0135112130309,0.0,0.0,0.0124723444549,0.0,0.0,0.0
1765472108.723174,6.810237407684326,0.0,0.0,-0.0780192179951,0.0,0.0,0.0338469443913,0.0,0.0,0.0404840262209,0.0,0.0,0.0
1765472108.7433066,6.83036994934082,0.0,0.0,-0.0762557506999,0.0,0.0,0.0395640319795,0.0,0.0,0.0473209586812,0.0,0.0,0.0
1765472108.763592,6.8506553173065186,0.0,0.0,-0.0756040019557,0.0,0.0,0.039810821728,0.0,0.0,0.0463359292753,0.0,0.0,0.0
1765472108.7839448,6.8710081577301025,0.0,0.0,-0.0753762778706,0.0,0.0,0.0380767070767,0.0,0.0,0.0426149318631,0.0,0.0,0.0
1765472108.8062632,6.8933265209198,0.0,0.0,-0.0753086639951,0.0,0.0,0.035678210015,0.0,0.0,0.0380661457857,0.0,0.0,0.0
1765472108.8243067,6.911370038986206,0.0,0.0,-0.0753033857821,0.0,0.0,0.0331459137244,0.0,0.0,0.0334635888746,0.0,0.0,0.0
1765472108.8444011,6.931464433670044,0.0,0.0,-0.07531964613,0.0,0.0,0.0306645111035,0.0,0.0,0.0290617943576,0.0,0.0,0.0
1765472108.864492,6.951555252075195,0.0,0.0,-0.0753429562034,0.0,0.0,0.0282968454336,0.0,0.0,0.0249425484448,0.0,0.0,0.0
1765472108.8846471,6.971710443496704,0.0,0.0,-0.0753679136652,0.0,0.0,0.0260620467794,0.0,0.0,0.0211246817213,0.0,0.0,0.0
1765472108.9048238,6.991887092590332,0.0,0.0,-0.075392230101,0.0,0.0,0.0239580909589,0.0,0.0,0.0175958464693,0.0,0.0,0.0
1765472108.9249074,7.01197075843811,0.0,0.0,-0.0754157457679,0.0,0.0,0.0219859991378,0.0,0.0,0.0143506626269,0.0,0.0,0.0
1765472108.945073,7.0321362018585205,0.0,0.0,-0.0754378765464,0.0,0.0,0.0201391025191,0.0,0.0,0.0113712891365,0.0,0.0,0.0
1765472108.9650311,7.052094459533691,0.0,0.0,-0.0754586115477,0.0,0.0,0.0184102207504,0.0,0.0,0.00864016994481,0.0,0.0,0.0
1765472108.9851549,7.072218179702759,0.0,0.0,-0.0754780871141,0.0,0.0,0.0167939970867,0.0,0.0,0.00614302183056,0.0,0.0,0.0
1765472109.0053356,7.0923988819122314,0.0,0.0,-0.0848527081966,0.0,0.0,-0.0274409808696,0.0,0.0,-0.0557297382036,0.0,0.0,0.0
1765472109.025447,7.1125102043151855,0.0,0.0,-0.088414840128,0.0,0.0,-0.0422527345681,0.0,0.0,-0.0748236447771,0.0,0.0,0.0
1765472109.0456169,7.132680177688599,0.0,0.0,-0.0897542780925,0.0,0.0,-0.0459197439717,0.0,0.0,-0.0778353544082,0.0,0.0,0.0
1765472109.0657194,7.152782678604126,0.0,0.0,-0.090244197806,0.0,0.0,-0.0454287187485,0.0,0.0,-0.0749634823573,0.0,0.0,0.0
1765472109.0860522,7.173115491867065,0.0,0.0,-0.0904103312021,0.0,0.0,-0.0434497617473,0.0,0.0,-0.0700971956512,0.0,0.0,0.0
1765472109.106121,7.1931843757629395,0.0,0.0,-0.0904537002224,0.0,0.0,-0.040999771227,0.0,0.0,-0.0647110818822,0.0,0.0,0.0
1765472109.1266332,7.213696479797363,0.0,0.0,-0.0904511677935,0.0,0.0,-0.0384636660457,0.0,0.0,-0.059356869848,0.0,0.0,0.0
1765472109.1464367,7.233500003814697,0.0,0.0,-0.0911007948769,0.0,0.0,-0.0390315491061,0.0,0.0,-0.0584805125016,0.0,0.0,0.0
1765472109.16647,7.253533363342285,0.0,0.0,-0.0913296971751,0.0,0.0,-0.0376104502571,0.0,0.0,-0.0548555363882,0.0,0.0,0.0
1765472109.1865823,7.273645639419556,0.0,0.0,-0.0913988515446,0.0,0.0,-0.0355210848973,0.0,0.0,-0.0504003787205,0.0,0.0,0.0
1765472109.2073374,7.294400691986084,0.0,0.0,-0.0914096884689,0.0,0.0,-0.0332383513953,0.0,0.0,-0.0457886390403,0.0,0.0,0.0
1765472109.2270198,7.314083099365234,0.0,0.0,-0.0913954169521,0.0,0.0,-0.0309908778338,0.0,0.0,-0.0413663397993,0.0,0.0,0.0
1765472109.2472498,7.334313154220581,0.0,0.0,-0.0913744740226,0.0,0.0,-0.0288394653535,0.0,0.0,-0.0372025491574,0.0,0.0,0.0
1765472109.2709146,7.357977867126465,0.0,0.0,-0.0913555797686,0.0,0.0,-0.0267426311978,0.0,0.0,-0.0332088063699,0.0,0.0,0.0
1765472109.2882054,7.3752686977386475,0.0,0.0,-0.0913302670092,0.0,0.0,-0.0247996518574,0.0,0.0,-0.0295634738732,0.0,0.0,0.0
1765472109.308299,7.395362377166748,0.0,0.0,-0.0886344357473,0.0,0.0,-0.0107858749197,0.0,0.0,-0.00917198478385,0.0,0.0,0.0
1765472109.3283873,7.415450572967529,0.0,0.0,-0.0876011008267,0.0,0.0,-0.0052607954466,0.0,0.0,-0.00120216504861,0.0,0.0,0.0
1765472109.348569,7.435632228851318,0.0,0.0,-0.0872038147527,0.0,0.0,-0.0029898510261,0.0,0.0,0.00200129675809,0.0,0.0,0.0
1765472109.3686774,7.455740690231323,0.0,0.0,-0.0870500189623,0.0,0.0,-0.0019757111752,0.0,0.0,0.00336041464429,0.0,0.0,0.0
1765472109.3887289,7.475792169570923,0.0,0.0,-0.0869895291041,0.0,0.0,-0.00145393795472,0.0,0.0,0.00399412019803,0.0,0.0,0.0
1765472109.4089224,7.495985746383667,0.0,0.0,-0.0869648751445,0.0,0.0,-0.00113115507855,0.0,0.0,0.00433226083449,0.0,0.0,0.0
1765472109.4290423,7.516105651855469,0.0,0.0,-0.0869540804122,0.0,0.0,-0.000893267970426,0.0,0.0,0.00454173870746,0.0,0.0,0.0
1765472109.4492352,7.536298513412476,0.0,0.0,-0.0836067783708,0.0,0.0,0.0145622032832,0.0,0.0,0.0259788935439,0.0,0.0,0.0
1765472109.4693406,7.556403875350952,0.0,0.0,-0.0823375365962,0.0,0.0,0.0195149876496,0.0,0.0,0.0321589630395,0.0,0.0,0.0
1765472109.4894764,7.576539754867554,0.0,0.0,-0.0818627269418,0.0,0.0,0.0205061785113,0.0,0.0,0.0326383912585,0.0,0.0,0.0
1765472109.509637,7.596700429916382,0.0,0.0,-0.0816911351542,0.0,0.0,0.0200315605078,0.0,0.0,0.0310589381446,0.0,0.0,0.0
1765472109.52976,7.616823196411133,0.0,0.0,-0.0816351129377,0.0,0.0,0.019043105109,0.0,0.0,0.0288073329503,0.0,0.0,0.0
1765472109.549926,7.63698935508728,0.0,0.0,-0.0816227217762,0.0,0.0,0.0179023675815,0.0,0.0,0.026406463437,0.0,0.0,0.0
1765472109.5700634,7.6571266651153564,0.0,0.0,-0.081626574366,0.0,0.0,0.016746182233,0.0,0.0,0.0240517063436,0.0,0.0,0.0
1765472109.5901992,7.677262544631958,0.0,0.0,-0.0843093175561,0.0,0.0,0.00342569918693,0.0,0.0,0.00479670734826,0.0,0.0,0.0
1765472109.6103244,7.6973876953125,0.0,0.0,-0.0853335078076,0.0,0.0,-0.00147204979948,0.0,0.0,-0.00216912762079,0.0,0.0,0.0
1765472109.630447,7.717510223388672,0.0,0.0,-0.0857231658778,0.0,0.0,-0.00315695940897,0.0,0.0,-0.00445811550069,0.0,0.0,0.0
1765472109.6506655,7.737728834152222,0.0,0.0,-0.0858701763408,0.0,0.0,-0.00362341961786,0.0,0.0,-0.00498329615972,0.0,0.0,0.0
1765472109.6708784,7.757941722869873,0.0,0.0,-0.0859243916584,0.0,0.0,-0.00363351021628,0.0,0.0,-0.00485739563727,0.0,0.0,0.0
1765472109.6909735,7.778036832809448,0.0,0.0,-0.0859432368407,0.0,0.0,-0.00347891233424,0.0,0.0,-0.00450540446721,0.0,0.0,0.0
1765472109.7111092,7.798172473907471,0.0,0.0,-0.0859486732684,0.0,0.0,-0.00327042660939,0.0,0.0,-0.0040881086,0.0,0.0,0.0
1765472109.7312133,7.818276643753052,0.0,0.0,-0.0912953869073,0.0,0.0,-0.0274560171995,0.0,0.0,-0.037700839148,0.0,0.0,0.0
1765472109.7514944,7.838557720184326,0.0,0.0,-0.0933197803257,0.0,0.0,-0.0348981350854,0.0,0.0,-0.0470199585838,0.0,0.0,0.0
1765472109.7716725,7.858735799789429,0.0,0.0,-0.0940739832585,0.0,0.0,-0.0360361304011,0.0,0.0,-0.0472863762567,0.0,0.0,0.0
1765472109.7919068,7.878970146179199,0.0,0.0,-0.0943434026764,0.0,0.0,-0.0348604276381,0.0,0.0,-0.0443185757841,0.0,0.0,0.0
1765472109.811993,7.8990561962127686,0.0,0.0,-0.0944283008569,0.0,0.0,-0.0328941829642,0.0,0.0,-0.0403320990572,0.0,0.0,0.0
1765472109.832185,7.919248342514038,0.0,0.0,-0.0944437440151,0.0,0.0,-0.0307146576681,0.0,0.0,-0.0361600484639,0.0,0.0,0.0
1765472109.8522544,7.93931770324707,0.0,0.0,-0.0944335939703,0.0,0.0,-0.0285383454451,0.0,0.0,-0.0321096171227,0.0,0.0,0.0
1765472109.872426,7.959489345550537,0.0,0.0,-0.0937462624901,0.0,0.0,-0.023393366596,0.0,0.0,-0.0240334305035,0.0,0.0,0.0
1765472109.8925135,7.979576826095581,0.0,0.0,-0.0934715880089,0.0,0.0,-0.0204496977804,0.0,0.0,-0.0192535622056,0.0,0.0,0.0
1765472109.9126651,7.999728441238403,0.0,0.0,-0.09335547824,0.0,0.0,-0.0184094306003,0.0,0.0,-0.0158678217893,0.0,0.0,0.0
1765472109.9327347,8.019798040390015,0.0,0.0,-0.0933008120773,0.0,0.0,-0.0167710245166,0.0,0.0,-0.0131373021387,0.0,0.0,0.0
1765472109.9528866,8.039949893951416,0.0,0.0,-0.093270220684,0.0,0.0,-0.0153409300585,0.0,0.0,-0.0107739950866,0.0,0.0,0.0
1765472109.9730418,8.060105085372925,0.0,0.0,-0.09324946602,0.0,0.0,-0.0140419499621,0.0,0.0,-0.00865989355659,0.0,0.0,0.0
1765472109.9930723,8.080135583877563,0.0,0.0,-0.0932330872986,0.0,0.0,-0.012841123325,0.0,0.0,-0.00674193141436,0.0,0.0,0.0
1765472110.0131843,8.100247621536255,0.0,0.0,-0.0878722690039,0.0,0.0,0.0126955709187,0.0,0.0,0.0290601933441,0.0,0.0,0.0
1765472110.0333476,8.120410919189453,0.0,0.0,-0.0858336042886,0.0,0.0,0.0213967115929,0.0,0.0,0.0403783241098,0.0,0.0,0.0
1765472110.0534754,8.140538692474365,0.0,0.0,-0.0850656205089,0.0,0.0,0.0237117446679,0.0,0.0,0.0424730706651,0.0,0.0,0.0
1765472110.073699,8.160762310028076,0.0,0.0,-0.0847829549518,0.0,0.0,0.0236362691287,0.0,0.0,0.0411737450876,0.0,0.0,0.0
1765472110.094016,8.181079387664795,0.0,0.0,-0.084685697822,0.0,0.0,0.0226967473386,0.0,0.0,0.0387064579406,0.0,0.0,0.0
1765472110.1140716,8.20113492012024,0.0,0.0,-0.084658744933,0.0,0.0,0.021475616747,0.0,0.0,0.0359158655753,0.0,0.0,0.0
1765472110.1362603,8.223323583602905,0.0,0.0,-0.0846571193924,0.0,0.0,0.0201792396268,0.0,0.0,0.0330906528375,0.0,0.0,0.0
1765472110.1548996,8.241962909698486,0.0,0.0,-0.0846658783186,0.0,0.0,0.0188985361125,0.0,0.0,0.0303664673455,0.0,0.0,0.0
1765472110.1749876,8.262050867080688,0.0,0.0,-0.0900266371395,0.0,0.0,-0.00676081001384,0.0,0.0,-0.0062871473593,0.0,0.0,0.0
1765472110.1968052,8.283868551254272,0.0,0.0,-0.0920656337024,0.0,0.0,-0.0155767319277,0.0,0.0,-0.0184110823039,0.0,0.0,0.0
1765472110.215099,8.302162408828735,0.0,0.0,-0.092834305487,0.0,0.0,-0.0180063913772,0.0,0.0,-0.0212834895272,0.0,0.0,0.0
1765472110.2352154,8.32227873802185,0.0,0.0,-0.0931177605772,0.0,0.0,-0.0180535811361,0.0,0.0,-0.0207509751854,0.0,0.0,0.0
1765472110.2556791,8.342742443084717,0.0,0.0,-0.0932169394734,0.0,0.0,-0.0172347468293,0.0,0.0,-0.0190216332157,0.0,0.0,0.0
1765472110.277292,8.364355325698853,0.0,0.0,-0.093245007265,0.0,0.0,-0.0161393935675,0.0,0.0,-0.0169572224148,0.0,0.0,0.0
1765472110.2960155,8.383078813552856,0.0,0.0,-0.0932467506571,0.0,0.0,-0.0149894916445,0.0,0.0,-0.0148757594195,0.0,0.0,0.0
1765472110.3162158,8.403279066085815,0.0,0.0,-0.0832148982227,0.0,0.0,0.0318635331838,0.0,0.0,0.0509250260454,0.0,0.0,0.0
1765472110.3362424,8.423305749893188,0.0,0.0,-0.0794062277607,0.0,0.0,0.0472862524614,0.0,0.0,0.0710148643012,0.0,0.0,0.0
1765472110.3566036,8.443666934967041,0.0,0.0,-0.0779735515074,0.0,0.0,0.0508230126622,0.0,0.0,0.0739356231107,0.0,0.0,0.0
1765472110.3766816,8.463744878768921,0.0,0.0,-0.077455700001,0.0,0.0,0.0499357874962,0.0,0.0,0.0706204005014,0.0,0.0,0.0
1765472110.3968246,8.483887910842896,0.0,0.0,-0.0772824782276,0.0,0.0,0.0474958695211,0.0,0.0,0.0652311787146,0.0,0.0,0.0
1765472110.4169683,8.504031658172607,0.0,0.0,-0.0772397539992,0.0,0.0,0.0445809235434,0.0,0.0,0.0593304414366,0.0,0.0,0.0
1765472110.4369838,8.524047136306763,0.0,0.0,-0.077245694986,0.0,0.0,0.041597700259,0.0,0.0,0.0535005757989,0.0,0.0,0.0
1765472110.4575243,8.5445876121521,0.0,0.0,-0.0893076087771,0.0,0.0,-0.0168132579835,0.0,0.0,-0.0295260954998,0.0,0.0,0.0
1765472110.4777036,8.564766883850098,0.0,0.0,-0.0938938425016,0.0,0.0,-0.0367978181783,0.0,0.0,-0.056584316194,0.0,0.0,0.0
1765472110.497842,8.58490538597107,0.0,0.0,-0.0956235636869,0.0,0.0,-0.0423942848847,0.0,0.0,-0.0628039456842,0.0,0.0,0.0
1765472110.5179214,8.604984760284424,0.0,0.0,-0.0962626277985,0.0,0.0,-0.0426207067254,0.0,0.0,-0.061353995081,0.0,0.0,0.0
1765472110.5380392,8.625102519989014,0.0,0.0,-0.0964854941157,0.0,0.0,-0.0409027520861,0.0,0.0,-0.0572324610005,0.0,0.0,0.0
1765472110.558471,8.64553427696228,0.0,0.0,-0.096553045353,0.0,0.0,-0.0385078344176,0.0,0.0,-0.0522654600236,0.0,0.0,0.0
1765472110.578594,8.66565728187561,0.0,0.0,-0.0965566669985,0.0,0.0,-0.0359881049121,0.0,0.0,-0.0472805037298,0.0,0.0,0.0
1765472110.598722,8.685785293579102,0.0,0.0,-0.091862164676,0.0,0.0,-0.012188428858,0.0,0.0,-0.012741773871,0.0,0.0,0.0
1765472110.618813,8.705876350402832,0.0,0.0,-0.0900665319963,0.0,0.0,-0.00312831506408,0.0,0.0,0.000257982764051,0.0,0.0,0.0
1765472110.6392133,8.726276636123657,0.0,0.0,-0.0893799022467,0.0,0.0,0.000296819838236,0.0,0.0,0.00502944305156,0.0,0.0,0.0
1765472110.6593072,8.746370553970337,0.0,0.0,-0.0891174949955,0.0,0.0,0.00156867498163,0.0,0.0,0.00666125374748,0.0,0.0,0.0
1765472110.6795914,8.76665472984314,0.0,0.0,-0.0890177042783,0.0,0.0,0.00200800578498,0.0,0.0,0.00708702930126,0.0,0.0,0.0
1765472110.6997263,8.786789655685425,0.0,0.0,-0.0889800290092,0.0,0.0,0.00213157259772,0.0,0.0,0.00706030240177,0.0,0.0,0.0
1765472110.7198575,8.806920766830444,0.0,0.0,-0.088966108821,0.0,0.0,0.00213496869052,0.0,0.0,0.00686668420466,0.0,0.0,0.0
1765472110.740586,8.827649354934692,0.0,0.0,-0.0869563134785,0.0,0.0,0.0112420834777,0.0,0.0,0.019377566399,0.0,0.0,0.0
1765472110.7603652,8.847428560256958,0.0,0.0,-0.0861944247582,0.0,0.0,0.0140613424272,0.0,0.0,0.0227612751643,0.0,0.0,0.0
1765472110.7804458,8.867509126663208,0.0,0.0,-0.0859114015747,0.0,0.0,0.0144981055264,0.0,0.0,0.0227312289837,0.0,0.0,0.0
1765472110.8007705,8.887833833694458,0.0,0.0,-0.0858102232198,0.0,0.0,0.0140644398601,0.0,0.0,0.0214875941662,0.0,0.0,0.0
1765472110.820884,8.907947301864624,0.0,0.0,-0.0857782627152,0.0,0.0,0.013331186963,0.0,0.0,0.0198610725107,0.0,0.0,0.0
1765472110.8410332,8.928096532821655,0.0,0.0,-0.085772402126,0.0,0.0,0.0125146396827,0.0,0.0,0.0181640625117,0.0,0.0,0.0
1765472110.8613615,8.948424816131592,0.0,0.0,-0.0857748874375,0.0,0.0,0.0116770404383,0.0,0.0,0.0164763027084,0.0,0.0,0.0
1765472110.881574,8.968637228012085,0.0,0.0,-0.0864516143408,0.0,0.0,0.00782442514479,0.0,0.0,0.010638613391,0.0,0.0,0.0
1765472110.9016454,8.988708734512329,0.0,0.0,-0.0867131962776,0.0,0.0,0.00611625820384,0.0,0.0,0.00795633867669,0.0,0.0,0.0
1765472110.9217625,9.008825778961182,0.0,0.0,-0.0868159555772,0.0,0.0,0.0052389955068,0.0,0.0,0.00650880101577,0.0,0.0,0.0
1765472110.9425354,9.029598712921143,0.0,0.0,-0.0868577470577,0.0,0.0,0.0046912182795,0.0,0.0,0.00556135284895,0.0,0.0,0.0
1765472110.9627466,9.04980993270874,0.0,0.0,-0.0868759970822,0.0,0.0,0.00427984836221,0.0,0.0,0.00483010048094,0.0,0.0,0.0
1765472110.9823856,9.069448947906494,0.0,0.0,-0.0868854188363,0.0,0.0,0.00393580428186,0.0,0.0,0.00421426898562,0.0,0.0,0.0
1765472111.0025113,9.089574575424194,0.0,0.0,-0.0868911588669,0.0,0.0,0.00362942974729,0.0,0.0,0.00366850797726,0.0,0.0,0.0
1765472111.0231478,9.11021113395691,0.0,0.0,-0.0868953085382,0.0,0.0,0.00334779443465,0.0,0.0,0.00317255987823,0.0,0.0,0.0
1765472111.0427582,9.129821538925171,0.0,0.0,-0.0895716806265,0.0,0.0,-0.00909846713476,0.0,0.0,-0.0142775161222,0.0,0.0,0.0
1765472111.0640805,9.151143789291382,0.0,0.0,-0.0905898705811,0.0,0.0,-0.0132049118033,0.0,0.0,-0.0195964187571,0.0,0.0,0.0
1765472111.0839264,9.170989751815796,0.0,0.0,-0.0909697588341,0.0,0.0,-0.0141013222389,0.0,0.0,-0.0202956380124,0.0,0.0,0.0
1765472111.1072176,9.194280862808228,0.0,0.0,-0.0911083319097,0.0,0.0,-0.0138173305367,0.0,0.0,-0.0193242485727,0.0,0.0,0.0
1765472111.1243331,9.21139645576477,0.0,0.0,-0.0911536618333,0.0,0.0,-0.0131235902902,0.0,0.0,-0.0178121939523,0.0,0.0,0.0
1765472111.1464238,9.233487129211426,0.0,0.0,-0.0911645135977,0.0,0.0,-0.0123070315352,0.0,0.0,-0.0161708382001,0.0,0.0,0.0
1765472111.1647873,9.251850605010986,0.0,0.0,-0.0911628084318,0.0,0.0,-0.0114698311755,0.0,0.0,-0.0145446734149,0.0,0.0,0.0
1765472111.1847932,9.271856546401978,0.0,0.0,-0.0884823438024,0.0,0.0,0.00152892612316,0.0,0.0,0.00400342621224,0.0,0.0,0.0
1765472111.2048721,9.291935443878174,0.0,0.0,-0.0874614900713,0.0,0.0,0.00611724955304,0.0,0.0,0.0102933665991,0.0,0.0,0.0
1765472111.225003,9.312066316604614,0.0,0.0,-0.0870751715847,0.0,0.0,0.00751372190641,0.0,0.0,0.0119525063551,0.0,0.0,0.0
1765472111.245017,9.332080364227295,0.0,0.0,-0.0869313629041,0.0,0.0,0.00770884632213,0.0,0.0,0.0118886850778,0.0,0.0,0.0
1765472111.2654653,9.35252857208252,0.0,0.0,-0.0868794830321,0.0,0.0,0.00745552334485,0.0,0.0,0.0111964498819,0.0,0.0,0.0
1765472111.2856846,9.372747898101807,0.0,0.0,-0.0868640599854,0.0,0.0,0.00705559457962,0.0,0.0,0.0103239145253,0.0,0.0,0.0
1765472111.3057961,9.39285945892334,0.0,0.0,-0.0868615269074,0.0,0.0,0.0066176988022,0.0,0.0,0.0094228499864,0.0,0.0,0.0
1765472111.3259304,9.412993669509888,0.0,0.0,-0.0861955548759,0.0,0.0,0.0092257389808,0.0,0.0,0.0127965154177,0.0,0.0,0.0
1765472111.3460085,9.433071851730347,0.0,0.0,-0.0859462407333,0.0,0.0,0.00976109084218,0.0,0.0,0.0131838400977,0.0,0.0,0.0
1765472111.3663926,9.453455924987793,0.0,0.0,-0.0858553307083,0.0,0.0,0.00952261540132,0.0,0.0,0.0124767121488,0.0,0.0,0.0
1765472111.386564,9.47362732887268,0.0,0.0,-0.0858262554037,0.0,0.0,0.00901932143411,0.0,0.0,0.0114240603247,0.0,0.0,0.0
1765472111.4072216,9.494284868240356,0.0,0.0,-0.0858197709711,0.0,0.0,0.00844049114515,0.0,0.0,0.0102958177559,0.0,0.0,0.0
1765472111.4268503,9.513913631439209,0.0,0.0,-0.0858215884138,0.0,0.0,0.00785462338968,0.0,0.0,0.00918925351871,0.0,0.0,0.0
1765472111.4470646,9.534127950668335,0.0,0.0,-0.0858264065292,0.0,0.0,0.00728782139476,0.0,0.0,0.00814055590162,0.0,0.0,0.0
1765472111.4673085,9.55437183380127,0.0,0.0,-0.0831575557607,0.0,0.0,0.0189810357445,0.0,0.0,0.0242173227082,0.0,0.0,0.0
1765472111.487533,9.574596405029297,0.0,0.0,-0.0821511011548,0.0,0.0,0.0222946984641,0.0,0.0,0.0281582066267,0.0,0.0,0.0
1765472111.5076768,9.594740152359009,0.0,0.0,-0.0817790048404,0.0,0.0,0.0224855609429,0.0,0.0,0.0276337451958,0.0,0.0,0.0
1765472111.527831,9.614894390106201,0.0,0.0,-0.0816486337009,0.0,0.0,0.0215456611089,0.0,0.0,0.0255466983529,0.0,0.0,0.0
1765472111.5479884,9.635051727294922,0.0,0.0,-0.0816101746542,0.0,0.0,0.0202329518894,0.0,0.0,0.0229986550351,0.0,0.0,0.0
1765472111.5682454,9.655308723449707,0.0,0.0,-0.0816054061315,0.0,0.0,0.0188222634634,0.0,0.0,0.0203814003214,0.0,0.0,0.0
1765472111.5883918,9.675455093383789,0.0,0.0,-0.0816146406823,0.0,0.0,0.017441507722,0.0,0.0,0.0178836677212,0.0,0.0,0.0
1765472111.6084719,9.69553518295288,0.0,0.0,-0.0903151093819,0.0,0.0,-0.0234931637154,0.0,0.0,-0.0396983359535,0.0,0.0,0.0
1765472111.6286607,9.715723991394043,0.0,0.0,-0.0936207082874,0.0,0.0,-0.0371740548473,0.0,0.0,-0.0576593346131,0.0,0.0,0.0
1765472111.6487591,9.735822439193726,0.0,0.0,-0.0948632387962,0.0,0.0,-0.0405341570553,0.0,0.0,-0.060724975078,0.0,0.0,0.0
1765472111.6689842,9.756047487258911,0.0,0.0,-0.0953186248831,0.0,0.0,-0.0400406834362,0.0,0.0,-0.0583249838513,0.0,0.0,0.0
1765472111.6890872,9.776150465011597,0.0,0.0,-0.0954718001708,0.0,0.0,-0.0381791475136,0.0,0.0,-0.0540912686515,0.0,0.0,0.0
1765472111.7091844,9.796247720718384,0.0,0.0,-0.0955117346096,0.0,0.0,-0.0358898705213,0.0,0.0,-0.0493793761306,0.0,0.0,0.0
1765472111.729334,9.816397428512573,0.0,0.0,-0.0955090721489,0.0,0.0,-0.0335297162421,0.0,0.0,-0.0447023276533,0.0,0.0,0.0
1765472111.7494824,9.836545705795288,0.0,0.0,-0.0954915093557,0.0,0.0,-0.0312257213123,0.0,0.0,-0.0402340263447,0.0,0.0,0.0
1765472111.7698252,9.85688853263855,0.0,0.0,-0.0954705747553,0.0,0.0,-0.0290003522697,0.0,0.0,-0.0359911097936,0.0,0.0,0.0
1765472111.7899327,9.876996040344238,0.0,0.0,-0.0954457434012,0.0,0.0,-0.0269101223704,0.0,0.0,-0.0320655139012,0.0,0.0,0.0
1765472111.8101943,9.897257566452026,0.0,0.0,-0.0954223642491,0.0,0.0,-0.0249460328374,0.0,0.0,-0.0284258163312,0.0,0.0,0.0
1765472111.830296,9.917359352111816,0.0,0.0,-0.0954002728892,0.0,0.0,-0.0230998852405,0.0,0.0,-0.0250530344704,0.0,0.0,0.0
1765472111.8504016,9.937464952468872,0.0,0.0,-0.0953795182896,0.0,0.0,-0.0213642419673,0.0,0.0,-0.0219290235219,0.0,0.0,0.0
1765472111.87186,9.95892333984375,0.0,0.0,-0.0953631883385,0.0,0.0,-0.0196799529309,0.0,0.0,-0.018948208567,0.0,0.0,0.0
1765472111.8919148,9.978978157043457,0.0,0.0,-0.0953420683919,0.0,0.0,-0.0181353487995,0.0,0.0,-0.0162614287391,0.0,0.0,0.0
1765472111.9115126,9.998575925827026,0.0,0.0,-0.100670645683,0.0,0.0,-0.0410801132943,0.0,0.0,-0.0478170967686,0.0,0.0,0.0
1765472111.9316068,10.018670082092285,0.0,0.0,-0.102679694557,0.0,0.0,-0.0473827401042,0.0,0.0,-0.0552664885628,0.0,0.0,0.0
1765472111.951883,10.038946390151978,0.0,0.0,-0.103420415386,0.0,0.0,-0.0474724077584,0.0,0.0,-0.0538389385113,0.0,0.0,0.0
1765472111.9736094,10.060672760009766,0.0,0.0,-0.103678518526,0.0,0.0,-0.0453140155305,0.0,0.0,-0.0493113012395,0.0,0.0,0.0
1765472111.99299,10.080053329467773,0.0,0.0,-0.103752063267,0.0,0.0,-0.0424314742977,0.0,0.0,-0.0439034366158,0.0,0.0,0.0
1765472112.0128384,10.099901676177979,0.0,0.0,-0.103757658503,0.0,0.0,-0.0393873368295,0.0,0.0,-0.0384194039937,0.0,0.0,0.0
1765472112.0312333,10.11829662322998,0.0,0.0,-0.103736724431,0.0,0.0,-0.0364195043356,0.0,0.0,-0.0332018728324,0.0,0.0,0.0
1765472112.0518732,10.138936519622803,0.0,0.0,-0.0943535184632,0.0,0.0,0.00905902569026,0.0,0.0,0.0311646754072,0.0,0.0,0.0
1765472112.0727198,10.159783124923706,0.0,0.0,-0.0907791488387,0.0,0.0,0.0251131199837,0.0,0.0,0.0526812292152,0.0,0.0,0.0
1765472112.092141,10.179204225540161,0.0,0.0,-0.0894264348567,0.0,0.0,0.0299867199113,0.0,0.0,0.0580001214854,0.0,0.0,0.0
1765472112.1124036,10.199466943740845,0.0,0.0,-0.0889231385087,0.0,0.0,0.0306453001942,0.0,0.0,0.0572922118256,0.0,0.0,0.0
1765472112.1330032,10.220066547393799,0.0,0.0,-0.0887438198163,0.0,0.0,0.0297489803569,0.0,0.0,0.054433880449,0.0,0.0,0.0
1765472112.1530378,10.240101099014282,0.0,0.0,-0.0886880640597,0.0,0.0,0.0283142563523,0.0,0.0,0.0509046929896,0.0,0.0,0.0
1765472112.17408,10.261143207550049,0.0,0.0,-0.0886790205985,0.0,0.0,0.0267299057299,0.0,0.0,0.0472661602711,0.0,0.0,0.0
1765472112.193365,10.280428409576416,0.0,0.0,-0.0886871996109,0.0,0.0,0.0251423427611,0.0,0.0,0.0437253200304,0.0,0.0,0.0
1765472112.2134767,10.30053997039795,0.0,0.0,-0.0887013268376,0.0,0.0,0.0236046969239,0.0,0.0,0.040353173975,0.0,0.0,0.0
1765472112.2336054,10.320668697357178,0.0,0.0,-0.0887172094226,0.0,0.0,0.0221357239187,0.0,0.0,0.0371715388508,0.0,0.0,0.0
1765472112.2537553,10.340818643569946,0.0,0.0,-0.0887332214267,0.0,0.0,0.020740645037,0.0,0.0,0.0341824659002,0.0,0.0,0.0
1765472112.2739031,10.360966444015503,0.0,0.0,-0.0887485866496,0.0,0.0,0.0194169636831,0.0,0.0,0.0313757898524,0.0,0.0,0.0
1765472112.2941914,10.38125467300415,0.0,0.0,-0.088763527472,0.0,0.0,0.0181659862385,0.0,0.0,0.0287505529467,0.0,0.0,0.0
1765472112.314243,10.401306390762329,0.0,0.0,-0.0887777129958,0.0,0.0,0.0169852517796,0.0,0.0,0.0262976852132,0.0,0.0,0.0
1765472112.3343651,10.421428442001343,0.0,0.0,-0.0941371900328,0.0,0.0,-0.00853298115524,0.0,0.0,-0.0100194672414,0.0,0.0,0.0
1765472112.3544757,10.44153904914856,0.0,0.0,-0.0961755591236,0.0,0.0,-0.0172464785366,0.0,0.0,-0.0218868489294,0.0,0.0,0.0
1765472112.3746219,10.461685180664062,0.0,0.0,-0.0969436801951,0.0,0.0,-0.0195879772692,0.0,0.0,-0.0245369416052,0.0,0.0,0.0
1765472112.3947566,10.481819868087769,0.0,0.0,-0.0972264827043,0.0,0.0,-0.019549017262,0.0,0.0,-0.0237934073836,0.0,0.0,0.0
1765472112.4148967,10.501960039138794,0.0,0.0,-0.0973241329367,0.0,0.0,-0.0186544943625,0.0,0.0,-0.0218780509288,0.0,0.0,0.0
1765472112.4350228,10.522086143493652,0.0,0.0,-0.0973516406811,0.0,0.0,-0.0174844260902,0.0,0.0,-0.0196320308433,0.0,0.0,0.0
1765472112.4551754,10.542238712310791,0.0,0.0,-0.0973528063303,0.0,0.0,-0.0162592165211,0.0,0.0,-0.0173723809216,0.0,0.0,0.0
1765472112.47532,10.56238341331482,0.0,0.0,-0.0893249858146,0.0,0.0,0.0215510387926,0.0,0.0,0.0358364093847,0.0,0.0,0.0
1765472112.49559,10.582653284072876,0.0,0.0,-0.0862749152975,0.0,0.0,0.0341832432102,0.0,0.0,0.0524440777224,0.0,0.0,0.0
1765472112.515699,10.602762222290039,0.0,0.0,-0.0851284203065,0.0,0.0,0.0372821745472,0.0,0.0,0.0552923483003,0.0,0.0,0.0
1765472112.5358002,10.622863531112671,0.0,0.0,-0.0847092477814,0.0,0.0,0.0368302162724,0.0,0.0,0.0531093927935,0.0,0.0,0.0
1765472112.555931,10.642994403839111,0.0,0.0,-0.0845672911078,0.0,0.0,0.0351123976021,0.0,0.0,0.0492226618817,0.0,0.0,0.0
1765472112.5766838,10.663747072219849,0.0,0.0,-0.0845302683842,0.0,0.0,0.0329971668051,0.0,0.0,0.0448902948905,0.0,0.0,0.0
1765472112.5967793,10.683842658996582,0.0,0.0,-0.0845325139245,0.0,0.0,0.0308137124616,0.0,0.0,0.0405844048915,0.0,0.0,0.0
1765472112.6164153,10.703478574752808,0.0,0.0,-0.089895348869,0.0,0.0,0.00427123509628,0.0,0.0,0.00243096333515,0.0,0.0,0.0
1765472112.6365268,10.72359013557434,0.0,0.0,-0.0919419487263,0.0,0.0,-0.00542000672457,0.0,0.0,-0.0111520369103,0.0,0.0,0.0
1765472112.6566508,10.743714094161987,0.0,0.0,-0.092719862204,0.0,0.0,-0.00868781779444,0.0,0.0,-0.0153959728774,0.0,0.0,0.0
