timestamp_abs,timestamp_rel,x,y,z,vx,vy,vz,ax,ay,az,roll,pitch,yaw
1765471498.4845233,0.9519891738891602,-2.00386912006e-13,1.68777020984e-13,-0.077974665095,-2.80161208858e-08,2.35967378074e-08,-1.07842401897e-06,-0.00195849681439,0.00164955512628,0.0025873879963,0.03596755512866053,-0.06661449306756025,1.3264133467345929
1765471498.497275,0.9647409915924072,-4.78272188784e-07,4.02827482266e-07,-0.0783739552344,-4.73201385811e-05,3.98556569504e-05,-0.000707161243608,-0.00236409658135,0.00199117384626,0.00312171172022,0.03596755512866053,-0.06661449306756025,1.3264133467345929
1765471498.517373,0.9848389625549316,-2.04020640327e-06,1.71837549413e-06,-0.0785267928643,-0.000101389811754,8.53961479548e-05,-0.00131075045204,-0.00254335137023,0.00214215221586,0.00335680510032,0.03596755512866053,-0.06661449306756025,1.3264133467345929
1765471498.5377173,1.005183219909668,-4.75268211723e-06,4.00297365431e-06,-0.0786208077268,-0.00015780129634,0.000132909042996,-0.00173283203519,-0.00264621207239,0.00222878722965,0.00349156280692,0.03596755512866053,-0.06661449306756025,1.3264133467345929
1765471498.5574021,1.0248680114746094,-8.62138010376e-06,7.26140662638e-06,-0.0800364201517,-0.000215155823698,0.000181216221197,-0.0133169116214,-0.00271367325444,0.00228560679549,0.00352901965296,0.03596755512866053,-0.06661449306756025,1.3264133467345929
1765471498.5773332,1.0447990894317627,-1.36575556904e-05,1.15031542742e-05,-0.0811413257041,-0.000273102893815,0.00023002247192,-0.0204805782921,-0.0027615436672,0.002325925924,0.00356786970733,0.03596755512866053,-0.06661449306756025,1.3264133467345929
1765471498.5973642,1.0648300647735596,-5.18643002143e-06,8.94711270863e-06,-0.0819760029188,-5.71338482423e-05,0.000133693642034,-0.0238824533208,0.000878001777552,0.000407219179007,0.00462756041559,0.03607657412459645,-0.06667028629239741,1.3265417110991347
1765471498.6180162,1.085482120513916,7.14743818457e-06,4.70539907092e-06,-0.082580573562,0.000181819498357,2.52310747106e-05,-0.0247263570964,0.00367768833995,-0.00106872818109,0.00545559219197,0.03607657412459645,-0.06667028629239741,1.3265417110991347
1765471498.6380157,1.1054816246032715,2.35104086781e-05,-1.29976446265e-06,-0.0830037044664,0.000436939357067,-9.17023428988e-05,-0.0240430515299,0.00587751293998,-0.00222843846964,0.00611605653458,0.03607657412459645,-0.06667028629239741,1.3265417110991347
1765471498.6579697,1.1254355907440186,4.40409129315e-05,-9.15467818359e-06,-0.0832891287668,0.000703335989419,-0.000214620514085,-0.0225720341125,0.00762898629903,-0.00315178557402,0.00664892586218,0.03607657412459645,-0.06667028629239741,1.3265417110991347
1765471498.678115,1.145580768585205,6.89254681785e-05,-1.89531209938e-05,-0.0834759917672,0.000978182854131,-0.000341998483394,-0.0207685245527,0.0090362626781,-0.00389367785744,0.00708195587155,0.03607657412459645,-0.06667028629239741,1.3265417110991347
1765471498.6985126,1.1659784317016602,9.83958795158e-05,-3.08107591001e-05,-0.0824259988233,0.00125977210249,-0.000472904785165,-0.012181963378,0.0101741769816,-0.00449356701461,0.00750881798714,0.03607657412459645,-0.06667028629239741,1.3265417110991347
1765471498.7181642,1.1856300830841064,0.000132616619484,-4.48197372095e-05,-0.0815924029445,0.00154635545186,-0.00060644700412,-0.0062580902449,0.011097922712,-0.00498055012569,0.00783664491114,0.03607657412459645,-0.06667028629239741,1.3265417110991347
1765471498.7387247,1.206190586090088,0.000171984537058,-6.11626880014e-05,-0.0809300714856,0.00183820465983,-0.000742665513603,-0.00215840856042,0.0118504411287,-0.00537726509564,0.00808856362299,0.03607657412459645,-0.06667028629239741,1.3265417110991347
1765471498.7588117,1.2262775897979736,0.000216248768462,-7.97611038904e-05,-0.0804027718649,0.00213168404719,-0.000879856898406,0.000676632889261,0.0124636964191,-0.00570056290303,0.00828128332394,0.03607657412459645,-0.06667028629239741,1.3265417110991347
1765471498.779863,1.2473289966583252,0.000265736935338,-0.000100763771675,-0.0799819406749,0.00242745506639,-0.0010182673873,0.00263733966885,0.0129641198169,-0.00596437764675,0.00842815063517,0.03607657412459645,-0.06667028629239741,1.3265417110991347
1765471498.7997797,1.2672455310821533,0.000284326942551,-0.000116978767372,-0.0796476906827,0.0023299706791,-0.00107828902692,0.00389807679958,0.00896984972941,-0.00529286106122,0.0072037827518,0.03610201147419591,-0.06689547736850962,1.3265072231630182
1765471498.8192792,1.2867450714111328,0.00030595890785,-0.000135343150289,-0.0793792022699,0.00221759355719,-0.00113627974676,0.00472545753977,0.00570143191436,-0.00474337474128,0.00619471160762,0.03610201147419591,-0.06689547736850962,1.3265072231630182
1765471498.8396132,1.3070790767669678,0.000328944463414,-0.000155355877819,-0.0786978228146,0.00209130008943,-0.00119129557636,0.00700150758092,0.00303084932669,-0.00429439646456,0.00541255751514,0.03610201147419591,-0.06689547736850962,1.3265072231630182
1765471498.8596811,1.3271470069885254,0.000352783151254,-0.000177047450389,-0.0781465038386,0.00195494280699,-0.00124461677056,0.00854024801743,0.000847595326369,-0.00392734785756,0.00475739972277,0.03610201147419591,-0.06689547736850962,1.3265072231630182
1765471498.879905,1.3473708629608154,0.000376711654325,-0.00020028464444,-0.077699907008,0.00181041240706,-0.00129654314574,0.00954462835753,-0.000937829802014,-0.00362718223038,0.00420834925076,0.03610201147419591,-0.06689547736850962,1.3265072231630182
1765471498.899827,1.367292881011963,0.000400116066314,-0.000224975987185,-0.0773379774182,0.00165922819314,-0.00134737614849,0.0101598780782,-0.00239837497878,-0.00338163541241,0.0037480054941,0.03610201147419591,-0.06689547736850962,1.3265072231630182
1765471498.920483,1.387948989868164,0.000422430087934,-0.000251005693803,-0.0770451101314,0.00150265730369,-0.00139725571742,0.010490760689,-0.00359322347632,-0.00318075751339,0.00336197532346,0.03610201147419591,-0.06689547736850962,1.3265072231630182
1765471498.9401846,1.4076504707336426,0.00044324881123,-0.000278335111165,-0.0768084773076,0.00134162150035,-0.00144643698309,0.0106136041378,-0.00457095770724,-0.00301638085936,0.00303817426546,0.03610201147419591,-0.06689547736850962,1.3265072231630182
1765471498.960861,1.4283268451690674,0.000462178223377,-0.000306883842228,-0.0766181289086,0.00117696607127,-0.00149501152214,0.0105843511048,-0.00537106822256,-0.00288186629987,0.0027665881928,0.03610201147419591,-0.06689547736850962,1.3265072231630182
1765471498.9821603,1.4496262073516846,0.00047890745985,-0.000336597114,-0.076465930651,0.00100936449988,-0.00154308534155,0.0104444188241,-0.00602583535757,-0.00277178686578,0.00253885769791,0.03610201147419591,-0.06689547736850962,1.3265072231630182
1765471499.0009332,1.4683990478515625,0.000500129160628,-0.000356488755504,-0.0771528764806,0.000908022784602,-0.00147973640718,0.0079177505248,-0.00579968349859,-0.001455728621,0.002424813699,0.03606813939408146,-0.0668082172309175,1.3264843199776435
1765471499.0212674,1.4887332916259766,0.000518921172915,-0.000376851717174,-0.0777370444647,0.000807964091317,-0.00141135420185,0.00587925432659,-0.00561466142088,-0.000379019227842,0.00235113211012,0.03606813939408146,-0.0668082172309175,1.3264843199776435
1765471499.0414848,1.5089507102966309,0.00053543315234,-0.000397372499606,-0.0782338048361,0.000708584583841,-0.00133902727196,0.00423448653561,-0.00546327267229,0.000501965839652,0.00230788938687,0.03606813939408146,-0.0668082172309175,1.3264843199776435
1765471499.0613127,1.5287785530090332,0.000549723599742,-0.000417692774823,-0.0786565365185,0.000609781263374,-0.00126347819872,0.00290891243696,-0.00533939790776,0.0012228372307,0.00228730398132,0.03606813939408146,-0.0668082172309175,1.3264843199776435
1765471499.0823271,1.549793004989624,0.000561848924018,-0.000437534852513,-0.0790163791396,0.000511398095689,-0.0011852839157,0.00184325204397,-0.00523802529049,0.00181276060942,0.00228328141419,0.03606813939408146,-0.0668082172309175,1.3264843199776435
1765471499.1040297,1.571495532989502,0.000571844617354,-0.00045664828482,-0.0793226705671,0.000413401177579,-0.00110493430464,0.000990178250183,-0.00515506742186,0.00229552200467,0.00229109114932,0.03606813939408146,-0.0668082172309175,1.3264843199776435
1765471499.1220305,1.589496374130249,0.000579743159937,-0.000474830548233,-0.0795832298785,0.000315756542726,-0.00102284261802,0.000311593804446,-0.00508718230643,0.00269056967867,0.00230707393416,0.03606813939408146,-0.0668082172309175,1.3264843199776435
1765471499.142082,1.6095478534698486,0.000585578633984,-0.000491938269504,-0.0786590457909,0.000218324505793,-0.000939290458338,0.00271686087815,-0.00503162545135,0.00301387481317,0.00252241361616,0.03606813939408146,-0.0668082172309175,1.3264843199776435
1765471499.1619246,1.6293904781341553,0.000589375833097,-0.000507866806604,-0.0778714240012,0.000120890546587,-0.000854425144297,0.0046303215175,-0.00498614383124,0.00327854856558,0.00266896468771,0.03606813939408146,-0.0668082172309175,1.3264843199776435
1765471499.1825242,1.6499900817871094,0.000591139403321,-0.000522432019347,-0.0772015565629,2.38430668143e-05,-0.000768727505352,0.00613521878451,-0.00494892834319,0.00349511875032,0.00276323650869,0.03606813939408146,-0.0668082172309175,1.3264843199776435
1765471499.2022638,1.6697297096252441,0.000625611485451,-0.000517389228749,-0.0766408123275,0.000271092030088,-0.000499956129068,0.00709455024473,-0.00111994892525,0.00567410479997,0.000187764289094,0.0361008505024082,-0.06684668326391233,1.3264956384122764
1765471499.2228055,1.6902713775634766,0.00065948488442,-0.000510003716332,-0.0761686730027,0.000532924062638,-0.000223901572604,0.00776260680729,0.00201133386003,0.00745604739141,-0.00193701454681,0.0361008505024082,-0.06684668326391233,1.3264956384122764
1765471499.242965,1.7104308605194092,0.000694163572366,-0.000499656551225,-0.0757710380547,0.000806560270715,5.97266859813e-05,0.00819090871491,0.00457532223827,0.00891515549773,-0.0036925674845,0.0361008505024082,-0.06684668326391233,1.3264956384122764
1765471499.2658534,1.7333192825317383,0.000730583822793,-0.000485704935179,-0.0754393653582,0.00108946747573,0.000348138802152,0.00842224818966,0.00667281871447,0.0101087935568,-0.00514196805534,0.0361008505024082,-0.06684668326391233,1.3264956384122764
1765471499.2827907,1.7502565383911133,0.000769572592065,-0.000467710450432,-0.0783339456681,0.00137960203328,0.000640275612654,0.00074235284707,0.00838804281338,0.0110848890057,-0.00691088357058,0.0361008505024082,-0.06684668326391233,1.3264956384122764
1765471499.3037257,1.7711915969848633,0.000811886172616,-0.000445267200651,-0.0808202359977,0.00167586703441,0.000935881558739,-0.00554943948106,0.00979105086185,0.0118833093238,-0.00825892307388,0.0361008505024082,-0.06684668326391233,1.3264956384122764
1765471499.3238678,1.7913336753845215,0.000858129394896,-0.000418030713231,-0.0829533139351,0.00197728641426,0.0012344854507,-0.0106649317748,0.0109390050924,0.0125365842519,-0.00927676419705,0.0361008505024082,-0.06684668326391233,1.3264956384122764
1765471499.3444111,1.8118770122528076,0.000909090034272,-0.000385517099879,-0.0847833709222,0.00228452667207,0.00153731075153,-0.0147875012739,0.0118793641151,0.0130717214174,-0.0100375173896,0.0361008505024082,-0.06684668326391233,1.3264956384122764
1765471499.3640192,1.8314850330352783,0.000964568186591,-0.000347886370022,-0.0863458035962,0.00259369752759,0.00184038903405,-0.0180608703273,0.0126485097369,0.013509424888,-0.0105967125472,0.0361008505024082,-0.06684668326391233,1.3264956384122764
1765471499.3862092,1.853675127029419,0.00102521820958,-0.000304739609827,-0.0876782397814,0.00290596636147,0.00214538228765,-0.0206175701291,0.0132778514261,0.0138675690855,-0.0110004060698,0.0361008505024082,-0.06684668326391233,1.3264956384122764
1765471499.4046907,1.8721566200256348,0.00104458034949,-0.000250045855105,-0.0887982125348,0.00275752602784,0.00251006274449,-0.0222769902488,0.0086922675417,0.0147988604983,-0.0076328367818,0.03619138965709249,-0.0668328056979195,1.3265337216158644
1765471499.4245632,1.892029047012329,0.00106760902932,-0.000189381021118,-0.0875291671261,0.00259206198324,0.00287800310559,-0.0180969601083,0.00493994540283,0.0155609238416,-0.0044274054382,0.03619138965709249,-0.0668328056979195,1.3265337216158644
1765471499.4449875,1.9124534130096436,0.00109273650947,-0.000122463627903,-0.086422688129,0.00241274966215,0.0032484478905,-0.0144936757913,0.00186993185901,0.0161844163613,-0.00184960212714,0.03619138965709249,-0.0668328056979195,1.3265337216158644
1765471499.4651873,1.9326531887054443,0.00111861978015,-4.91793547974e-05,-0.0854583183243,0.00222222210081,0.00362029366684,-0.0113931528712,-0.000641029336705,0.0166943703079,0.000219590392042,0.03619138965709249,-0.0668328056979195,1.3265337216158644
1765471499.4851787,1.9526445865631104,0.0011443864098,3.09027118673e-05,-0.0846185960748,0.00202266943085,0.00399424880732,-0.00872860842895,-0.00269552927952,0.0171116210229,0.0018785225906,0.03619138965709249,-0.0668328056979195,1.3265337216158644
1765471499.5057054,1.9731712341308594,0.00116916415192,0.000117949296635,-0.0838874655662,0.00181564884587,0.0043699022787,-0.00644252100475,-0.0043768616555,0.017453084715,0.00320641882573,0.03619138965709249,-0.0668328056979195,1.3265337216158644
1765471499.5252907,1.9927566051483154,0.00119221215463,0.000212004532522,-0.0832511332739,0.00160257953797,0.00474658278241,-0.00448559670528,-0.00575271958289,0.0177325092562,0.00426713821666,0.03619138965709249,-0.0668328056979195,1.3265337216158644
1765471499.5452964,2.0127623081207275,0.001213001367,0.000313293867941,-0.082697706352,0.00138444763255,0.00512448891521,-0.00281431926383,-0.0068787782973,0.017961201793,0.00511272360008,0.03619138965709249,-0.0668328056979195,1.3265337216158644
1765471499.5655136,2.0329794883728027,0.00123120402192,0.000422610230153,-0.0836875200292,0.00116118961155,0.00550569506415,-0.00489596278769,-0.00780131501727,0.0181485608179,0.00551007804037,0.03619138965709249,-0.0668328056979195,1.3265337216158644
1765471499.586556,2.0540218353271484,0.00127459386473,0.000520003182112,-0.0845497561954,0.00119307847197,0.00564547676811,-0.00660592379481,-0.00560079284829,0.0153851570763,0.00504005061275,0.03608782181901283,-0.0668770100108256,1.326550499530732
1765471499.606744,2.0742099285125732,0.00131393523438,0.000616121382866,-0.0852758941557,0.0012432082903,0.00575067516044,-0.00793545985144,-0.00381067961774,0.0131371426419,0.00468848022924,0.03608782181901283,-0.0668770100108256,1.326550499530732
1765471499.628044,2.0955097675323486,0.00135162504959,0.000717731207972,-0.0858912430884,0.00129937079844,0.00584833357547,-0.00893932454671,-0.00235145463274,0.0113046558621,0.00442767903706,0.03608782181901283,-0.0668770100108256,1.326550499530732
1765471499.6478176,2.115283489227295,0.00138827293072,0.000823996325393,-0.0864112356188,0.00136053679217,0.0059396648341,-0.00966988594502,-0.00116042065976,0.00980896189286,0.00423645291626,0.03608782181901283,-0.0668770100108256,1.326550499530732
1765471499.6679726,2.1354384422302246,0.00142437523318,0.000934260952024,-0.0868490440678,0.00142581887146,0.00602575146919,-0.0101714481421,-0.00018746633414,0.00858713115573,0.00409839003527,0.03608782181901283,-0.0668770100108256,1.326550499530732
1765471499.6879103,2.1553761959075928,0.00146035128926,0.00104806245457,-0.0872160924234,0.00149447907497,0.00610759189191,-0.0104816767509,0.000607850002609,0.00758837723646,0.00400070946524,0.03608782181901283,-0.0668770100108256,1.326550499530732
1765471499.708165,2.175630807876587,0.00149654313775,0.00116502159814,-0.0864200905381,0.00156592972851,0.00618597587157,-0.00801318570076,0.00125827089049,0.00677158223184,0.00414112202654,0.03608782181901283,-0.0668770100108256,1.326550499530732
1765471499.7282438,2.195709705352783,0.0015332271131,0.00128481408723,-0.0857268608346,0.00163969212305,0.00626152448039,-0.00590603041989,0.00179036858133,0.00610337685292,0.00422736827814,0.03608782181901283,-0.0668770100108256,1.326550499530732
1765471499.7484353,2.2159011363983154,0.00157060700798,0.0014070909429,-0.0851235829325,0.0017153447187,0.00633467150814,-0.00411303932669,0.00222572123069,0.00555666336959,0.00427303542681,0.03608782181901283,-0.0668770100108256,1.326550499530732
1765471499.768626,2.2360918521881104,0.00160912157714,0.00153255034822,-0.0845989504429,0.0017929022265,0.00640660514993,-0.00259059693515,0.00258232946716,0.00510883669061,0.0042889267248,0.03608782181901283,-0.0668770100108256,1.326550499530732
1765471499.7881532,2.2556190490722656,0.00164719445622,0.00164830835835,-0.0841478086568,0.00185906113141,0.00636759412391,-0.00140658752748,0.00273777137796,0.00354798694712,0.00303454523543,0.03608678152171202,-0.06687498767287282,1.3265240010778856
1765471499.8090413,2.2765071392059326,0.00168633479237,0.00176545588736,-0.0837575989683,0.0019257247832,0.00632292272642,-0.000432559075312,0.00286491960782,0.00227124452323,0.00199228451876,0.03608678152171202,-0.06687498767287282,1.3265240010778856
1765471499.8293211,2.2967870235443115,0.00172690854083,0.00188446270213,-0.0834205714714,0.00199325416511,0.00627390216813,0.000361863968207,0.00296905282323,0.00122560437555,0.00112478032444,0.03608678152171202,-0.06687498767287282,1.3265240010778856
1765471499.8496664,2.3171322345733643,0.00176844779844,0.00200324455122,-0.0838647458169,0.00206080844204,0.00622085009426,-0.000744084355614,0.00305422355588,0.000370373533906,0.000264735622001,0.03608678152171202,-0.06687498767287282,1.3265240010778856
1765471499.869524,2.3369898796081543,0.00181136328516,0.00212262248872,-0.0842471674466,0.00212887425793,0.0061647113418,-0.00165595863285,0.00312393311637,-0.000329605957194,-0.000423472343522,0.03608678152171202,-0.06687498767287282,1.3265240010778856
1765471499.8898897,2.3573555946350098,0.00185535810378,0.00224135015964,-0.084575439473,0.0021969182745,0.00610604598607,-0.00240031808978,0.00318094355955,-0.00090206891234,-0.000972771861291,0.03608678152171202,-0.06687498767287282,1.3265240010778856
1765471499.9121926,2.3796584606170654,0.00190063186944,0.00235972155395,-0.0848567272614,0.00226515702547,0.00604533642694,-0.00300112934515,0.00322758002231,-0.00137036289157,-0.00141053682873,0.03608678152171202,-0.06687498767287282,1.3265240010778856
1765471499.9300077,2.3974735736846924,0.00194722733974,0.00247760353105,-0.0850972427536,0.00233358703212,0.00598293580689,-0.00347922725099,0.00326573970496,-0.001753538385,-0.00175884312144,0.03608678152171202,-0.06687498767287282,1.3265240010778856
1765471499.9504683,2.4179341793060303,0.00199568934771,0.00259613617721,-0.08530322318,0.00240290064302,0.00591870764228,-0.00385324654002,0.00329701877094,-0.00206762306054,-0.00203591904383,0.03608678152171202,-0.06687498767287282,1.3265240010778856
1765471499.9717028,2.439168691635132,0.00204496577973,0.00271251200812,-0.0854775554922,0.00247159806272,0.00585374763349,-0.00413749442135,0.00332259386615,-0.00232443205493,-0.00225527319972,0.03608678152171202,-0.06687498767287282,1.3265240010778856
1765471499.9897664,2.4572322368621826,0.00208951021234,0.00282735507379,-0.085620394056,0.0024798412074,0.00578090404546,-0.00424211089116,0.0026766124964,-0.00261067302784,-0.00113225895687,0.03630509831326047,-0.06664211504149141,1.3265323900353194
1765471500.0101001,2.4775660037994385,0.00213511286278,0.00294102367825,-0.0835387074708,0.00248569453628,0.00570708568964,0.000950143629251,0.00214819386839,-0.00284482074365,0.000206303936521,0.03630509831326047,-0.06664211504149141,1.3265323900353194
1765471500.033385,2.5008509159088135,0.00218165738494,0.00305366032485,-0.0817455012522,0.00248968385187,0.00563236714355,0.00521775742663,0.00171579630567,-0.00303642054022,0.00122779550969,0.03630509831326047,-0.06664211504149141,1.3265323900353194
1765471500.051125,2.5185909271240234,0.002228878191,0.00316498891111,-0.0802041826994,0.00249208051856,0.00555699990634,0.00868979572095,0.00136199275315,-0.00319319452448,0.00200013743036,0.03630509831326047,-0.06664211504149141,1.3265323900353194
1765471500.0709267,2.5383925437927246,0.00227664839093,0.00327499213041,-0.07888250938,0.00249318967027,0.005481088409,0.0114793358227,0.00107248496845,-0.00332147839432,0.00257770923164,0.03630509831326047,-0.06664211504149141,1.3265323900353194
1765471500.0929792,2.5604450702667236,0.00232493228187,0.00338380132188,-0.0777516509562,0.0024932773434,0.00540462199579,0.0136854191675,0.000835519805941,-0.00342648008916,0.00300395720342,0.03630509831326047,-0.06664211504149141,1.3265323900353194
1765471500.1128154,2.5802812576293945,0.00237349132914,0.00349106697201,-0.0767876874288,0.00249247792321,0.00532787384271,0.0153931550116,0.000641612648099,-0.00351240234035,0.00331307658529,0.03630509831326047,-0.06664211504149141,1.3265323900353194
1765471500.131031,2.598496913909912,0.00242240972941,0.00359710698756,-0.0759678947895,0.00249099667511,0.00525068416303,0.0166775919752,0.000482882771567,-0.00358273717726,0.00353241634573,0.03630509831326047,-0.06664211504149141,1.3265323900353194
1765471500.1586418,2.626107692718506,0.00247144883687,0.00370152479145,-0.0747245095102,0.00248891951679,0.00517335444258,0.0189095314243,0.000352991714841,-0.00364029323722,0.00378697526736,0.03630509831326047,-0.06664211504149141,1.3265323900353194
1765471500.1723413,2.6398072242736816,0.00252063736929,0.00380447296272,-0.0736672801246,0.00248637134702,0.00509581420172,0.0205941943938,0.000246691878356,-0.00368739578543,0.00395180541976,0.03630509831326047,-0.06664211504149141,1.3265323900353194
1765471500.1912181,2.658684015274048,0.00258990076709,0.00392540888466,-0.0727814576752,0.00268097661967,0.00521032399095,0.0216000401343,0.00233527020986,-0.00160827297793,0.00136656058944,0.036414017440655505,-0.06649760110165179,1.3264230672725716
1765471500.2121127,2.6795785427093506,0.0026600438826,0.00404563505321,-0.0720363433267,0.00288323301745,0.00533243432595,0.0222059024856,0.00404478516831,9.35025725866e-05,-0.000780273275242,0.036414017440655505,-0.06649760110165179,1.3264230672725716
1765471500.2325876,2.7000534534454346,0.00273175431713,0.00416581738047,-0.0714137119894,0.0030917334808,0.00546077358576,0.0224775357581,0.00544394660833,0.00148632965379,-0.00256309594059,0.036414017440655505,-0.06649760110165179,1.3264230672725716
1765471500.2527092,2.72017502784729,0.00280607610506,0.00428732274746,-0.0708946576185,0.00330621129858,0.00559451833918,0.0224702812637,0.00659025409937,0.00262744751999,-0.00404518978477,0.036414017440655505,-0.06649760110165179,1.3264230672725716
1765471500.2729878,2.7404537200927734,0.00288251775697,0.00440896289118,-0.0704710378353,0.00352393336593,0.00573212559761,0.0222357740936,0.00752775303408,0.00356070215918,-0.00527484771209,0.036414017440655505,-0.06649760110165179,1.3264230672725716
1765471500.292875,2.760340929031372,0.00296198933034,0.00453203999156,-0.0712266985778,0.00374508096245,0.00587311943464,0.0192025197261,0.00829472178511,0.00432419864808,-0.0065024039239,0.036414017440655505,-0.06649760110165179,1.3264230672725716
1765471500.3131921,2.780658006668091,0.0030454372442,0.00465782028059,-0.0718949020184,0.00397042903878,0.00601765147724,0.0165054372267,0.00892303580897,0.00494966813495,-0.00748082770736,0.036414017440655505,-0.06649760110165179,1.3264230672725716
1765471500.3331776,2.8006434440612793,0.00313185921776,0.00478461741665,-0.0724893314904,0.00419667647152,0.00616372206224,0.0141145442115,0.00943685360666,0.00546115974911,-0.00825639752427,0.036414017440655505,-0.06649760110165179,1.3264230672725716
1765471500.3535323,2.820998191833496,0.00322285414646,0.00491470701873,-0.0730150139581,0.00442647190194,0.00631263725303,0.0119889213602,0.00985770320693,0.00588010405647,-0.00887018225589,0.036414017440655505,-0.06649760110165179,1.3264230672725716
1765471500.3736064,2.8410723209381104,0.00331707814022,0.00504606671199,-0.073482661089,0.00465609755589,0.00646208014211,0.0101060311549,0.0102017786613,0.006222621794,-0.00935263146639,0.036414017440655505,-0.06649760110165179,1.3264230672725716
1765471500.3930695,2.8605353832244873,0.00341769706392,0.00515389398134,-0.0738833450886,0.00490855973188,0.00635320032825,0.00872707828891,0.0107180918656,0.00364421843827,-0.00610305917068,0.03637007112148,-0.06645457440529019,1.3263041571298997
1765471500.4141972,2.8816630840301514,0.00352270716636,0.00526337534731,-0.0742364628306,0.00516302301553,0.00623499511146,0.00754852930112,0.0111405524285,0.00153450339696,-0.00342943161077,0.03637007112148,-0.06645457440529019,1.3263041571298997
1765471500.4346988,2.9021646976470947,0.0036320602713,0.00537336826757,-0.0745471455033,0.00541867211877,0.00610908250988,0.00654573986595,0.011486158217,-0.000191408544549,-0.00122921353398,0.03637007112148,-0.06645457440529019,1.3263041571298997
1765471500.454194,2.9216599464416504,0.00374603157792,0.00548333157042,-0.077019943137,0.00567552364626,0.0059769470699,0.000470094763294,0.0117689283262,-0.00160352698823,0.000167651813006,0.03637007112148,-0.06645457440529019,1.3263041571298997
1765471500.4742975,2.941763401031494,0.00386546508496,0.00559340137448,-0.0791519987929,0.00593481753969,0.00583942983966,-0.00449643942907,0.0120005191273,-0.0027600623891,0.00139925825962,0.03637007112148,-0.06645457440529019,1.3263041571298997
1765471500.4944046,2.9618704319000244,0.0039903937814,0.00570290958294,-0.0809872231694,0.00619612845257,0.00569722377964,-0.00850922706269,0.0121902486938,-0.00370754803703,0.00248359722787,0.03637007112148,-0.06645457440529019,1.3263041571298997
1765471500.514845,2.9823107719421387,0.0041190581791,0.00580977830978,-0.0825580370704,0.00645569462771,0.00555218597749,-0.0116972424572,0.0123453514403,-0.0044821116911,0.00343520299475,0.03637007112148,-0.06645457440529019,1.3263041571298997
1765471500.5355997,3.003065586090088,0.00425293149688,0.00591503223509,-0.0839000857336,0.00671620561588,0.00540421544828,-0.0141821398925,0.012472224924,-0.00511570194874,0.00426910375944,0.03637007112148,-0.06645457440529019,1.3263041571298997
1765471500.560264,3.0277299880981445,0.00439157698051,0.00601800650507,-0.08504191595,0.00697664627205,0.00525416998019,-0.016068571894,0.0125759880528,-0.00563388199375,0.00499833385928,0.03637007112148,-0.06645457440529019,1.3263041571298997
1765471500.575482,3.042947769165039,0.00453525486655,0.00611868087296,-0.0860100776847,0.00723735976695,0.00510231219452,-0.0174479201267,0.0126608675814,-0.00605775970927,0.00563484345169,0.03637007112148,-0.06645457440529019,1.3263041571298997
1765471500.594634,3.0620999336242676,0.00463829881931,0.00627155671937,-0.0859215546251,0.0070443640347,0.00548959271237,-0.0164480052581,0.00773167923756,-0.00045311649132,0.00354450793786,0.03660157888280274,-0.06637190405938924,1.326184048564737
1765471500.615338,3.082803964614868,0.00474466246891,0.00642400708949,-0.085831361486,0.00683354701543,0.00589711870634,-0.0155059321577,0.0036980647866,0.00413323085418,0.00183011297892,0.03660157888280274,-0.06637190405938924,1.326184048564737
1765471500.6357343,3.1032001972198486,0.00485275378401,0.00657800601829,-0.0857410436232,0.00660815370402,0.00632129991175,-0.0146196462723,0.000396839959684,0.00788682800777,0.000423182534028,0.03660157888280274,-0.06637190405938924,1.326184048564737
1765471500.6578076,3.1252734661102295,0.00496128266933,0.00673520893064,-0.0856517701658,0.00637072265188,0.00675935925228,-0.0137868443234,-0.00230545187622,0.0109594193868,-0.000732237160628,0.03660157888280274,-0.06637190405938924,1.326184048564737
1765471500.676,3.143465995788574,0.00506875059063,0.00689649334277,-0.0855637833744,0.00612350897907,0.00720823957455,-0.0130058731827,-0.00451668667186,0.0134736633629,-0.00168140026352,0.03660157888280274,-0.06637190405938924,1.326184048564737
1765471500.6961203,3.163586139678955,0.00517446849056,0.00706311676587,-0.0854782108248,0.00586829941749,0.00766619557195,-0.012274343979,-0.00632623304807,0.0155311748876,-0.00246172881307,0.03660157888280274,-0.06637190405938924,1.326184048564737
1765471500.7164996,3.1839654445648193,0.0052777319298,0.00723599334359,-0.0853955718836,0.00560648903238,0.00813170661336,-0.0115897887586,-0.00780722518717,0.0172151098418,-0.00310382562526,0.03660157888280274,-0.06637190405938924,1.326184048564737
1765471500.7368853,3.2043511867523193,0.00538066541138,0.00742022660974,-0.0840319590073,0.00533482794541,0.00861273802015,-0.0078872493412,-0.00902397373916,0.0185985914709,-0.00339071995857,0.03660157888280274,-0.06637190405938924,1.326184048564737
1765471500.7570214,3.2244873046875,0.00547709337404,0.00760769329083,-0.0828488666672,0.00506292731841,0.00908970807044,-0.00480542650634,-0.0100177273404,0.0197285207803,-0.00367442225718,0.03660157888280274,-0.06637190405938924,1.326184048564737
1765471500.7771297,3.244595527648926,0.00556957823334,0.00780323193687,-0.0818281772515,0.0047873516755,0.00957097401896,-0.00225847533709,-0.0108300163964,0.0206521191562,-0.0039486859647,0.03660157888280274,-0.06637190405938924,1.326184048564737
1765471500.797337,3.264802932739258,0.00571009252074,0.00800113585602,-0.0809359734458,0.00502741321335,0.00999571310118,0.000108881531492,-0.00578777800797,0.0207470678665,-0.000720167166912,0.03667381296618194,-0.06637076389354755,1.326099226884018
1765471500.8176336,3.285099506378174,0.00584909736107,0.00820954806737,-0.0801654677474,0.00528504942218,0.0104249649744,0.00209544997007,-0.00165718147829,0.0208248497528,0.00189320569605,0.03667381296618194,-0.06637076389354755,1.326099226884018
1765471500.8378053,3.3052711486816406,0.00598609615605,0.00842413204444,-0.0795025136325,0.00555859174679,0.0108498074402,0.00374917190985,0.00171878124479,0.0208884213815,0.00400176218629,0.03667381296618194,-0.06637076389354755,1.326099226884018
1765471500.8578837,3.3253495693206787,0.00612363448818,0.00864716907326,-0.0789326770512,0.00584412561103,0.0112748707422,0.00511675156073,0.00447930331795,0.0209404038525,0.00570246726197,0.03667381296618194,-0.06637076389354755,1.326099226884018
1765471500.8779411,3.345407009124756,0.0062628713612,0.00887869725025,-0.0767926284404,0.00613951545858,0.0117001445013,0.0101593744868,0.00673733144017,0.0209829240274,0.00738481632761,0.03667381296618194,-0.06637076389354755,1.326099226884018
1765471500.89808,3.3655459880828857,0.00640474064833,0.0091187242137,-0.0749545128503,0.00644299792558,0.0121255756224,0.014255350674,0.00858472909245,0.0210177117568,0.00868548112512,0.03667381296618194,-0.06637076389354755,1.326099226884018
1765471500.9180527,3.3855185508728027,0.00655050886323,0.00936819538528,-0.0733776596687,0.00675383564308,0.0125526966586,0.0175419467482,0.0100972138503,0.0210461928531,0.0096855497853,0.03667381296618194,-0.06637076389354755,1.326099226884018
1765471500.9383667,3.405832529067993,0.00670254682602,0.00963030410064,-0.0720224842088,0.00707368654848,0.012986496384,0.0201408609062,0.0113380897108,0.0210695593728,0.0104506605124,0.03667381296618194,-0.06637076389354755,1.326099226884018
1765471500.9588258,3.4262917041778564,0.00685652092468,0.00989612691085,-0.0708748127392,0.00739403634646,0.0134122998252,0.0221402099383,0.0123518311429,0.0210886487998,0.0110280633805,0.03667381296618194,-0.06637076389354755,1.326099226884018
1765471500.9789531,3.4464190006256104,0.00701545208515,0.0101704950866,-0.0699009792101,0.00771798211484,0.0138381759535,0.0236350040156,0.0131805267581,0.0211042536907,0.0114597764173,0.03667381296618194,-0.06637076389354755,1.326099226884018
1765471500.9990916,3.466557502746582,0.00715015387113,0.0104168977759,-0.0690825567194,0.00775279935435,0.0139031813872,0.0246014462974,0.0106461274853,0.0171480820199,0.0105048555189,0.03665035634264322,-0.06645628881524193,1.3258985576958806
1765471501.020744,3.4882099628448486,0.00728926288985,0.0106703906404,-0.0685780539918,0.00777855331519,0.0139540379981,0.0247699658156,0.00857299514571,0.0139119433736,0.00966071764619,0.03665035634264322,-0.06645628881524193,1.3258985576958806
1765471501.0392807,3.506746530532837,0.00743418852247,0.0109337028913,-0.0681550642349,0.00779903116088,0.0139968112982,0.0247168312362,0.00687321738388,0.0112586074528,0.00895105763555,0.03665035634264322,-0.06645628881524193,1.3258985576958806
1765471501.059926,3.5273919105529785,0.00757980592601,0.0111978028276,-0.0678141883905,0.00781108408293,0.0140262852714,0.024480406665,0.00548385894094,0.00908983295401,0.00835689499005,0.03665035634264322,-0.06645628881524193,1.3258985576958806
1765471501.080148,3.5476138591766357,0.0077277578445,0.0114657729026,-0.067537870697,0.00781821708314,0.0140480825791,0.0240976991728,0.00434767121581,0.00731625538903,0.00785958574162,0.03665035634264322,-0.06645628881524193,1.3258985576958806
1765471501.1003873,3.5678532123565674,0.0078774735694,0.0117366994516,-0.0673172123459,0.00782125383087,0.0140634823952,0.0235980799193,0.00341830928557,0.00586553080123,0.00744369984509,0.03665035634264322,-0.06645628881524193,1.3258985576958806
1765471501.1203537,3.5878195762634277,0.00802869684246,0.0120102133894,-0.0671438962957,0.00782098653845,0.0140737301935,0.0230065903785,0.00265790629537,0.00467854941256,0.00709627079508,0.03665035634264322,-0.06645628881524193,1.3258985576958806
1765471501.1406095,3.6080753803253174,0.00818289593368,0.0122890345952,-0.0670072807856,0.00781850629226,0.0140806498562,0.0223424908758,0.00203459118416,0.0037055608186,0.00680569660501,0.03665035634264322,-0.06645628881524193,1.3258985576958806
1765471501.1608498,3.6283156871795654,0.00833608452613,0.0125660484753,-0.0687462795852,0.00781316586592,0.0140829785437,0.0172651263517,0.00152500734785,0.00291010559623,0.00621766642715,0.03665035634264322,-0.06645628881524193,1.3258985576958806
1765471501.1809206,3.6483864784240723,0.0084898267549,0.0128441200929,-0.0702558884755,0.00780598480614,0.0140824280867,0.0129717843663,0.00110828596789,0.00225960773043,0.00579928341633,0.03665035634264322,-0.06645628881524193,1.3258985576958806
1765471501.2013257,3.6687915325164795,0.00866727785476,0.0131303799952,-0.0715778848631,0.00802193371478,0.0141413120999,0.00907458641178,0.00323808728392,0.00240529514291,0.00200954821235,0.03669465220171181,-0.06651790354377443,1.3257972244164031
1765471501.2212572,3.688723087310791,0.00884531062867,0.0134164685796,-0.0727252678015,0.00824538558917,0.0142005328449,0.00575510329209,0.00497999106342,0.00252444872429,-0.00104271638977,0.03669465220171181,-0.06651790354377443,1.3257972244164031
1765471501.242018,3.7094838619232178,0.00903049479717,0.0137123653918,-0.0737220896221,0.00847872953328,0.0142617766697,0.00292226325367,0.00641149099679,0.00262236937055,-0.00351107287214,0.03669465220171181,-0.06651790354377443,1.3257972244164031
1765471501.262144,3.729609966278076,0.00921314820604,0.0140006304653,-0.0745863227356,0.0087139982832,0.0143218161521,0.000532573931038,0.00757989571279,0.00270229319186,-0.00548968475694,0.03669465220171181,-0.06651790354377443,1.3257972244164031
1765471501.2822165,3.7496824264526367,0.0093988146868,0.0142899925707,-0.07533270302,0.00895335888145,0.0143821365754,-0.00147611786217,0.00853444531722,0.00276758841959,-0.00707518008818,0.03669465220171181,-0.06651790354377443,1.3257972244164031
1765471501.303176,3.770641803741455,0.00959070733246,0.0145849004235,-0.0759786868011,0.00919885902351,0.0144435465352,-0.00316198357791,0.00931652514341,0.00282108598548,-0.00834776514283,0.03669465220171181,-0.06651790354377443,1.3257972244164031
1765471501.3227015,3.7901673316955566,0.00978366180436,0.0148766556731,-0.0754316493323,0.0094445438627,0.0145043172657,-0.00194216206747,0.00995536044211,0.0028647850202,-0.00915577856526,0.03669465220171181,-0.06651790354377443,1.3257972244164031
1765471501.3428452,3.8103110790252686,0.00998238626619,0.015172226396,-0.0749624199597,0.00969435566394,0.0145657686009,-0.000971565590159,0.0104782308686,0.0029005515675,-0.00983652456833,0.03669465220171181,-0.06651790354377443,1.3257972244164031
1765471501.3630857,3.8305516242980957,0.0101835629459,0.0154662591481,-0.0745613085308,0.00994413431318,0.0146268094729,-0.000212759758568,0.0109054698077,0.00292977651683,-0.0104095055092,0.03669465220171181,-0.06651790354377443,1.3257972244164031
1765471501.3831952,3.850661039352417,0.0103890808025,0.0157613968515,-0.0742197094047,0.0101953558064,0.0146879370663,0.000364812338341,0.0112547484412,0.00295366865173,-0.0108921407291,0.03669465220171181,-0.06651790354377443,1.3257972244164031
1765471501.4038508,3.87131667137146,0.0105898915109,0.0160500062271,-0.0739099594049,0.0103563195661,0.0146727543302,0.00121657106813,0.0105346326783,0.00213338460879,-0.00597394067047,0.03685949355080931,-0.0664700956410183,1.3256816432250935
1765471501.4238591,3.891324996948242,0.0107987328125,0.01634471686,-0.0736433218581,0.0105183195327,0.0146552539411,0.00195553050578,0.00994399190307,0.00146058555629,-0.00195064344858,0.03685949355080931,-0.0664700956410183,1.3256816432250935
1765471501.4440732,3.911539077758789,0.0110079879767,0.0166348914951,-0.0734150196032,0.0106745438223,0.0146346465973,0.00259770622879,0.00946141029753,0.000910876730547,0.00132730810427,0.03685949355080931,-0.0664700956410183,1.3256816432250935
1765471501.4642394,3.9317052364349365,0.011221078583,0.0169254347358,-0.0739532513054,0.0108290494037,0.0146121002917,0.00141066511724,0.00906689314373,0.000461482143471,0.00386051169955,0.03685949355080931,-0.0664700956410183,1.3256816432250935
1765471501.4843273,3.9517931938171387,0.0114378962864,0.0172162352029,-0.0744155075267,0.010982186814,0.0145879625685,0.000477462171042,0.00874423316011,9.39400766461e-05,0.00595160248637,0.03685949355080931,-0.0664700956410183,1.3256816432250935
1765471501.5046105,3.972076416015625,0.0116582230544,0.0175070282069,-0.0748111499276,0.0111341371045,0.0145625149399,-0.000239154326845,0.00848028366905,-0.000206724853643,0.00767867767173,0.03685949355080931,-0.0664700956410183,1.3256816432250935
1765471501.5246866,3.992152452468872,0.0118821838239,0.0177979938887,-0.0751485027098,0.0112852831188,0.0145359864931,-0.000771520491713,0.00826429475872,-0.000452757874601,0.00910595493491,0.03685949355080931,-0.0664700956410183,1.3256816432250935
1765471501.5449727,4.012438535690308,0.0121121482969,0.0180921390624,-0.0754354503744,0.0114375314026,0.0145084341806,-0.00114658939363,0.0080872404911,-0.000654440434455,0.0102877738742,0.03685949355080931,-0.0664700956410183,1.3256816432250935
1765471501.565076,4.032541990280151,0.0123429069319,0.0183828118166,-0.0756774614385,0.011587316236,0.0144802587645,-0.00139143195327,0.00794246939804,-0.000819349222227,0.0112642035071,0.03685949355080931,-0.0664700956410183,1.3256816432250935
1765471501.5864525,4.053918361663818,0.0125788050536,0.0186755094385,-0.0758808893924,0.0117378588589,0.01445134222,-0.00152404039387,0.00782391818193,-0.000954390941693,0.0120722186527,0.03685949355080931,-0.0664700956410183,1.3256816432250935
1765471501.6059172,4.073383092880249,0.012816190691,0.0189701634178,-0.0749535692101,0.0118912144,0.0144719856173,0.00093984678496,0.00777887925231,-0.000516052439427,0.0115749661671,0.03679999270639205,-0.06651738339512403,1.3256634005716266
1765471501.6256,4.093065977096558,0.0130568522676,0.0192647361389,-0.0741521560867,0.0120444893505,0.01449418422,0.002983791357,0.00774204581177,-0.000157573334837,0.0111351124485,0.03679999270639205,-0.06651738339512403,1.3256634005716266
1765471501.6462748,4.113740682601929,0.0133056161943,0.0195651321571,-0.0734577488876,0.0122007731098,0.0145176832876,0.00467409389143,0.00771182482232,0.000136550512368,0.0107458649247,0.03679999270639205,-0.06651738339512403,1.3256634005716266
1765471501.6662264,4.133692264556885,0.0135525112237,0.0198595581831,-0.0728618431393,0.0123537411425,0.014542277357,0.00604562610522,0.00768714126281,0.000376781676721,0.0104030820883,0.03679999270639205,-0.06651738339512403,1.3256634005716266
1765471501.6865628,4.154028654098511,0.0138036634841,0.0201554547802,-0.0723498015508,0.0125073229175,0.0145677642678,0.00714975471544,0.00766695293828,0.000573263254174,0.0101015074469,0.03679999270639205,-0.06651738339512403,1.3256634005716266
1765471501.7064884,4.173954248428345,0.0140567038119,0.0204501415446,-0.0719121471717,0.0126600768242,0.0145939044935,0.00802296083711,0.00765045161703,0.000733861307938,0.00983684581148,0.03679999270639205,-0.06651738339512403,1.3256634005716266
1765471501.726707,4.1941728591918945,0.0143129670209,0.0207452605342,-0.0715385680425,0.0128128470876,0.0146206205365,0.00870047076998,0.0076369567211,0.000865199519577,0.00960494318878,0.03679999270639205,-0.06651738339512403,1.3256634005716266
1765471501.746894,4.214359760284424,0.0145762391204,0.0210451449391,-0.0710343776427,0.0129678721027,0.0146480879666,0.00965067878876,0.00762589295841,0.00097287688245,0.00943638234994,0.03679999270639205,-0.06651738339512403,1.3256634005716266
1765471501.7672663,4.234732151031494,0.0148387746013,0.021341050384,-0.0706074318223,0.0131205766622,0.01467567652,0.0103743583202,0.00761685174661,0.00106086989809,0.00928090594993,0.03679999270639205,-0.06651738339512403,1.3256634005716266
1765471501.7871609,4.254626750946045,0.0150801100012,0.0216625022364,-0.070239982288,0.0129682522214,0.0148765906933,0.0109150683234,0.00421189106526,0.00302917642732,0.00917046084423,0.036804029059919204,-0.06657157040092873,1.3256535468755932
1765471501.8080494,4.27551531791687,0.0153163340092,0.021977210511,-0.0699345445093,0.0128001471288,0.0150837039198,0.0112904356177,0.00143314921069,0.00463548447233,0.00906759243447,0.036804029059919204,-0.06657157040092873,1.3256535468755932
1765471501.8282254,4.295691251754761,0.0155532838715,0.0222937003854,-0.0696778515014,0.0126224014418,0.0152963874818,0.0115314801189,-0.00083676060652,0.00594765184579,0.0089729109608,0.036804029059919204,-0.06657157040092873,1.3256535468755932
1765471501.848344,4.315809965133667,0.0157902223621,0.0226127930065,-0.0694630819426,0.0124366826061,0.0155137725762,0.0116605306214,-0.00269246640587,0.00702038019217,0.0088866219204,0.036804029059919204,-0.06657157040092873,1.3256535468755932
1765471501.8685482,4.336014032363892,0.0160259636328,0.022934434314,-0.069284813909,0.0122444444404,0.0157348403227,0.0116964648164,-0.00420993930649,0.00789758615657,0.00880870068953,0.036804029059919204,-0.06657157040092873,1.3256535468755932
1765471501.888612,4.3560779094696045,0.0162602080259,0.0232594099141,-0.0707888336467,0.0120467752093,0.0159591088339,0.00773498690094,-0.00545131918875,0.00861519095621,0.00842735888754,0.036804029059919204,-0.06657157040092873,1.3256535468755932
1765471501.9089036,4.376369476318359,0.0164922510745,0.0235877792805,-0.0720878808193,0.0118446925519,0.0161859064697,0.00444685218949,-0.00646697559963,0.00920231172854,0.00816900855103,0.036804029059919204,-0.06657157040092873,1.3256535468755932
1765471501.9296348,4.3971006870269775,0.0167216391514,0.0239197370916,-0.0732078573993,0.0116390189162,0.0164147421646,0.00173923221589,-0.0072980151969,0.00968271101019,0.00800384629247,0.036804029059919204,-0.06657157040092873,1.3256535468755932
1765471501.9495714,4.41703724861145,0.0169537715311,0.0242638305124,-0.0741745124416,0.011426527485,0.0166502234424,-0.000473952459763,-0.0079805547632,0.0100772668393,0.00790735559875,0.036804029059919204,-0.06657157040092873,1.3256535468755932
1765471501.9696538,4.437119722366333,0.0171769563016,0.0246038641837,-0.0750035733261,0.0112152572417,0.0168822969753,-0.0022569021663,-0.00853801294786,0.0103995168408,0.00786315287822,0.036804029059919204,-0.06657157040092873,1.3256535468755932
1765471501.9890585,4.45652437210083,0.0174234863106,0.0249547376814,-0.075715145069,0.0112650041614,0.017178589262,-0.00372414101788,-0.00610012485522,0.0113546845715,0.00717884157565,0.036940295522757995,-0.06660424405855264,1.3256462231825956
1765471502.009725,4.477190971374512,0.0176675011108,0.0253102841022,-0.0763225990114,0.0113234085302,0.0174783620275,-0.00487843748121,-0.0041064229057,0.0121358195927,0.00664431828237,0.036940295522757995,-0.06660424405855264,1.3256462231825956
1765471502.0299401,4.497406005859375,0.0179097852178,0.0256707590094,-0.0772067070421,0.0113889583266,0.0177809638738,-0.00663812393172,-0.00247554625898,0.0127747991875,0.00615916508355,0.036940295522757995,-0.06660424405855264,1.3256462231825956
1765471502.051206,4.518671989440918,0.0181552489423,0.0260431165091,-0.077964643033,0.0114597935818,0.018090748685,-0.00800907307561,-0.00113759977068,0.0132990083647,0.00579210885043,0.036940295522757995,-0.06660424405855264,1.3256462231825956
1765471502.0706763,4.538142204284668,0.0183956858091,0.026413814705,-0.0786060396341,0.0115362895664,0.0183973279474,-0.009048680124,-4.46895344592e-05,0.0137272120191,0.00551896069357,0.036940295522757995,-0.06660424405855264,1.3256462231825956
1765471502.0925813,4.560047149658203,0.0186363234605,0.026790492302,-0.0791491533674,0.0116166495335,0.0187057455459,-0.00980640412805,0.000848807626797,0.0140772853709,0.0053181438675,0.036940295522757995,-0.06660424405855264,1.3256462231825956
1765471502.1109955,4.578461408615112,0.0188771649077,0.0271727055944,-0.0796069555834,0.0117001926762,0.0190152923449,-0.0103268877637,0.00157948433032,0.0143635654552,0.00517284681009,0.036940295522757995,-0.06660424405855264,1.3256462231825956
1765471502.1326196,4.600085496902466,0.0191185243089,0.0275605845686,-0.0799909780075,0.0117863346058,0.019325752488,-0.0106484808716,0.00217713732687,0.0145977266779,0.00506985566959,0.036940295522757995,-0.06660424405855264,1.3256462231825956
1765471502.151899,4.619364976882935,0.0193661041036,0.0279632464867,-0.0803156154398,0.0118757483232,0.0196437077081,-0.0108007235193,0.00266771588269,0.0147899359951,0.00499866518756,0.036940295522757995,-0.06660424405855264,1.3256462231825956
1765471502.172475,4.639940977096558,0.0196091992992,0.0283628027422,-0.0796611094509,0.0119658435897,0.019955474276,-0.00863523908468,0.0030683339791,0.0149468986872,0.00512516211188,0.036940295522757995,-0.06660424405855264,1.3256462231825956
1765471502.1911373,4.658603191375732,0.0198556132503,0.0287769437281,-0.0790813860191,0.0120730187668,0.0203442241321,-0.00659659035302,0.00356662713061,0.0159083065774,0.00733488812948,0.03696117637017989,-0.06663023068512693,1.3256030799729364
1765471502.2121747,4.679640531539917,0.0201033207378,0.0291972789387,-0.0785734924178,0.0121819369311,0.0207362379117,-0.00481158090042,0.00397409655527,0.0166944789714,0.00912091712626,0.03696117637017989,-0.06663023068512693,1.3256030799729364
1765471502.2322772,4.699743032455444,0.0203522628399,0.0296237361798,-0.0781284043389,0.0122921908993,0.0211305642777,-0.00324975951873,0.0043073152015,0.0173373917521,0.0105631492059,0.03696117637017989,-0.06663023068512693,1.3256030799729364
1765471502.2529407,4.720406532287598,0.0206087126455,0.030067212535,-0.0777378550661,0.0124057217822,0.021535420619,-0.00187407344386,0.00458083184411,0.0178651153572,0.0117312215973,0.03696117637017989,-0.06663023068512693,1.3256030799729364
1765471502.2729404,4.740406274795532,0.0208614590267,0.0305083680257,-0.077394797335,0.0125182666357,0.0219343026106,-0.000677267104162,0.00480422086889,0.0182961226274,0.0126709520372,0.03696117637017989,-0.06663023068512693,1.3256030799729364
1765471502.2941964,4.761662244796753,0.0211160601593,0.0309567741176,-0.0770944049401,0.0126315665311,0.0223345832732,0.000367154552217,0.00498678827518,0.0186483685781,0.0134265213494,0.03696117637017989,-0.06663023068512693,1.3256030799729364
1765471502.314737,4.782202959060669,0.0213727909383,0.0314129284941,-0.0768312480217,0.0127455589094,0.0227362839483,0.00127838801109,0.00513607777992,0.0189364080732,0.0140335086814,0.03696117637017989,-0.06663023068512693,1.3256030799729364
1765471502.3334417,4.800907611846924,0.0216316248996,0.0318767971334,-0.0758666927799,0.0128600948,0.0231390526468,0.00381582414445,0.00525819296403,0.019172017375,0.0146589996493,0.03696117637017989,-0.06663023068512693,1.3256030799729364
1765471502.353751,4.821216821670532,0.0218950295038,0.0323528643724,-0.0750320806121,0.0129760712657,0.0235463010068,0.00592843886267,0.00535823769842,0.0193650439031,0.0151372015713,0.03696117637017989,-0.06663023068512693,1.3256030799729364
1765471502.3741891,4.841655015945435,0.0221586637232,0.0328333020464,-0.0743133516596,0.0130916132945,0.0239513445365,0.0076671080338,0.00544005709542,0.0195229064256,0.0154985519263,0.03696117637017989,-0.06663023068512693,1.3256030799729364
1765471502.3935153,4.860981225967407,0.022420986122,0.0332995012883,-0.073698984005,0.0131737523058,0.0241395205406,0.00900614016669,0.00513691586724,0.0172626454196,0.0147750289833,0.03699147398876875,-0.066639281271644,1.3254964203712787
1765471502.4147394,4.882205247879028,0.0226854197609,0.0337728333629,-0.0731724362512,0.0132547983889,0.0243195324793,0.0100676634932,0.00488892728048,0.015413609787,0.0141613430979,0.03699147398876875,-0.066639281271644,1.3254964203712787
1765471502.4342608,4.901726722717285,0.0229515212028,0.0342519026595,-0.0727227969395,0.0133348274942,0.0244924833681,0.0108918740067,0.00468607252968,0.0139010979922,0.0136407395156,0.03699147398876875,-0.066639281271644,1.3254964203712787
1765471502.4549959,4.922461748123169,0.0232255883029,0.0347478168442,-0.0723352881518,0.0134161914044,0.0246658913379,0.0115196542279,0.00451955682192,0.0126595348983,0.0131974488746,0.03699147398876875,-0.066639281271644,1.3254964203712787
1765471502.474974,4.942439794540405,0.0234952440492,0.0352374450755,-0.0721951701958,0.0134947776679,0.0248284503797,0.0115330748148,0.00438357487989,0.0116456355915,0.0127872190404,0.03699147398876875,-0.066639281271644,1.3254964203712787
1765471502.4950645,4.9625303745269775,0.0237668309176,0.0357321157567,-0.0720795997465,0.0135729333527,0.0249875682309,0.0114846835809,0.00427243506409,0.0108169624567,0.0124471494874,0.03699147398876875,-0.066639281271644,1.3254964203712787
1765471502.5144136,4.981879472732544,0.0240398231948,0.0362305993897,-0.0719855326817,0.0136505920524,0.025143492134,0.0113856510018,0.00418157351147,0.0101394867284,0.0121652464788,0.03699147398876875,-0.066639281271644,1.3254964203712787
1765471502.5371192,5.004585027694702,0.0243147009328,0.036733566563,-0.0719096290175,0.0137279867542,0.0252971567023,0.0112461113669,0.00410725248646,0.00958533935692,0.0119315291643,0.03699147398876875,-0.066639281271644,1.3254964203712787
1765471502.5561836,5.023649454116821,0.0245988694824,0.0372544983736,-0.0718449788116,0.013807361465,0.0254539672853,0.0110764895418,0.0040462003401,0.00913012649601,0.01173670128,0.03699147398876875,-0.066639281271644,1.3254964203712787
1765471502.5763335,5.04379940032959,0.0248771820976,0.0377653366225,-0.0717995756132,0.0138842801012,0.0256039568445,0.0108763965563,0.00399635390939,0.00875846492988,0.0115757948523,0.03699147398876875,-0.066639281271644,1.3254964203712787
1765471502.5962124,5.06367826461792,0.025164213747,0.0382460120383,-0.0717714652659,0.0140302965205,0.0254170702672,0.0105259491338,0.00471677845595,0.0047653529926,0.0097962166685,0.03702090608000333,-0.0666914126499823,1.3254492824199842
1765471502.6165257,5.083991527557373,0.0254529005745,0.0387284144201,-0.0721204628788,0.0141787828371,0.0252160073652,0.00928523978165,0.00530571939414,0.00150101795307,0.00827129339801,0.03702090608000333,-0.0666914126499823,1.3254492824199842
1765471502.6366112,5.104077100753784,0.0257486658019,0.0392202510081,-0.0724248567942,0.0143313008668,0.0250032980459,0.00819458605205,0.00578859927947,-0.00117545030943,0.00703326456648,0.03702090608000333,-0.0666914126499823,1.3254492824199842
1765471502.6571763,5.1246421337127686,0.0260418327581,0.0397030165342,-0.0726940464069,0.0144836625569,0.0247807402926,0.00723639103712,0.00618306267835,-0.0033618506957,0.00603311987588,0.03702090608000333,-0.0666914126499823,1.3254492824199842
1765471502.6771736,5.144639492034912,0.0263374829605,0.0401845325426,-0.0729298491984,0.0146374090906,0.0245505067383,0.00639660659064,0.00650550848225,-0.00514907767852,0.00522533339937,0.03702090608000333,-0.0666914126499823,1.3254492824199842
1765471502.6977735,5.165239334106445,0.0266359594209,0.0406643931577,-0.0731365227662,0.0147923888617,0.0243138724827,0.00566056989776,0.00676922717745,-0.00661079670921,0.00457319156669,0.03702090608000333,-0.0666914126499823,1.3254492824199842
1765471502.7176285,5.185094356536865,0.0269374427802,0.0411420822816,-0.0733177844312,0.0149484374151,0.0240718817033,0.00501551994176,0.00698499453101,-0.00780673485333,0.00404708333332,0.03702090608000333,-0.0666914126499823,1.3254492824199842
1765471502.737833,5.205298900604248,0.0272413112553,0.0416159522248,-0.0734769487168,0.0151050566393,0.0238258214293,0.00445050453572,0.00716150578757,-0.00878508742192,0.00362325133849,0.03702090608000333,-0.0666914126499823,1.3254492824199842
1765471502.7622812,5.22974705696106,0.0275628215708,0.0421090978259,-0.0732453227461,0.0152693212559,0.0235672527062,0.00483068006958,0.00730695623699,-0.00959127861661,0.00334947719683,0.03702090608000333,-0.0666914126499823,1.3254492824199842
1765471502.7788568,5.2463226318359375,0.0278727261002,0.0425754605881,-0.0730528870323,0.0154271807612,0.0233144063326,0.00510468320936,0.00742551526274,-0.0102484181647,0.00311822018988,0.03702090608000333,-0.0666914126499823,1.3254492824199842
1765471502.799953,5.26741886138916,0.0281928082178,0.0430735001507,-0.0728828383983,0.0156560893929,0.0234127811848,0.00545884638561,0.00829806861851,-0.00690166213926,0.0049913896157,0.0370112646046194,-0.06676714213229222,1.3253873639246398
1765471502.8188639,5.286329746246338,0.0285163081426,0.0435687143709,-0.0727385162149,0.0158880845132,0.0235227452241,0.00574727507816,0.00901095954726,-0.0041673055575,0.00651591998358,0.0370112646046194,-0.06676714213229222,1.3253873639246398
1765471502.839091,5.306556940078735,0.0288432455213,0.0440618374569,-0.0726162126988,0.0161224763452,0.0236423360563,0.00597978272377,0.00959369219297,-0.00193218265027,0.00775713228311,0.0370112646046194,-0.06676714213229222,1.3253873639246398
1765471502.8604279,5.3278937339782715,0.0291742151867,0.0445543222197,-0.0725126041325,0.0163590247819,0.0237697832136,0.00616492270862,0.0100702743767,-0.000104209284001,0.00876803901065,0.0370112646046194,-0.06676714213229222,1.3253873639246398
1765471502.8810272,5.3484930992126465,0.0295090675828,0.0450464230061,-0.0724250849392,0.0165971566476,0.0239037192779,0.00630977069553,0.0104601075346,0.001391030476,0.00959138743182,0.0370112646046194,-0.06676714213229222,1.3253873639246398
1765471502.8999224,5.3673882484436035,0.0298481863793,0.0455390856319,-0.0732682467621,0.0168367059487,0.0240429812352,0.00424289933607,0.0107790552176,0.00261438269031,0.0100890237787,0.0370112646046194,-0.06676714213229222,1.3253873639246398
1765471502.9198985,5.387364387512207,0.0301935545635,0.0460354370449,-0.0739946983414,0.0170786133708,0.0241869849938,0.00255518572059,0.0110402542112,0.00361623466858,0.0105264527038,0.0370112646046194,-0.06676714213229222,1.3253873639246398
1765471502.9398575,5.407323360443115,0.0305415991736,0.0465306564196,-0.0746190569687,0.0173203112498,0.0243342941013,0.00119350911296,0.011253914902,0.00443574925708,0.0109101280343,0.0370112646046194,-0.06676714213229222,1.3253873639246398
1765471502.9613218,5.428787708282471,0.0308940491858,0.0470274323026,-0.0751539529528,0.0175626810771,0.024484503712,0.000111839884279,0.0114287110953,0.00510619560789,0.0112461400939,0.0370112646046194,-0.06676714213229222,1.3253873639246398
1765471502.9802768,5.447742700576782,0.0312512133241,0.0475263750371,-0.0756108879564,0.0178057386698,0.0246371481628,-0.000730716769536,0.0115717404182,0.00565479730092,0.01153996064,0.0370112646046194,-0.06676714213229222,1.3253873639246398
1765471503.0024002,5.469866037368774,0.031620175606,0.0480315688071,-0.0759988529539,0.0181160063213,0.0248258408813,-0.00134491038601,0.0124199302985,0.00647729235607,0.0121051469068,0.0370390571873079,-0.06667229614678258,1.3253673902164642
1765471503.020562,5.488027811050415,0.0319938181253,0.0485389126399,-0.0763276656953,0.0184291352575,0.0250174077405,-0.00178568989919,0.0131140314066,0.00715036656085,0.0125812444509,0.0370390571873079,-0.06667229614678258,1.3253673902164642
1765471503.0405266,5.507992506027222,0.0323733820946,0.0490499800991,-0.0769718738852,0.0187452363895,0.0252116683039,-0.00295091146215,0.0136822069011,0.00770132990708,0.0129132724233,0.0370390571873079,-0.06667229614678258,1.3253673902164642
1765471503.0679398,5.53540563583374,0.0327624793706,0.0495694767543,-0.0775213598559,0.0190663547702,0.0254096289036,-0.00382888498305,0.0141479715601,0.00815298482286,0.0132079588786,0.0370390571873079,-0.06667229614678258,1.3253673902164642
1765471503.0813115,5.548777341842651,0.0331531147094,0.0500866325375,-0.0779861725255,0.0193860976056,0.0256074991504,-0.0044659945051,0.0145288053913,0.00852228178136,0.0134681766724,0.0370390571873079,-0.06667229614678258,1.3253673902164642
1765471503.1019182,5.5693840980529785,0.0335500487006,0.050607775629,-0.0783782385816,0.0197075268752,0.0258068879554,-0.00489755350467,0.0148403342986,0.00882437331977,0.0136972505456,0.0370390571873079,-0.06667229614678258,1.3253673902164642
1765471503.124234,5.591699838638306,0.0339527198703,0.0511321206013,-0.0787070883957,0.0200298752669,0.0260072489941,-0.00515709214502,0.0150951712704,0.00907149033212,0.0138982304699,0.0370390571873079,-0.06667229614678258,1.3253673902164642
1765471503.142066,5.609531879425049,0.034361132985,0.0516596491976,-0.0789811959966,0.0203528627219,0.0262083345796,-0.00527331456534,0.0153036318428,0.00927363585874,0.0140739611643,0.0370390571873079,-0.06667229614678258,1.3253673902164642
1765471503.163661,5.631126880645752,0.0347751693,0.0521901949845,-0.0792079751068,0.0206761732474,0.0264098887231,-0.00527111929758,0.015474148966,0.00943898738425,0.0142270720023,0.0370390571873079,-0.06667229614678258,1.3253673902164642
1765471503.1830943,5.650560140609741,0.0351958139402,0.0527250026716,-0.0782940878842,0.0210003581966,0.0266121965745,-0.00255805919669,0.0156136777375,0.00957428931049,0.0145673920618,0.0370390571873079,-0.06667229614678258,1.3253673902164642
1765471503.202079,5.66954493522644,0.0356102693624,0.0532532894871,-0.0775110498885,0.0212022303044,0.0267134801703,-0.00050428567128,0.0143768709847,0.00856815568761,0.0117176022344,0.03695978653298601,-0.06657641402516132,1.3252510100768278
1765471503.2221797,5.689645528793335,0.0360306142991,0.053785107471,-0.0768330711124,0.0213996408243,0.0268111320588,0.00118276975646,0.0133647072892,0.0077447676169,0.0093573398799,0.03695978653298601,-0.06657641402516132,1.3252510100768278
1765471503.2421877,5.709653615951538,0.03645711972,0.0543209753051,-0.0762473988401,0.0215938030284,0.0269060393163,0.00255430341468,0.0125361439265,0.00707073712991,0.0074009958066,0.03695978653298601,-0.06657641402516132,1.3252510100768278
1765471503.262329,5.729794979095459,0.0368881108334,0.0548589493361,-0.0757431252351,0.0217845685468,0.026998275104,0.00365364068739,0.0118580915064,0.00651914623959,0.00577914870861,0.03695978653298601,-0.06657641402516132,1.3252510100768278
1765471503.2829578,5.7504236698150635,0.0373331691432,0.0554109701394,-0.0753078283354,0.0219776974749,0.0270911197387,0.00452394322296,0.0113014610916,0.00606633129928,0.00442992797795,0.03695978653298601,-0.06657641402516132,1.3252510100768278
1765471503.3042476,5.771713495254517,0.0377737715002,0.0559542391964,-0.0749372494164,0.0221639135671,0.0271796419248,0.00519122322043,0.01084666836,0.00569636060039,0.00331208117532,0.03695978653298601,-0.06657641402516132,1.3252510100768278
1765471503.3242445,5.791710376739502,0.0382184768854,0.0564994505647,-0.0746218583132,0.022348357077,0.0272667661188,0.00568821633313,0.0104749079158,0.00539393608519,0.00238519884224,0.03695978653298601,-0.06657641402516132,1.3252510100768278
