timestamp,sim_time,iteration,true_pos_x,true_pos_y,true_pos_z,imu_valid,imu_roll,imu_pitch,imu_yaw,imu_acc_x,imu_acc_y,imu_acc_z,usbl_valid,usbl_pos_x,usbl_pos_y,usbl_pos_z,usbl_fix_used,depth_valid,depth_measurement,kf_pos_x,kf_pos_y,kf_pos_z,kf_vel_x,kf_vel_y,kf_vel_z,kf_acc_x,kf_acc_y,kf_acc_z,error_norm
14:28:36.012,0.000,0,10.168406,0.000000,-4.647959,1,0.000000,0.000000,1.573014,-0.050357,0.252561,-0.006951,0,0.000000,0.000000,0.000000,0,1,4.597691,10.168090,-0.000064,-4.597816,-0.012611,-0.002544,0.002154,-0.050311,0.252334,-0.006944,0.050144
14:28:36.062,0.050,1,10.168125,0.074999,-4.647969,1,0.000000,0.000000,1.570370,0.024386,0.247942,-0.010426,0,0.000000,0.000000,0.000000,0,1,4.676461,10.167155,-0.000067,-4.597723,-0.025013,-0.001320,0.001633,-0.012980,0.250139,-0.008684,0.090335
14:28:36.112,0.100,2,10.167281,0.149994,-4.647998,1,0.000000,0.000000,1.607368,0.026199,0.228554,-0.029057,0,0.000000,0.000000,0.000000,0,1,4.665256,10.165673,-0.000013,-4.597721,-0.036434,-0.000455,0.000181,0.000076,0.242946,-0.015473,0.158217
14:28:36.162,0.150,3,10.165876,0.224981,-4.648048,1,0.000000,0.000000,1.624528,-0.005412,0.291009,-0.008651,0,0.000000,0.000000,0.000000,0,1,4.698785,10.163308,-0.000082,-4.689589,-0.050959,-0.001433,-0.551275,-0.001296,0.254959,-0.013784,0.228879
14:28:36.212,0.200,4,10.163909,0.299955,-4.648116,1,0.000000,0.000000,1.600983,-0.012712,0.219094,-0.026432,0,0.000000,0.000000,0.000000,0,1,4.663571,10.160667,-0.000233,-4.717189,-0.061893,-0.002409,-0.552338,-0.003579,0.247787,-0.016313,0.308049
14:28:36.262,0.250,5,10.161380,0.374912,-4.648205,1,0.000000,0.000000,1.593004,-0.042947,0.214469,-0.059173,0,0.000000,0.000000,0.000000,0,1,4.655385,10.157518,-0.000655,-4.744944,-0.072563,-0.004790,-0.554566,-0.010139,0.242235,-0.023455,0.387846
14:28:36.312,0.300,6,10.158289,0.449848,-4.648312,1,0.000000,0.000000,1.601238,-0.000628,0.284512,0.026298,0,0.000000,0.000000,0.000000,0,1,4.625143,10.153216,-0.000841,-4.653600,-0.086778,-0.005243,-0.088719,-0.008780,0.248274,-0.016308,0.450749
14:28:36.363,0.350,7,10.154636,0.524759,-4.648440,1,0.000000,0.000000,1.601061,-0.011268,0.256236,0.021436,0,0.000000,0.000000,0.000000,0,1,4.567168,10.148488,-0.001150,-4.657987,-0.099568,-0.006192,-0.088541,-0.009091,0.249269,-0.011591,0.526031
14:28:36.413,0.400,8,10.150422,0.599640,-4.648587,1,0.000000,0.000000,1.618984,0.005807,0.254330,-0.015663,0,0.000000,0.000000,0.000000,0,1,4.634826,10.143138,-0.001320,-4.662440,-0.112269,-0.006509,-0.089238,-0.007436,0.249831,-0.012043,0.601163
14:28:36.463,0.450,9,10.145647,0.674488,-4.648754,1,0.000000,0.000000,1.625959,-0.027232,0.222094,0.040338,0,0.000000,0.000000,0.000000,0,1,4.645647,10.137566,-0.001911,-4.652166,-0.123304,-0.008515,-0.046912,-0.009416,0.247058,-0.006796,0.676455
14:28:36.513,0.500,10,10.140311,0.749297,-4.648940,1,0.000000,0.000000,1.626002,0.081927,0.240335,-0.004258,0,0.000000,0.000000,0.000000,0,1,4.622017,10.131154,-0.001108,-4.654514,-0.135428,-0.005092,-0.047187,-0.001112,0.246447,-0.006565,0.750481
14:28:36.563,0.550,11,10.134415,0.824064,-4.649146,1,0.000000,0.000000,1.645856,0.030287,0.204991,0.016349,0,0.000000,0.000000,0.000000,0,1,4.693053,10.124684,-0.000899,-4.656804,-0.145698,-0.004427,-0.046884,0.001504,0.242992,-0.004656,0.825057
14:28:36.613,0.600,12,10.127958,0.898785,-4.649372,1,0.000000,0.000000,1.686095,0.004291,0.213078,-0.017110,0,0.000000,0.000000,0.000000,0,1,4.681951,10.117582,-0.001095,-4.672777,-0.156288,-0.005548,-0.077744,0.001718,0.240691,-0.005629,0.900244
14:28:36.663,0.650,13,10.120941,0.973456,-4.649617,1,0.000000,0.000000,1.640154,0.015435,0.229555,0.012054,0,0.000000,0.000000,0.000000,0,1,4.697947,10.109654,-0.001145,-4.676621,-0.167774,-0.005586,-0.077580,0.002698,0.239896,-0.004366,0.975040
14:28:36.713,0.700,14,10.113365,1.048072,-4.649881,1,0.000000,0.000000,1.652231,-0.056037,0.251610,0.026191,0,0.000000,0.000000,0.000000,0,1,4.683981,10.100783,-0.002553,-4.680385,-0.180187,-0.009387,-0.076977,-0.001217,0.240677,-0.002329,1.051142
14:28:36.763,0.750,15,10.105230,1.122628,-4.650165,1,0.000000,0.000000,1.668055,0.060545,0.236584,0.017946,0,0.000000,0.000000,0.000000,0,1,4.637162,10.091514,-0.001816,-4.659525,-0.192108,-0.007523,-0.031066,0.002643,0.240421,-0.001021,1.124567
14:28:36.813,0.800,16,10.096536,1.197122,-4.650469,1,0.000000,0.000000,1.657398,0.005255,0.275327,0.050851,0,0.000000,0.000000,0.000000,0,1,4.622982,10.080866,-0.002186,-4.660902,-0.205844,-0.008392,-0.029819,0.002796,0.242474,0.002029,1.199456
14:28:36.863,0.850,17,10.087284,1.271548,-4.650792,1,0.000000,0.000000,1.708371,0.029534,0.236192,0.018925,0,0.000000,0.000000,0.000000,0,1,4.662375,10.070391,-0.002038,-4.662315,-0.217635,-0.008565,-0.029272,0.004282,0.242125,0.002968,1.273750
14:28:36.913,0.900,18,10.077474,1.345903,-4.651135,1,0.000000,0.000000,1.660500,-0.025282,0.216349,-0.047532,0,0.000000,0.000000,0.000000,0,1,4.548830,10.059847,-0.003164,-4.610185,-0.228340,-0.010835,0.055205,0.002726,0.240769,0.000433,1.349804
14:28:36.963,0.950,19,10.067108,1.420182,-4.651497,1,0.000000,0.000000,1.690592,0.036276,0.255922,-0.041429,0,0.000000,0.000000,0.000000,0,1,4.705427,10.047717,-0.002917,-4.607591,-0.241167,-0.010512,0.054187,0.004403,0.241526,-0.001659,1.423908
14:28:37.014,1.000,20,10.056185,1.494381,-4.651878,1,0.000000,0.000000,1.686238,-0.014648,0.231766,-0.011560,0,0.000000,0.000000,0.000000,0,1,4.736719,10.035636,-0.003960,-4.604934,-0.252641,-0.012603,0.053847,0.003496,0.241062,-0.002131,1.499217
14:28:37.064,1.050,21,10.044706,1.568496,-4.652279,1,0.000000,0.000000,1.693801,-0.012777,0.205937,-0.028622,0,0.000000,0.000000,0.000000,0,1,4.609687,10.023689,-0.005025,-4.605490,-0.262819,-0.014602,0.048654,0.002756,0.239465,-0.003344,1.574357
14:28:37.114,1.100,22,10.032672,1.642523,-4.652699,1,0.000000,0.000000,1.731097,0.018071,0.245081,-0.042997,0,0.000000,0.000000,0.000000,0,1,4.761091,10.010070,-0.005368,-4.603241,-0.274995,-0.015634,0.047512,0.003422,0.239709,-0.005067,1.648788
14:28:37.164,1.150,23,10.020083,1.716458,-4.653139,1,0.000000,0.000000,1.739318,0.026011,0.266134,0.054027,0,0.000000,0.000000,0.000000,0,1,4.636792,9.995199,-0.005559,-4.600542,-0.288240,-0.016450,0.048775,0.004363,0.240810,-0.002606,1.722999
14:28:37.214,1.200,24,10.006941,1.790296,-4.653598,1,0.000000,0.000000,1.716987,0.023949,0.129370,-0.015897,0,0.000000,0.000000,0.000000,0,1,4.668569,9.983931,-0.005627,-4.625570,-0.294711,-0.016579,0.012796,0.005147,0.236353,-0.003240,1.796289
14:28:37.264,1.250,25,9.993246,1.864033,-4.654076,1,0.000000,0.000000,1.754194,0.037431,0.190663,-0.023949,0,0.000000,0.000000,0.000000,0,1,4.656711,9.970329,-0.005376,-4.625039,-0.304236,-0.016688,0.012131,0.006388,0.234596,-0.004036,1.869775
14:28:37.314,1.300,26,9.978998,1.937665,-4.654573,1,0.000000,0.000000,1.777196,0.004893,0.237285,-0.000716,0,0.000000,0.000000,0.000000,0,1,4.621860,9.954740,-0.006318,-4.624417,-0.315910,-0.018865,0.012013,0.006333,0.234695,-0.003913,1.944369
14:28:37.364,1.350,27,9.964199,2.011189,-4.655090,1,0.000000,0.000000,1.739932,-0.024099,0.218383,-0.012454,0,0.000000,0.000000,0.000000,0,1,4.696862,9.939286,-0.008332,-4.650306,-0.326583,-0.021968,-0.020548,0.005246,0.234113,-0.004338,2.019680
14:28:37.415,1.400,28,9.948849,2.084599,-4.655626,1,0.000000,0.000000,1.791380,-0.053630,0.240876,0.003752,0,0.000000,0.000000,0.000000,0,1,4.624241,9.922556,-0.011631,-4.651294,-0.338123,-0.027231,-0.020571,0.003216,0.234346,-0.004059,2.096399
14:28:37.465,1.450,29,9.932949,2.157892,-4.656181,1,0.000000,0.000000,1.786191,-0.052347,0.183710,0.003696,0,0.000000,0.000000,0.000000,0,1,4.706532,9.907387,-0.015008,-4.652277,-0.346817,-0.032090,-0.020582,0.001364,0.232658,-0.003801,2.173054
14:28:37.515,1.500,30,9.916500,2.231064,-4.656756,1,0.000000,0.000000,1.746525,-0.000509,0.245205,-0.015515,0,0.000000,0.000000,0.000000,0,1,4.628174,9.889280,-0.016766,-4.644791,-0.358897,-0.034212,-0.011041,0.001304,0.233063,-0.004133,2.248026
14:28:37.565,1.550,31,9.899504,2.304110,-4.657349,1,0.000000,0.000000,1.817655,0.018685,0.242929,-0.026511,0,0.000000,0.000000,0.000000,0,1,4.683810,9.870612,-0.017880,-4.645482,-0.370793,-0.036186,-0.011772,0.001847,0.233371,-0.004832,2.322200
14:28:37.615,1.600,32,9.881960,2.377026,-4.657962,1,0.000000,0.000000,1.821047,0.044100,0.213923,-0.023689,0,0.000000,0.000000,0.000000,0,1,4.704548,9.852466,-0.017967,-4.646209,-0.381387,-0.036785,-0.012471,0.003127,0.232782,-0.005402,2.395204
14:28:37.665,1.650,33,9.863870,2.449809,-4.658594,1,0.000000,0.000000,1.809635,-0.044586,0.255653,-0.057418,0,0.000000,0.000000,0.000000,0,1,4.685527,9.832292,-0.021961,-4.659709,-0.393597,-0.041880,-0.028182,0.001724,0.233454,-0.007005,2.471972
14:28:37.715,1.700,34,9.845236,2.522454,-4.659245,1,0.000000,0.000000,1.828449,0.019665,0.218468,-0.024209,0,0.000000,0.000000,0.000000,0,1,4.653364,9.812923,-0.023297,-4.661236,-0.404269,-0.043795,-0.028925,0.002236,0.233026,-0.007496,2.545957
14:28:37.765,1.750,35,9.826057,2.594957,-4.659914,1,0.000000,0.000000,1.795296,-0.017648,0.202214,-0.024238,0,0.000000,0.000000,0.000000,0,1,4.613266,9.793874,-0.026332,-4.662814,-0.414009,-0.047079,-0.029695,0.001684,0.232170,-0.007960,2.621489
14:28:37.815,1.800,36,9.806335,2.667314,-4.660603,1,0.000000,0.000000,1.832656,0.004785,0.236987,0.026280,0,0.000000,0.000000,0.000000,0,1,4.744202,9.772660,-0.028634,-4.689172,-0.425501,-0.049879,-0.057433,0.001768,0.232301,-0.007200,2.696311
14:28:37.865,1.850,37,9.786072,2.739521,-4.661311,1,0.000000,0.000000,1.855834,0.010946,0.252857,0.024119,0,0.000000,0.000000,0.000000,0,1,4.708756,9.750098,-0.030854,-4.691846,-0.437747,-0.052738,-0.057099,0.002009,0.232841,-0.006378,2.770778
14:28:37.915,1.900,38,9.765268,2.811575,-4.662037,1,0.000000,0.000000,1.837486,0.004899,0.242071,-0.022130,0,0.000000,0.000000,0.000000,0,1,4.691365,9.727470,-0.033464,-4.694828,-0.449478,-0.055628,-0.057778,0.002083,0.233078,-0.006781,2.845478
14:28:37.965,1.950,39,9.743925,2.883469,-4.662782,1,0.000000,0.000000,1.860228,-0.012982,0.230796,-0.026494,0,0.000000,0.000000,0.000000,0,1,4.675415,9.704895,-0.037064,-4.691034,-0.460463,-0.059582,-0.050933,0.001707,0.233021,-0.007225,2.920931
14:28:38.016,2.000,40,9.722043,2.955202,-4.663547,1,0.000000,0.000000,1.894727,-0.009697,0.168062,0.004954,0,0.000000,0.000000,0.000000,0,1,4.724963,9.684955,-0.040418,-4.693507,-0.468253,-0.063318,-0.051034,0.001429,0.231437,-0.006928,2.995999
14:28:38.066,2.050,41,9.699624,3.026769,-4.664329,1,0.000000,0.000000,1.868250,-0.029770,0.215356,-0.017301,0,0.000000,0.000000,0.000000,0,1,4.708045,9.662254,-0.045216,-4.696147,-0.478322,-0.068064,-0.051609,0.000686,0.231054,-0.007175,3.072377
14:28:38.116,2.100,42,9.676669,3.098165,-4.665131,1,0.000000,0.000000,1.893678,0.017463,0.218375,0.020654,0,0.000000,0.000000,0.000000,0,1,4.714872,9.638656,-0.047751,-4.703396,-0.488788,-0.070778,-0.056804,0.001076,0.230759,-0.006565,3.146378
14:28:38.166,2.150,43,9.653180,3.169387,-4.665951,1,0.000000,0.000000,1.915873,0.001500,0.189574,-0.049617,0,0.000000,0.000000,0.000000,0,1,4.605577,9.616190,-0.051144,-4.706542,-0.497642,-0.074297,-0.058014,0.001086,0.229823,-0.007540,3.220999
14:28:38.216,2.200,44,9.629158,3.240430,-4.666790,1,0.000000,0.000000,1.900677,0.031680,0.280600,-0.055581,0,0.000000,0.000000,0.000000,0,1,4.743317,9.588032,-0.053526,-4.709827,-0.511264,-0.076859,-0.059406,0.001766,0.230951,-0.008604,3.294495
14:28:38.266,2.250,45,9.604604,3.311292,-4.667648,1,0.000000,0.000000,1.898914,0.000515,0.203672,-0.010343,0,0.000000,0.000000,0.000000,0,1,4.716825,9.563757,-0.057372,-4.714005,-0.520874,-0.080342,-0.061197,0.001738,0.230358,-0.008651,3.369230
14:28:38.316,2.300,46,9.579519,3.381967,-4.668524,1,0.000000,0.000000,1.897968,-0.030213,0.235880,-0.021894,0,0.000000,0.000000,0.000000,0,1,4.683198,9.537314,-0.063374,-4.717167,-0.531820,-0.085573,-0.061888,0.001059,0.230476,-0.008932,3.445943
14:28:38.366,2.350,47,9.553906,3.452452,-4.669418,1,0.000000,0.000000,1.926430,-0.065091,0.247370,-0.040173,0,0.000000,0.000000,0.000000,0,1,4.676205,9.509871,-0.071792,-4.720516,-0.542919,-0.092918,-0.062965,-0.000320,0.230828,-0.009580,3.524889
14:28:38.416,2.400,48,9.527764,3.522742,-4.670331,1,0.000000,0.000000,1.924669,0.005104,0.204374,0.053450,0,0.000000,0.000000,0.000000,0,1,4.672172,9.484023,-0.076033,-4.708214,-0.552491,-0.096442,-0.045375,-0.000209,0.230288,-0.008186,3.599240
14:28:38.466,2.450,49,9.501097,3.592835,-4.671262,1,0.000000,0.000000,1.935121,-0.011602,0.213046,-0.014257,0,0.000000,0.000000,0.000000,0,1,4.675555,9.457276,-0.081542,-4.710535,-0.562303,-0.100963,-0.045897,-0.000437,0.229943,-0.008307,3.674848
14:28:38.516,2.500,50,9.473905,3.662725,-4.672212,1,0.000000,0.000000,1.958565,0.049175,0.204522,0.032584,0,0.000000,0.000000,0.000000,0,1,4.608484,9.430137,-0.083385,-4.712525,-0.572137,-0.102680,-0.045528,0.000536,0.229445,-0.007509,3.746583
14:28:38.566,2.550,51,9.446190,3.732410,-4.673179,1,0.000000,0.000000,1.952022,0.035510,0.217658,-0.023371,0,0.000000,0.000000,0.000000,0,1,4.613458,9.401757,-0.086288,-4.685390,-0.582538,-0.105108,-0.012895,0.001209,0.229218,-0.007592,3.818976
14:28:38.616,2.600,52,9.417954,3.801884,-4.674166,1,0.000000,0.000000,1.973040,-0.015515,0.195527,-0.043460,0,0.000000,0.000000,0.000000,0,1,4.693730,9.374704,-0.092483,-4.686287,-0.591309,-0.110043,-0.013906,0.000893,0.228582,-0.008265,3.894627
14:28:38.666,2.650,53,9.389197,3.871145,-4.675170,1,0.000000,0.000000,1.958094,-0.030522,0.246304,-0.003901,0,0.000000,0.000000,0.000000,0,1,4.715448,9.343949,-0.100333,-4.686960,-0.602475,-0.116016,-0.014240,0.000311,0.228910,-0.008185,3.971753
14:28:38.716,2.700,54,9.359923,3.940188,-4.676192,1,0.000000,0.000000,1.966366,0.011529,0.238275,-0.051249,0,0.000000,0.000000,0.000000,0,1,4.771825,9.312830,-0.105562,-4.712370,-0.613607,-0.119956,-0.042965,0.000515,0.229081,-0.009142,4.046185
14:28:38.767,2.750,55,9.330131,4.009009,-4.677232,1,0.000000,0.000000,1.977519,-0.003162,0.258649,0.019372,0,0.000000,0.000000,0.000000,0,1,4.725997,9.279876,-0.112188,-4.714341,-0.625538,-0.124933,-0.042947,0.000450,0.229609,-0.008636,4.121671
14:28:38.817,2.800,56,9.299825,4.077605,-4.678291,1,0.000000,0.000000,1.975145,-0.044725,0.198440,0.036248,0,0.000000,0.000000,0.000000,0,1,4.596001,9.250941,-0.121436,-4.716170,-0.634137,-0.131312,-0.042605,-0.000343,0.229062,-0.007853,4.199496
14:28:38.867,2.850,57,9.269005,4.145971,-4.679367,1,0.000000,0.000000,2.003385,-0.002632,0.245982,-0.008076,0,0.000000,0.000000,0.000000,0,1,4.692081,9.217787,-0.128447,-4.710706,-0.645325,-0.136412,-0.034386,-0.000382,0.229354,-0.007803,4.274839
14:28:38.917,2.900,58,9.237673,4.214104,-4.680461,1,0.000000,0.000000,2.009297,0.020145,0.201715,-0.015505,0,0.000000,0.000000,0.000000,0,1,4.711987,9.187067,-0.133625,-4.712485,-0.654573,-0.140017,-0.034897,-0.000034,0.228885,-0.007932,4.348141
14:28:38.967,2.950,59,9.205832,4.282000,-4.681573,1,0.000000,0.000000,2.026955,0.008864,0.231659,-0.010459,0,0.000000,0.000000,0.000000,0,1,4.672549,9.153786,-0.140123,-4.714257,-0.665074,-0.144659,-0.035335,0.000114,0.228931,-0.007974,4.422550
14:28:39.017,3.000,60,9.173483,4.349655,-4.682703,1,0.000000,0.000000,2.023433,0.026782,0.220053,-0.029852,0,0.000000,0.000000,0.000000,0,1,4.710066,9.120658,-0.145385,-4.714426,-0.675228,-0.148275,-0.034086,0.000551,0.228786,-0.008318,4.495463
14:28:39.067,3.050,61,9.140628,4.417066,-4.683850,1,0.000000,0.000000,2.009136,0.004201,0.188529,0.003507,1,9.064821,4.325063,-4.688053,1,1,4.703637,9.064867,4.315609,-4.715163,-0.691975,1.154546,-0.033385,0.000580,0.228782,-0.008312,0.130436
14:28:39.117,3.100,62,9.107268,4.484228,-4.685015,1,0.000000,0.000000,2.036701,-0.007791,0.226712,-0.025055,1,9.064821,4.325063,-4.688053,0,1,4.704986,9.030019,4.373197,-4.716955,-0.702085,1.149226,-0.034058,0.000445,0.228748,-0.008580,0.138980
14:28:39.167,3.150,63,9.073406,4.551138,-4.686197,1,0.000000,0.000000,2.054524,0.038556,0.245232,0.033732,1,9.064821,4.325063,-4.688053,0,1,4.740367,8.994584,4.430619,-4.724575,-0.712983,1.144820,-0.040892,0.001050,0.229010,-0.007955,0.149032
14:28:39.217,3.200,64,9.039043,4.617792,-4.687397,1,0.000000,0.000000,2.057376,0.059368,0.271220,-0.001965,1,9.064821,4.325063,-4.688053,0,1,4.638823,8.958437,4.487915,-4.726594,-0.724781,1.140744,-0.041205,0.001961,0.229670,-0.007862,0.157803
14:28:39.267,3.250,65,9.004182,4.684186,-4.688615,1,0.000000,0.000000,2.063142,0.006170,0.234825,0.033262,1,9.064821,4.325063,-4.688053,0,1,4.643473,8.921909,4.544833,-4.728395,-0.735126,1.135473,-0.040994,0.002026,0.229749,-0.007234,0.166645
14:28:39.317,3.300,66,8.968824,4.750317,-4.689849,1,0.000000,0.000000,2.072310,0.000319,0.258724,0.019412,1,9.064821,4.325063,-4.688053,0,1,4.763562,8.884709,4.601400,-4.739749,-0.746038,1.129731,-0.051777,0.002000,0.230188,-0.006895,0.178161
14:28:39.367,3.350,67,8.932971,4.816180,-4.691101,1,0.000000,0.000000,2.061899,0.013653,0.188761,-0.037816,1,9.064821,4.325063,-4.688053,0,1,4.708984,8.847454,4.657948,-4.742523,-0.755179,1.125100,-0.052537,0.002174,0.229570,-0.007353,0.187069
14:28:39.417,3.400,68,8.896626,4.881772,-4.692371,1,0.000000,0.000000,2.068463,-0.073849,0.207333,-0.005810,1,9.064821,4.325063,-4.688053,0,1,4.750743,8.809868,4.713429,-4.745149,-0.763970,1.117776,-0.052883,0.001056,0.229243,-0.007330,0.196601
14:28:39.468,3.450,69,8.859790,4.947090,-4.693657,1,0.000000,0.000000,2.071409,0.048691,0.228306,0.042542,1,9.064821,4.325063,-4.688053,0,1,4.630857,8.771269,4.769687,-4.714037,-0.774484,1.113688,-0.014379,0.001747,0.229229,-0.006406,0.199308
14:28:39.518,3.500,70,8.822466,5.012130,-4.694960,1,0.000000,0.000000,2.061973,-0.017343,0.265047,-0.011691,1,9.064821,4.325063,-4.688053,0,1,4.725420,8.731940,4.824877,-4.714792,-0.785473,1.107457,-0.014766,0.001474,0.229741,-0.006481,0.208930
14:28:39.568,3.550,71,8.784655,5.076888,-4.696281,1,0.000000,0.000000,2.123054,-0.040732,0.232120,0.026981,1,9.064821,4.325063,-4.688053,0,1,4.665940,8.692567,4.879540,-4.715336,-0.794935,1.100249,-0.014646,0.000879,0.229774,-0.006014,0.218608
14:28:39.618,3.600,72,8.746359,5.141360,-4.697618,1,0.000000,0.000000,2.088624,-0.005470,0.242356,0.034571,1,9.064821,4.325063,-4.688053,0,1,4.607837,8.652420,4.934261,-4.684728,-0.805240,1.094286,0.021047,0.000791,0.229949,-0.005271,0.227773
14:28:39.668,3.650,73,8.707582,5.205543,-4.698972,1,0.000000,0.000000,2.091474,0.027356,0.203059,-0.026590,1,9.064821,4.325063,-4.688053,0,1,4.792971,8.612191,4.989385,-4.683794,-0.814724,1.089662,0.020525,0.001155,0.229581,-0.005560,0.236757
14:28:39.718,3.700,74,8.668325,5.269433,-4.700343,1,0.000000,0.000000,2.133740,0.016029,0.189691,0.006774,1,9.064821,4.325063,-4.688053,0,1,4.699283,8.571800,5.044188,-4.682703,-0.823444,1.084450,0.020403,0.001356,0.229042,-0.005395,0.245689
14:28:39.768,3.750,75,8.628589,5.333027,-4.701731,1,0.000000,0.000000,2.111445,-0.050779,0.194633,0.005611,1,9.064821,4.325063,-4.688053,0,1,4.745335,8.531318,5.097530,-4.700009,-0.831708,1.077442,-0.000656,0.000661,0.228583,-0.005354,0.254801
14:28:39.818,3.800,76,8.588379,5.396320,-4.703135,1,0.000000,0.000000,2.137753,-0.001410,0.205037,-0.023719,1,9.064821,4.325063,-4.688053,0,1,4.763983,8.489960,5.151362,-4.700141,-0.840641,1.071531,-0.001135,0.000634,0.228273,-0.005593,0.264007
14:28:39.868,3.850,77,8.547695,5.459311,-4.704556,1,0.000000,0.000000,2.134882,-0.004149,0.210793,-0.027377,1,9.064821,4.325063,-4.688053,0,1,4.578650,8.448079,5.204810,-4.700326,-0.849725,1.065510,-0.001677,0.000572,0.228046,-0.005873,0.273334
14:28:39.918,3.900,78,8.506540,5.521994,-4.705993,1,0.000000,0.000000,2.158579,-0.014367,0.212894,0.011585,1,9.064821,4.325063,-4.688053,0,1,4.708772,8.405796,5.257716,-4.702756,-0.858600,1.058935,-0.004532,0.000380,0.227852,-0.005665,0.282847
14:28:39.968,3.950,79,8.464916,5.584366,-4.707446,1,0.000000,0.000000,2.150110,0.031521,0.216750,0.014510,1,9.064821,4.325063,-4.688053,0,1,4.660863,8.362636,5.311312,-4.702893,-0.868173,1.053788,-0.004593,0.000774,0.227711,-0.005412,0.291617
14:28:40.019,4.000,80,8.422826,5.646425,-4.708916,1,0.000000,0.000000,2.150924,0.070628,0.249520,-0.013518,1,9.064821,4.325063,-4.688053,0,1,4.720072,8.317872,5.365355,-4.703172,-0.879214,1.049447,-0.004957,0.001647,0.227984,-0.005512,0.300081
14:28:40.069,4.050,81,8.380272,5.708166,-4.710402,1,0.000000,0.000000,2.180654,-0.040446,0.233192,-0.013682,1,9.064821,4.325063,-4.688053,0,1,4.791237,8.273919,5.416548,-4.728862,-0.888254,1.041635,-0.034146,0.001128,0.228048,-0.005743,0.310954
14:28:40.119,4.100,82,8.337256,5.769585,-4.711904,1,0.000000,0.000000,2.181480,-0.000330,0.270897,-0.031699,1,9.064821,4.325063,-4.688053,0,1,4.690608,8.228143,5.468026,-4.730696,-0.898926,1.034570,-0.034707,0.001110,0.228571,-0.006056,0.321243
14:28:40.169,4.150,83,8.293782,5.830680,-4.713422,1,0.000000,0.000000,2.197988,-0.006871,0.233191,-0.036055,1,9.064821,4.325063,-4.688053,0,1,4.815188,8.182915,5.519319,-4.732591,-0.908254,1.027604,-0.035340,0.001014,0.228626,-0.006414,0.331066
14:28:40.219,4.200,84,8.249850,5.891448,-4.714957,1,0.000000,0.000000,2.205463,0.051603,0.210897,-0.032101,1,9.064821,4.325063,-4.688053,0,1,4.722060,8.137260,5.572187,-4.730908,-0.917586,1.022658,-0.031870,0.001616,0.228415,-0.006699,0.338908
14:28:40.269,4.250,85,8.205465,5.951883,-4.716507,1,0.000000,0.000000,2.193050,-0.001132,0.236491,-0.027636,1,9.064821,4.325063,-4.688053,0,1,4.696290,8.090933,5.622983,-4.732602,-0.927128,1.015877,-0.032417,0.001584,0.228510,-0.006943,0.348643
14:28:40.319,4.300,86,8.160627,6.011984,-4.718072,1,0.000000,0.000000,2.217416,-0.020014,0.200533,0.006089,1,9.064821,4.325063,-4.688053,0,1,4.748373,8.045475,5.673248,-4.734168,-0.935139,1.008751,-0.032626,0.001333,0.228185,-0.006793,0.358136
14:28:40.369,4.350,87,8.115341,6.071747,-4.719654,1,0.000000,0.000000,2.246338,0.064601,0.187915,-0.029998,1,9.064821,4.325063,-4.688053,0,1,4.628313,7.999051,5.726057,-4.704794,-0.943670,1.004182,0.002064,0.002060,0.227722,-0.006909,0.365028
14:28:40.419,4.400,88,8.069607,6.131169,-4.721251,1,0.000000,0.000000,2.224282,0.042873,0.211225,-0.007437,1,9.064821,4.325063,-4.688053,0,1,4.716136,7.951687,5.777683,-4.704701,-0.952809,0.998844,0.001714,0.002524,0.227535,-0.006915,0.373003
14:28:40.469,4.450,89,8.023430,6.190245,-4.722863,1,0.000000,0.000000,2.226125,-0.003226,0.293221,-0.006491,1,9.064821,4.325063,-4.688053,0,1,4.671618,7.901594,5.826395,-4.704622,-0.963892,0.990929,0.001372,0.002459,0.228273,-0.006910,0.384140
14:28:40.519,4.500,90,7.976811,6.248973,-4.724491,1,0.000000,0.000000,2.212279,0.009131,0.247758,-0.029885,1,9.064821,4.325063,-4.688053,0,1,4.702603,7.852373,5.875750,-4.704080,-0.973817,0.984137,0.001464,0.002533,0.228489,-0.007160,0.393951
14:28:40.569,4.550,91,7.929753,6.307350,-4.726135,1,0.000000,0.000000,2.233441,0.016364,0.257592,-0.031171,1,9.064821,4.325063,-4.688053,0,1,4.749347,7.802172,5.924889,-4.704113,-0.984017,0.977236,0.000881,0.002685,0.228809,-0.007421,0.403780
14:28:40.619,4.600,92,7.882259,6.365372,-4.727793,1,0.000000,0.000000,2.242783,0.030461,0.237645,0.044355,1,9.064821,4.325063,-4.688053,0,1,4.722243,7.751996,5.974516,-4.703845,-0.993730,0.970973,0.001017,0.002987,0.228905,-0.006864,0.412687
14:28:40.669,4.650,93,7.834332,6.423036,-4.729467,1,0.000000,0.000000,2.235868,-0.016512,0.169445,-0.052202,1,9.064821,4.325063,-4.688053,0,1,4.778034,7.704740,6.023024,-4.725434,-1.000657,0.964267,-0.024032,0.002777,0.228266,-0.007440,0.420500
14:28:40.720,4.700,94,7.785973,6.480338,-4.731156,1,0.000000,0.000000,2.281890,-0.004936,0.207813,0.011762,1,9.064821,4.325063,-4.688053,0,1,4.753306,7.655447,6.071062,-4.726570,-1.008630,0.956977,-0.024231,0.002695,0.228048,-0.007238,0.429611
14:28:40.770,4.750,95,7.737187,6.537276,-4.732859,1,0.000000,0.000000,2.272879,-0.014498,0.257592,-0.009651,1,9.064821,4.325063,-4.688053,0,1,4.643125,7.603836,6.117523,-4.727801,-1.018111,0.948729,-0.024616,0.002514,0.228359,-0.007264,0.440456
14:28:40.820,4.800,96,7.687975,6.593847,-4.734578,1,0.000000,0.000000,2.307517,0.001227,0.195199,0.035192,1,9.064821,4.325063,-4.688053,0,1,4.645019,7.554170,6.165276,-4.704597,-1.025573,0.941609,0.002891,0.002501,0.228014,-0.006724,0.449973
14:28:40.870,4.850,97,7.638340,6.650046,-4.736311,1,0.000000,0.000000,2.282098,-0.026319,0.153090,-0.024161,1,9.064821,4.325063,-4.688053,0,1,4.761394,7.506499,6.212210,-4.704526,-1.031453,0.934477,0.002403,0.002204,0.227241,-0.006901,0.458359
14:28:40.920,4.900,98,7.588286,6.705872,-4.738059,1,0.000000,0.000000,2.284205,-0.067532,0.234551,-0.016358,1,9.064821,4.325063,-4.688053,0,1,4.755334,7.455641,6.255447,-4.704455,-1.039277,0.924775,0.001971,0.001492,0.227316,-0.006997,0.470751
14:28:40.970,4.950,99,7.537815,6.761320,-4.739821,1,0.000000,0.000000,2.318369,0.036777,0.200214,-0.036181,1,9.064821,4.325063,-4.688053,0,1,4.733271,7.404070,6.303645,-4.712820,-1.047342,0.918659,-0.008079,0.001849,0.227042,-0.007322,0.477580
14:28:41.020,5.000,100,7.486929,6.816388,-4.741598,1,0.000000,0.000000,2.312184,-0.026474,0.236585,0.007840,1,9.064821,4.325063,-4.688053,0,1,4.753764,7.351583,6.347852,-4.713177,-1.055638,0.909999,-0.008317,0.001565,0.227138,-0.007172,0.488520
14:28:41.070,5.050,101,7.435632,6.871072,-4.743390,1,0.000000,0.000000,2.287729,0.029921,0.244335,0.020297,1,7.440342,6.972222,-4.870490,1,1,4.710514,7.433616,6.944749,-4.719686,-1.001558,1.158752,-0.015608,0.001614,0.227102,-0.007197,0.077422
14:28:41.120,5.100,102,7.383927,6.925370,-4.745195,1,0.000000,0.000000,2.331278,0.004166,0.256459,-0.021096,1,7.440342,6.972222,-4.870490,0,1,4.726636,7.383244,7.002461,-4.722251,-1.010182,1.150793,-0.018041,0.001640,0.227393,-0.007340,0.080436
14:28:41.170,5.150,103,7.331816,6.979278,-4.747015,1,0.000000,0.000000,2.353424,-0.022568,0.234158,0.005021,1,7.440342,6.972222,-4.870490,0,1,4.769527,7.332550,7.059709,-4.723119,-1.018190,1.142510,-0.018307,0.001402,0.227459,-0.007220,0.083908
14:28:41.220,5.200,104,7.279302,7.032794,-4.748849,1,0.000000,0.000000,2.369640,0.027506,0.255796,-0.003552,1,7.440342,6.972222,-4.870490,0,1,4.734815,7.281276,7.116676,-4.724029,-1.026707,1.134481,-0.018636,0.001656,0.227734,-0.007185,0.087499
14:28:41.270,5.250,105,7.226389,7.085914,-4.750697,1,0.000000,0.000000,2.336807,-0.067498,0.232825,-0.018731,1,7.440342,6.972222,-4.870490,0,1,4.836957,7.229880,7.172884,-4.756771,-1.034458,1.125797,-0.055246,0.000991,0.227783,-0.007418,0.087251
14:28:41.321,5.300,106,7.173079,7.138636,-4.752558,1,0.000000,0.000000,2.366421,-0.034883,0.228369,0.023135,1,7.440342,6.972222,-4.870490,0,1,4.824008,7.178056,7.228790,-4.759438,-1.042165,1.117264,-0.055372,0.000650,0.227788,-0.007131,0.090553
14:28:41.371,5.350,107,7.119376,7.190956,-4.754434,1,0.000000,0.000000,2.359326,0.034511,0.222688,0.003193,1,7.440342,6.972222,-4.870490,0,1,4.710199,7.125665,7.284656,-4.762176,-1.050452,1.109664,-0.055642,0.000969,0.227740,-0.007035,0.094230
14:28:41.421,5.400,108,7.065282,7.242872,-4.756323,1,0.000000,0.000000,2.372923,-0.035094,0.232136,0.009678,1,7.440342,6.972222,-4.870490,0,1,4.728962,7.073048,7.339700,-4.754633,-1.058131,1.101027,-0.044153,0.000632,0.227781,-0.006842,0.097154
14:28:41.471,5.450,109,7.010800,7.294380,-4.758225,1,0.000000,0.000000,2.369672,0.017570,0.222112,0.047156,1,7.440342,6.972222,-4.870490,0,1,4.760426,7.019911,7.394684,-4.756669,-1.066184,1.093153,-0.044073,0.000789,0.227729,-0.006348,0.100729
14:28:41.521,5.500,110,6.955934,7.345478,-4.760141,1,0.000000,0.000000,2.383371,-0.038889,0.191717,-0.008724,1,7.440342,6.972222,-4.870490,0,1,4.810944,6.966845,7.449010,-4.758889,-1.073205,1.084751,-0.044410,0.000425,0.227399,-0.006369,0.104113
14:28:41.571,5.550,111,6.900686,7.396163,-4.762070,1,0.000000,0.000000,2.402516,-0.018113,0.205316,-0.109097,1,7.440342,6.972222,-4.870490,0,1,4.767191,6.913257,7.503003,-4.763161,-1.080412,1.076338,-0.047456,0.000256,0.227198,-0.007298,0.107583
14:28:41.621,5.600,112,6.845060,7.446431,-4.764013,1,0.000000,0.000000,2.395255,-0.025582,0.166208,0.031171,1,7.440342,6.972222,-4.870490,0,1,4.700840,6.859694,7.556723,-4.765417,-1.087075,1.068279,-0.047528,0.000024,0.226649,-0.006956,0.111267
14:28:41.671,5.650,113,6.789058,7.496281,-4.765969,1,0.000000,0.000000,2.427850,0.024769,0.215630,-0.002471,1,7.440342,6.972222,-4.870490,0,1,4.715819,6.805109,7.610209,-4.767786,-1.094602,1.060156,-0.047840,0.000245,0.226551,-0.006916,0.115068
14:28:41.721,5.700,114,6.732685,7.545709,-4.767937,1,0.000000,0.000000,2.403698,0.018408,0.228235,0.010985,1,7.440342,6.972222,-4.870490,0,1,4.759952,6.750057,7.663171,-4.767189,-1.102445,1.052010,-0.044708,0.000405,0.226565,-0.006749,0.118742
14:28:41.771,5.750,115,6.675943,7.594713,-4.769919,1,0.000000,0.000000,2.419778,0.035954,0.211040,-0.057038,1,7.440342,6.972222,-4.870490,0,1,4.624412,6.694664,7.716025,-4.769593,-1.110116,1.044172,-0.045418,0.000717,0.226429,-0.007185,0.122749
14:28:41.821,5.800,116,6.618835,7.643289,-4.771913,1,0.000000,0.000000,2.433837,-0.006130,0.233899,0.006896,1,7.440342,6.972222,-4.870490,0,1,4.749061,6.638943,7.767891,-4.771823,-1.117532,1.035417,-0.045668,0.000657,0.226494,-0.007064,0.126214
14:28:41.871,5.850,117,6.561364,7.691436,-4.773920,1,0.000000,0.000000,2.435550,-0.025653,0.258483,-0.018758,1,7.440342,6.972222,-4.870490,0,1,4.746435,6.582723,7.818901,-4.766160,-1.125056,1.026094,-0.037030,0.000431,0.226770,-0.007136,0.129475
14:28:41.921,5.900,118,6.503535,7.739150,-4.775939,1,0.000000,0.000000,2.480612,0.043974,0.248327,0.012139,1,7.440342,6.972222,-4.870490,0,1,4.760767,6.525679,7.870324,-4.767961,-1.132837,1.017525,-0.037247,0.000803,0.226954,-0.006973,0.133269
14:28:41.971,5.950,119,6.445349,7.786428,-4.777971,1,0.000000,0.000000,2.439591,0.006643,0.202501,-0.004733,1,7.440342,6.972222,-4.870490,0,1,4.647801,6.469109,7.921272,-4.769824,-1.139915,1.009255,-0.037579,0.000852,0.226747,-0.006954,0.137163
14:28:42.021,6.000,120,6.386810,7.833269,-4.780015,1,0.000000,0.000000,2.436239,0.016669,0.225248,0.029995,1,7.440342,6.972222,-4.870490,0,1,4.864055,6.411802,7.971742,-4.798288,-1.147464,1.000897,-0.067942,0.000985,0.226734,-0.006738,0.141891
14:28:42.071,6.050,121,6.327923,7.879669,-4.782072,1,0.000000,0.000000,2.489029,-0.017126,0.260739,-0.025675,1,7.440342,6.972222,-4.870490,0,1,4.783463,6.353964,8.020979,-4.801751,-1.154662,0.991243,-0.068413,0.000834,0.227018,-0.006893,0.145031
14:28:42.122,6.100,122,6.268689,7.925626,-4.784140,1,0.000000,0.000000,2.489137,0.033229,0.234686,-0.012107,1,7.440342,6.972222,-4.870490,0,1,4.805189,6.295613,8.070704,-4.805198,-1.162100,0.982630,-0.068796,0.001102,0.227081,-0.006936,0.149050
14:28:42.172,6.150,123,6.209112,7.971137,-4.786221,1,0.000000,0.000000,2.486718,-0.006853,0.198005,-0.047947,1,7.440342,6.972222,-4.870490,0,1,4.772578,6.237857,8.119807,-4.798329,-1.168528,0.973906,-0.057594,0.001037,0.226843,-0.007233,0.151907
14:28:42.222,6.200,124,6.149195,8.016199,-4.788313,1,0.000000,0.000000,2.458592,0.022352,0.217777,0.015302,1,7.440342,6.972222,-4.870490,0,1,4.841912,6.179149,8.168720,-4.801152,-1.175864,0.965576,-0.057801,0.001210,0.226769,-0.007053,0.155963
14:28:42.272,6.250,125,6.088943,8.060811,-4.790417,1,0.000000,0.000000,2.529472,0.048727,0.174776,-0.040171,1,7.440342,6.972222,-4.870490,0,1,4.827573,6.120468,8.218161,-4.804159,-1.182265,0.957724,-0.058393,0.001593,0.226350,-0.007316,0.161064
14:28:42.322,6.300,126,6.028358,8.104969,-4.792533,1,0.000000,0.000000,2.529627,-0.019424,0.216287,-0.002590,1,7.440342,6.972222,-4.870490,0,1,4.830241,6.061624,8.265588,-4.813769,-1.188400,0.948321,-0.066310,0.001425,0.226269,-0.007300,0.165397
14:28:42.372,6.350,127,5.967444,8.148672,-4.794660,1,0.000000,0.000000,2.534069,0.008879,0.237810,-0.010612,1,7.440342,6.972222,-4.870490,0,1,4.666424,6.001741,8.312753,-4.817103,-1.195194,0.939031,-0.066697,0.001484,0.226361,-0.007326,0.169123
14:28:42.422,6.400,128,5.906204,8.191916,-4.796799,1,0.000000,0.000000,2.519567,0.016024,0.205115,-0.028479,1,7.440342,6.972222,-4.870490,0,1,4.800559,5.942002,8.360029,-4.820515,-1.201721,0.930390,-0.067213,0.001598,0.226194,-0.007491,0.173511
14:28:42.472,6.450,129,5.844641,8.234699,-4.798948,1,0.000000,0.000000,2.522590,-0.015857,0.247386,0.025199,1,7.440342,6.972222,-4.870490,0,1,4.765276,5.881601,8.405690,-4.806859,-1.208434,0.920660,-0.048199,0.001462,0.226359,-0.007186,0.175119
14:28:42.522,6.500,130,5.782760,8.277019,-4.801109,1,0.000000,0.000000,2.558719,0.000454,0.266248,0.000080,1,7.440342,6.972222,-4.870490,0,1,4.763399,5.820264,8.450877,-4.809257,-1.215332,0.910673,-0.048511,0.001454,0.226668,-0.007130,0.178044
14:28:42.572,6.550,131,5.720563,8.318873,-4.803281,1,0.000000,0.000000,2.535208,0.000713,0.192722,-0.018396,1,7.440342,6.972222,-4.870490,0,1,4.857784,5.760025,8.496688,-4.811727,-1.221308,0.901876,-0.048945,0.001449,0.226407,-0.007216,0.182337
14:28:42.622,6.600,132,5.658054,8.360260,-4.805464,1,0.000000,0.000000,2.544301,-0.009094,0.270994,-0.013773,1,7.440342,6.972222,-4.870490,0,1,4.824719,5.698048,8.540617,-4.817245,-1.228285,0.891742,-0.052793,0.001368,0.226748,-0.007274,0.185113
14:28:42.672,6.650,133,5.595236,8.401176,-4.807658,1,0.000000,0.000000,2.547085,-0.026836,0.197824,-0.024892,1,7.440342,6.972222,-4.870490,0,1,4.778521,5.637558,8.584851,-4.819942,-1.233817,0.882367,-0.053270,0.001155,0.226529,-0.007406,0.188888
14:28:42.722,6.700,134,5.532114,8.441620,-4.809862,1,0.000000,0.000000,2.588965,-0.002630,0.230069,-0.036118,1,7.440342,6.972222,-4.870490,0,1,4.797584,5.575705,8.628585,-4.822703,-1.239811,0.872643,-0.053834,0.001126,0.226555,-0.007619,0.192409
14:28:42.772,6.750,135,5.468690,8.481588,-4.812077,1,0.000000,0.000000,2.608204,-0.011562,0.285912,-0.005790,1,7.440342,6.972222,-4.870490,0,1,4.799851,5.512458,8.670628,-4.818013,-1.246378,0.861815,-0.045843,0.001031,0.226998,-0.007584,0.194131
14:28:42.822,6.800,136,5.404969,8.521080,-4.814302,1,0.000000,0.000000,2.596961,-0.037134,0.214519,0.003623,1,7.440342,6.972222,-4.870490,0,1,4.724212,5.450986,8.712823,-4.820284,-1.251516,0.851711,-0.046152,0.000749,0.226906,-0.007502,0.197279
14:28:42.872,6.850,137,5.340953,8.560093,-4.816538,1,0.000000,0.000000,2.623784,0.010641,0.215787,0.026703,1,7.440342,6.972222,-4.870490,0,1,4.813793,5.388344,8.755611,-4.822499,-1.257139,0.842205,-0.046301,0.000822,0.226824,-0.007254,0.201268
14:28:42.923,6.900,138,5.276647,8.598624,-4.818783,1,0.000000,0.000000,2.560940,0.050521,0.228345,-0.005177,1,7.440342,6.972222,-4.870490,0,1,4.836122,5.324311,8.798669,-4.828084,-1.264202,0.833528,-0.050349,0.001184,0.226835,-0.007248,0.205856
14:28:42.973,6.950,139,5.212054,8.636671,-4.821039,1,0.000000,0.000000,2.607724,-0.047440,0.247266,0.015105,1,7.440342,6.972222,-4.870490,0,1,4.765465,5.261436,8.838466,-4.830552,-1.269582,0.822676,-0.050574,0.000832,0.226983,-0.007088,0.207968
14:28:43.023,7.000,140,5.147177,8.674232,-4.823304,1,0.000000,0.000000,2.576938,-0.028143,0.270014,0.028906,1,7.440342,6.972222,-4.870490,0,1,4.740370,5.197309,8.877710,-4.832985,-1.275928,0.811941,-0.050696,0.000624,0.227292,-0.006833,0.209786
14:28:43.073,7.050,141,5.082021,8.711306,-4.825580,1,0.000000,0.000000,2.620132,-0.046567,0.191675,0.035395,1,5.114197,8.737398,-4.886720,1,1,4.756109,5.117373,8.767323,-4.814880,-1.286924,0.751966,-0.027665,0.000595,0.227322,-0.006773,0.067098
14:28:43.123,7.100,142,5.016588,8.747889,-4.827865,1,0.000000,0.000000,2.614051,-0.044474,0.218018,-0.040541,1,5.114197,8.737398,-4.886720,0,1,4.843529,5.053114,8.804497,-4.816356,-1.292107,0.741839,-0.028205,0.000273,0.227256,-0.007011,0.068344
14:28:43.173,7.150,143,4.950883,8.783981,-4.830159,1,0.000000,0.000000,2.621008,0.023606,0.225966,0.001710,1,5.114197,8.737398,-4.886720,0,1,4.846496,4.988266,8.841471,-4.817751,-1.298011,0.732222,-0.028501,0.000438,0.227246,-0.006950,0.069689
14:28:43.223,7.200,144,4.884910,8.819578,-4.832463,1,0.000000,0.000000,2.636938,0.000147,0.267863,0.008721,1,5.114197,8.737398,-4.886720,0,1,4.851111,4.922998,8.877623,-4.828177,-1.303908,0.721834,-0.039027,0.000436,0.227532,-0.006867,0.069558
14:28:43.273,7.250,145,4.818672,8.854679,-4.834776,1,0.000000,0.000000,2.675173,0.031587,0.257528,0.018964,1,5.114197,8.737398,-4.886720,0,1,4.828250,4.857314,8.913482,-4.830073,-1.309684,0.711643,-0.039218,0.000654,0.227742,-0.006689,0.070520
14:28:43.323,7.300,146,4.752172,8.889282,-4.837098,1,0.000000,0.000000,2.669743,-0.032608,0.262098,-0.002783,1,5.114197,8.737398,-4.886720,0,1,4.824818,4.791680,8.948380,-4.832031,-1.314839,0.700796,-0.039528,0.000423,0.227980,-0.006662,0.071267
14:28:43.373,7.350,147,4.685415,8.923386,-4.839429,1,0.000000,0.000000,2.675406,0.001917,0.236256,-0.002195,1,5.114197,8.737398,-4.886720,0,1,4.886722,4.725741,8.983120,-4.849023,-1.320081,0.690540,-0.056939,0.000434,0.228037,-0.006674,0.072708
14:28:43.423,7.400,148,4.618404,8.956987,-4.841770,1,0.000000,0.000000,2.695408,-0.018493,0.197486,-0.040899,1,5.114197,8.737398,-4.886720,0,1,4.816154,4.659979,9.017472,-4.851963,-1.324491,0.680443,-0.057471,0.000304,0.227828,-0.006905,0.074100
14:28:43.473,7.450,149,4.551143,8.990084,-4.844118,1,0.000000,0.000000,2.679236,-0.006969,0.274177,0.035757,1,5.114197,8.737398,-4.886720,0,1,4.809973,4.593318,9.050819,-4.854728,-1.329959,0.669616,-0.057557,0.000255,0.228143,-0.006618,0.074699
14:28:43.523,7.500,150,4.483636,9.022676,-4.846476,1,0.000000,0.000000,2.697539,-0.047260,0.204271,0.006926,1,5.114197,8.737398,-4.886720,0,1,4.875854,4.527295,9.083846,-4.862811,-1.334040,0.659140,-0.063765,-0.000066,0.227982,-0.006542,0.076907
14:28:43.573,7.550,151,4.415887,9.054760,-4.848842,1,0.000000,0.000000,2.689431,0.036747,0.172256,-0.029215,1,5.114197,8.737398,-4.886720,0,1,4.839440,4.460628,9.117370,-4.866062,-1.338920,0.649963,-0.064221,0.000181,0.227608,-0.006693,0.078856
14:28:43.623,7.600,152,4.347899,9.086335,-4.851216,1,0.000000,0.000000,2.687203,-0.006741,0.207958,0.004915,1,5.114197,8.737398,-4.886720,0,1,4.837376,4.393805,9.149736,-4.869250,-1.343633,0.639924,-0.064486,0.000135,0.227477,-0.006616,0.080326
14:28:43.674,7.650,153,4.279676,9.117399,-4.853598,1,0.000000,0.000000,2.722480,-0.002702,0.177642,-0.007780,1,5.114197,8.737398,-4.886720,0,1,4.832245,4.327019,9.181949,-4.860913,-1.347719,0.630160,-0.051660,0.000116,0.227148,-0.006593,0.080384
14:28:43.724,7.700,154,4.211222,9.147950,-4.855989,1,0.000000,0.000000,2.736493,0.020108,0.255890,0.033796,1,5.114197,8.737398,-4.886720,0,1,4.835451,4.259015,9.213091,-4.863407,-1.352764,0.619549,-0.051765,0.000247,0.227337,-0.006331,0.081133
14:28:43.774,7.750,155,4.142542,9.177986,-4.858387,1,0.000000,0.000000,2.768451,-0.032633,0.192152,0.012356,1,5.114197,8.737398,-4.886720,0,1,4.789014,4.192017,9.243854,-4.865954,-1.356109,0.609103,-0.051972,0.000033,0.227107,-0.006211,0.082727
14:28:43.824,7.800,156,4.073638,9.207506,-4.860793,1,0.000000,0.000000,2.702408,0.005556,0.211409,0.011404,1,5.114197,8.737398,-4.886720,0,1,4.924859,4.124199,9.274300,-4.884755,-1.360850,0.599099,-0.070629,0.000069,0.227005,-0.006140,0.087132
14:28:43.874,7.850,157,4.004514,9.236508,-4.863207,1,0.000000,0.000000,2.763880,0.047374,0.205085,0.032069,1,5.114197,8.737398,-4.886720,0,1,4.895243,4.055710,9.304809,-4.888204,-1.365469,0.589353,-0.070727,0.000373,0.226864,-0.005897,0.088944
14:28:43.924,7.900,158,3.935176,9.264991,-4.865628,1,0.000000,0.000000,2.753090,0.020996,0.272225,-0.004535,1,5.114197,8.737398,-4.886720,0,1,4.936527,3.986516,9.333664,-4.891745,-1.370553,0.578438,-0.071014,0.000505,0.227154,-0.005889,0.089633
14:28:43.974,7.950,159,3.865625,9.292952,-4.868057,1,0.000000,0.000000,2.764228,0.025845,0.166371,-0.002261,1,5.114197,8.737398,-4.886720,0,1,4.891420,3.918288,9.363474,-4.894174,-1.374481,0.569030,-0.070018,0.000667,0.226768,-0.005863,0.091808
14:28:44.024,8.000,160,3.795868,9.320391,-4.870493,1,0.000000,0.000000,2.751639,0.004996,0.224680,-0.023522,1,5.114197,8.737398,-4.886720,0,1,4.869635,3.849419,9.391749,-4.897723,-1.378863,0.558632,-0.070406,0.000694,0.226754,-0.005973,0.093281
14:28:44.074,8.050,161,3.725906,9.347305,-4.872936,1,0.000000,0.000000,2.750566,0.056453,0.219088,-0.042501,1,5.114197,8.737398,-4.886720,0,1,4.945991,3.779630,9.420276,-4.901344,-1.383956,0.548874,-0.070910,0.001044,0.226706,-0.006200,0.094963
14:28:44.124,8.100,162,3.655745,9.373694,-4.875386,1,0.000000,0.000000,2.773569,0.007145,0.218312,-0.013899,1,5.114197,8.737398,-4.886720,0,1,4.993671,3.710349,9.447671,-4.930562,-1.388084,0.538507,-0.100328,0.001082,0.226654,-0.006311,0.107231
14:28:44.174,8.150,163,3.585388,9.399555,-4.877843,1,0.000000,0.000000,2.784826,-0.022912,0.198181,0.020021,1,5.114197,8.737398,-4.886720,0,1,4.903572,3.641641,9.474456,-4.935527,-1.391422,0.528079,-0.100505,0.000933,0.226477,-0.006150,0.110009
14:28:44.224,8.200,164,3.514839,9.424888,-4.880307,1,0.000000,0.000000,2.772735,0.003720,0.263972,0.027022,1,5.114197,8.737398,-4.886720,0,1,4.829253,3.571370,9.500000,-4.940476,-1.395998,0.516989,-0.100629,0.000951,0.226708,-0.005948,0.111615
14:28:44.274,8.250,165,3.444102,9.449691,-4.882777,1,0.000000,0.000000,2.806430,-0.031269,0.205804,0.032925,1,5.114197,8.737398,-4.886720,0,1,4.930635,3.502361,9.525465,-4.941138,-1.399043,0.506274,-0.095866,0.000753,0.226580,-0.005703,0.111990
14:28:44.324,8.300,166,3.373181,9.473962,-4.885254,1,0.000000,0.000000,2.821923,-0.037384,0.210111,0.038972,1,5.114197,8.737398,-4.886720,0,1,4.861686,3.433275,9.550219,-4.945840,-1.401859,0.495374,-0.095921,0.000521,0.226480,-0.005434,0.114442
14:28:44.375,8.350,167,3.302080,9.497700,-4.887737,1,0.000000,0.000000,2.808773,0.061208,0.213214,-0.003606,1,5.114197,8.737398,-4.886720,0,1,4.911467,3.362146,9.575944,-4.950638,-1.406405,0.485555,-0.096182,0.000888,0.226400,-0.005423,0.116990
14:28:44.425,8.400,168,3.230804,9.520903,-4.890226,1,0.000000,0.000000,2.838426,-0.030698,0.214455,0.002077,1,5.114197,8.737398,-4.886720,0,1,4.979759,3.292560,9.599667,-4.962464,-1.409186,0.474611,-0.104371,0.000698,0.226328,-0.005396,0.123434
14:28:44.475,8.450,169,3.159355,9.543572,-4.892721,1,0.000000,0.000000,2.794326,0.048612,0.177145,0.017765,1,5.114197,8.737398,-4.886720,0,1,4.893229,3.221857,9.624945,-4.967639,-1.413310,0.465311,-0.104523,0.000985,0.226034,-0.005259,0.127047
14:28:44.525,8.500,170,3.087739,9.565703,-4.895222,1,0.000000,0.000000,2.825333,0.034979,0.240084,0.033620,1,5.114197,8.737398,-4.886720,0,1,4.853515,3.150142,9.648236,-4.972778,-1.417588,0.454728,-0.104579,0.001187,0.226117,-0.005031,0.129309
14:28:44.575,8.550,171,3.015958,9.587297,-4.897728,1,0.000000,0.000000,2.838849,-0.005063,0.224974,0.100297,1,5.114197,8.737398,-4.886720,0,1,4.834073,3.079333,9.670617,-4.936210,-1.420898,0.443904,-0.057249,0.001150,0.226111,-0.004318,0.111532
14:28:44.625,8.600,172,2.944018,9.608351,-4.900240,1,0.000000,0.000000,2.855006,-0.009447,0.201841,-0.019188,1,5.114197,8.737398,-4.886720,0,1,4.926425,3.008888,9.692894,-4.939109,-1.423702,0.433368,-0.057539,0.001088,0.225968,-0.004404,0.113431
14:28:44.675,8.650,173,2.871922,9.628864,-4.902758,1,0.000000,0.000000,2.861640,-0.032812,0.257133,-0.047274,1,5.114197,8.737398,-4.886720,0,1,4.810891,2.937828,9.712934,-4.942093,-1.426644,0.421617,-0.057983,0.000890,0.226150,-0.004651,0.113836
14:28:44.725,8.700,174,2.799674,9.648836,-4.905281,1,0.000000,0.000000,2.868386,-0.081176,0.215849,-0.008049,1,5.114197,8.737398,-4.886720,0,1,4.924613,2.868580,9.732419,-4.939113,-1.428210,0.410008,-0.051564,0.000413,0.226090,-0.004657,0.113485
14:28:44.775,8.750,175,2.727279,9.668266,-4.907809,1,0.000000,0.000000,2.857582,-0.018323,0.257028,-0.019151,1,5.114197,8.737398,-4.886720,0,1,4.893692,2.796946,9.751519,-4.941728,-1.431416,0.398415,-0.051868,0.000305,0.226269,-0.004740,0.113733
14:28:44.825,8.800,176,2.654740,9.687151,-4.910342,1,0.000000,0.000000,2.882674,0.075838,0.239360,-0.004028,1,5.114197,8.737398,-4.886720,0,1,5.034205,2.723123,9.772346,-4.944325,-1.435800,0.388093,-0.052102,0.000739,0.226344,-0.004736,0.114408
14:28:44.875,8.850,177,2.582062,9.705492,-4.912880,1,0.000000,0.000000,2.899867,-0.037937,0.227728,-0.021112,1,5.114197,8.737398,-4.886720,0,1,4.880209,2.652246,9.790649,-4.927682,-1.437874,0.376659,-0.030591,0.000518,0.226352,-0.004784,0.111341
14:28:44.925,8.900,178,2.509248,9.723286,-4.915423,1,0.000000,0.000000,2.910618,0.017296,0.179082,-0.015454,1,5.114197,8.737398,-4.886720,0,1,4.871446,2.580824,9.810827,-4.929240,-1.440265,0.366682,-0.030881,0.000613,0.226084,-0.004843,0.113919
14:28:44.975,8.950,179,2.436303,9.740534,-4.917970,1,0.000000,0.000000,2.909996,-0.019896,0.246864,-0.008884,1,5.114197,8.737398,-4.886720,0,1,4.980262,2.508868,9.827875,-4.930799,-1.442749,0.355082,-0.031144,0.000497,0.226201,-0.004866,0.114275
14:28:45.025,9.000,180,2.363230,9.757234,-4.920522,1,0.000000,0.000000,2.909041,0.005614,0.225074,-0.007330,1,5.114197,8.737398,-4.886720,0,1,4.868327,2.436545,9.845497,-4.913862,-1.445461,0.344160,-0.010457,0.000526,0.226194,-0.004838,0.114934
14:28:45.076,9.050,181,2.290035,9.773385,-4.923078,1,0.000000,0.000000,2.937988,0.025468,0.240862,-0.060517,1,2.450002,9.753748,-4.831398,1,1,5.064364,2.430043,9.779032,-4.911509,-1.427202,0.307060,-0.007416,0.000480,0.226206,-0.004831,0.140599
14:28:45.126,9.100,182,2.216720,9.788986,-4.925638,1,0.000000,0.000000,2.943846,0.022920,0.270223,0.014495,1,2.450002,9.753748,-4.831398,0,1,5.060184,2.358222,9.793906,-4.911843,-1.429970,0.295590,-0.007562,0.000605,0.226451,-0.004725,0.142258
14:28:45.176,9.150,183,2.143291,9.804036,-4.928202,1,0.000000,0.000000,2.915035,0.028935,0.235281,0.010423,1,2.450002,9.753748,-4.831398,0,1,4.948619,2.286384,9.808503,-4.922458,-1.432933,0.284626,-0.019380,0.000762,0.226500,-0.004665,0.143279
14:28:45.226,9.200,184,2.069751,9.818535,-4.930770,1,0.000000,0.000000,2.945331,0.008407,0.232175,-0.031864,1,2.450002,9.753748,-4.831398,0,1,4.887186,2.214583,9.822454,-4.923486,-1.435305,0.273502,-0.019739,0.000804,0.226531,-0.004813,0.145068
14:28:45.276,9.250,185,1.996104,9.832482,-4.933342,1,0.000000,0.000000,2.934446,-0.072876,0.206568,0.036767,1,2.450002,9.753748,-4.831398,0,1,4.923175,2.143548,9.835572,-4.924388,-1.436646,0.262234,-0.019777,0.000400,0.226422,-0.004588,0.147748
14:28:45.326,9.300,186,1.922355,9.845876,-4.935918,1,0.000000,0.000000,2.945415,0.033474,0.296380,-0.004708,1,2.450002,9.753748,-4.831398,0,1,5.027352,2.070887,9.847950,-4.954364,-1.439704,0.250454,-0.052996,0.000581,0.226803,-0.004652,0.149688
14:28:45.376,9.350,187,1.848507,9.858716,-4.938496,1,0.000000,0.000000,2.961582,-0.020651,0.262634,0.018460,1,2.450002,9.753748,-4.831398,0,1,5.003000,1.998824,9.859686,-4.956974,-1.441707,0.238718,-0.053122,0.000466,0.226997,-0.004529,0.151452
14:28:45.426,9.400,188,1.774565,9.871001,-4.941079,1,0.000000,0.000000,2.998405,0.031808,0.275550,-0.029833,1,2.450002,9.753748,-4.831398,0,1,4.812227,1.926019,9.871039,-4.959691,-1.444046,0.227047,-0.053471,0.000634,0.227259,-0.004663,0.152593
14:28:45.476,9.450,189,1.700534,9.882731,-4.943664,1,0.000000,0.000000,2.962765,-0.009068,0.184468,-0.035047,1,2.450002,9.753748,-4.831398,0,1,4.901214,1.854188,9.882527,-4.944932,-1.445714,0.216375,-0.033919,0.000582,0.227030,-0.004786,0.153659
14:28:45.526,9.500,190,1.626416,9.893905,-4.946252,1,0.000000,0.000000,2.968554,0.025520,0.248148,0.022171,1,2.450002,9.753748,-4.831398,0,1,4.901654,1.781395,9.893002,-4.946582,-1.448157,0.205067,-0.034037,0.000715,0.227142,-0.004644,0.154982
14:28:45.576,9.550,191,1.552217,9.904523,-4.948843,1,0.000000,0.000000,2.990099,0.018052,0.219829,0.027528,1,2.450002,9.753748,-4.831398,0,1,4.930403,1.708783,9.903203,-4.948221,-1.450096,0.194048,-0.034116,0.000807,0.227103,-0.004476,0.156573
14:28:45.626,9.600,192,1.477940,9.914583,-4.951437,1,0.000000,0.000000,3.016266,-0.035894,0.217841,-0.004123,1,2.450002,9.753748,-4.831398,0,1,4.964867,1.636799,9.912449,-4.954221,-1.450997,0.182693,-0.039218,0.000614,0.227054,-0.004483,0.158898
14:28:45.676,9.650,193,1.403590,9.924086,-4.954033,1,0.000000,0.000000,3.018801,0.003197,0.253780,0.044542,1,2.450002,9.753748,-4.831398,0,1,4.930035,1.563956,9.920955,-4.956094,-1.452615,0.171074,-0.039224,0.000627,0.227195,-0.004229,0.160410
14:28:45.726,9.700,194,1.329171,9.933031,-4.956632,1,0.000000,0.000000,3.026252,-0.034776,0.199955,0.005237,1,2.450002,9.753748,-4.831398,0,1,4.952658,1.492036,9.929315,-4.958041,-1.453290,0.159964,-0.039391,0.000442,0.227053,-0.004180,0.162914
14:28:45.777,9.750,195,1.254687,9.941417,-4.959233,1,0.000000,0.000000,3.053201,-0.013500,0.229870,0.019272,1,2.450002,9.753748,-4.831398,0,1,4.958696,1.419531,9.936865,-4.959596,-1.454132,0.148533,-0.039071,0.000370,0.227067,-0.004059,0.164907
14:28:45.827,9.800,196,1.180142,9.949243,-4.961836,1,0.000000,0.000000,3.025256,-0.004896,0.206264,0.042773,1,2.450002,9.753748,-4.831398,0,1,4.901062,1.347063,9.944288,-4.961467,-1.455267,0.137528,-0.039069,0.000343,0.226960,-0.003820,0.166995
14:28:45.877,9.850,197,1.105540,9.956511,-4.964441,1,0.000000,0.000000,3.049588,-0.023403,0.222185,0.009782,1,2.450002,9.753748,-4.831398,0,1,4.917096,1.274705,9.950738,-4.963396,-1.455951,0.126156,-0.039197,0.000221,0.226935,-0.003751,0.169267
14:28:45.927,9.900,198,1.030887,9.963218,-4.967048,1,0.000000,0.000000,3.046718,0.014042,0.215335,0.009357,1,2.450002,9.753748,-4.831398,0,1,4.957071,1.201757,9.957093,-4.962947,-1.457172,0.115116,-0.036617,0.000292,0.226876,-0.003680,0.171030
14:28:45.977,9.950,199,0.956185,9.969364,-4.969657,1,0.000000,0.000000,3.052326,-0.023150,0.217268,0.003570,1,2.450002,9.753748,-4.831398,0,1,5.006509,1.129381,9.962505,-4.964769,-1.457789,0.103823,-0.036769,0.000172,0.226827,-0.003643,0.173401
14:28:46.027,10.000,200,0.881439,9.974950,-4.972267,1,0.000000,0.000000,3.046827,0.029596,0.248814,0.057650,1,2.450002,9.753748,-4.831398,0,1,4.980674,1.055704,9.967309,-4.966486,-1.459448,0.092376,-0.036673,0.000321,0.226938,-0.003337,0.174529
14:28:46.077,10.050,201,0.806653,9.979975,-4.974879,1,0.000000,0.000000,3.043761,0.016928,0.181532,-0.014072,1,2.450002,9.753748,-4.831398,0,1,4.903500,0.982859,9.972679,-4.949618,-1.460556,0.081881,-0.015661,0.000405,0.226710,-0.003352,0.178157
14:28:46.127,10.100,202,0.731832,9.984438,-4.977492,1,0.000000,0.000000,3.107151,-0.058688,0.214523,0.017795,1,2.450002,9.753748,-4.831398,0,1,4.919185,0.911111,9.976103,-4.950367,-1.459977,0.070389,-0.015739,0.000109,0.226649,-0.003248,0.181511
14:28:46.177,10.150,203,0.656979,9.988340,-4.980106,1,0.000000,0.000000,3.084044,-0.027822,0.259910,-0.030783,1,2.450002,9.753748,-4.831398,0,1,4.957793,0.838302,9.978360,-4.951214,-1.460394,0.058388,-0.016025,-0.000030,0.226814,-0.003383,0.183882
14:28:46.227,10.200,204,0.582099,9.991679,-4.982720,1,0.000000,0.000000,3.076764,0.036009,0.253092,0.004800,1,2.450002,9.753748,-4.831398,0,1,4.967962,0.764216,9.980844,-4.956613,-1.461854,0.046868,-0.021379,0.000148,0.226945,-0.003352,0.184297
14:28:46.277,10.250,205,0.507196,9.994457,-4.985336,1,0.000000,0.000000,3.114932,-0.006048,0.244555,-0.014729,1,2.450002,9.753748,-4.831398,0,1,5.047949,0.691050,9.982452,-4.957707,-1.462169,0.035206,-0.021594,0.000118,0.227032,-0.003408,0.186306
14:28:46.327,10.300,206,0.432275,9.996673,-4.987952,1,0.000000,0.000000,3.133257,0.031329,0.244828,-0.011080,1,2.450002,9.753748,-4.831398,0,1,5.007108,0.617034,9.983890,-4.958806,-1.462880,0.023751,-0.021798,0.000271,0.227119,-0.003445,0.187481
14:28:46.377,10.350,207,0.357339,9.998326,-4.990569,1,0.000000,0.000000,3.152705,-0.005868,0.262053,0.020985,1,2.450002,9.753748,-4.831398,0,1,4.965023,0.543623,9.983915,-4.961342,-1.462871,0.011788,-0.023551,0.000241,0.227290,-0.003330,0.189113
14:28:46.427,10.400,208,0.282393,9.999417,-4.993186,1,0.000000,0.000000,3.138489,0.027047,0.192856,-0.027783,1,2.450002,9.753748,-4.831398,0,1,4.945292,0.470254,9.985362,-4.962567,-1.463161,0.001149,-0.023818,0.000371,0.227122,-0.003447,0.190859
14:28:46.478,10.450,209,0.207441,9.999946,-4.995804,1,0.000000,0.000000,3.104921,-0.026033,0.235632,-0.023565,1,2.450002,9.753748,-4.831398,0,1,5.010312,0.397629,9.984604,-4.963802,-1.463204,-0.010494,-0.024078,0.000244,0.227163,-0.003544,0.193471
14:28:46.528,10.500,210,0.132486,9.999912,-4.998421,1,0.000000,0.000000,3.115574,-0.016680,0.283295,0.007827,1,2.450002,9.753748,-4.831398,0,1,5.002592,0.324186,9.982167,-4.975853,-1.463552,-0.022892,-0.036502,0.000162,0.227434,-0.003511,0.193838
14:28:46.578,10.550,211,0.057535,9.999315,-5.001039,1,0.000000,0.000000,3.148774,-0.003288,0.207928,-0.019259,1,2.450002,9.753748,-4.831398,0,1,4.909189,0.251348,9.981200,-4.977710,-1.463307,-0.033951,-0.036741,0.000146,0.227340,-0.003585,0.196051
14:28:46.628,10.600,212,-0.017410,9.998156,-5.003656,1,0.000000,0.000000,3.174397,0.013510,0.181544,-0.016953,1,2.450002,9.753748,-4.831398,0,1,5.054997,0.178428,9.980614,-4.979578,-1.462909,-0.044450,-0.036978,0.000209,0.227122,-0.003648,0.198092
14:28:46.678,10.650,213,-0.092345,9.996435,-5.006272,1,0.000000,0.000000,3.157199,0.022737,0.244820,0.012655,1,2.450002,9.753748,-4.831398,0,1,4.932529,0.104436,9.977919,-4.967275,-1.463233,-0.055983,-0.021109,0.000316,0.227206,-0.003545,0.201461
14:28:46.728,10.700,214,-0.167264,9.994151,-5.008889,1,0.000000,0.000000,3.128154,-0.026048,0.199039,0.037734,1,2.450002,9.753748,-4.831398,0,1,4.977816,0.032390,9.975276,-4.968264,-1.462781,-0.067000,-0.021121,0.000192,0.227073,-0.003352,0.204618
14:28:46.778,10.750,215,-0.242164,9.991305,-5.011504,1,0.000000,0.000000,3.151166,-0.012950,0.204934,0.003849,1,2.450002,9.753748,-4.831398,0,1,5.043534,-0.040065,9.972103,-4.969310,-1.462326,-0.078037,-0.021258,0.000130,0.226969,-0.003319,0.207348
14:28:46.828,10.800,216,-0.317041,9.987897,-5.014119,1,0.000000,0.000000,3.173510,0.022205,0.232699,-0.044657,1,2.450002,9.753748,-4.831398,0,1,5.058147,-0.113906,9.968053,-4.995802,-1.462395,-0.089358,-0.050274,0.000233,0.226996,-0.003557,0.204922
14:28:46.878,10.850,217,-0.391890,9.983928,-5.016733,1,0.000000,0.000000,3.195557,0.011195,0.191591,0.014084,1,2.450002,9.753748,-4.831398,0,1,5.020389,-0.186847,9.964533,-4.998290,-1.461794,-0.099996,-0.050382,0.000284,0.226831,-0.003476,0.206782
14:28:46.928,10.900,218,-0.466707,9.979397,-5.019346,1,0.000000,0.000000,3.218922,0.001544,0.237429,0.040255,1,2.450002,9.753748,-4.831398,0,1,5.083446,-0.260106,9.958938,-5.000731,-1.461013,-0.111490,-0.050374,0.000290,0.226880,-0.003276,0.208445
14:28:46.978,10.950,219,-0.541489,9.974304,-5.021957,1,0.000000,0.000000,3.207564,0.021285,0.224904,-0.043603,1,2.450002,9.753748,-4.831398,0,1,4.958110,-0.333780,9.953447,-4.990269,-1.460651,-0.122659,-0.035927,0.000387,0.226871,-0.003436,0.211145
14:28:47.028,11.000,220,-0.616229,9.968650,-5.024567,1,0.000000,0.000000,3.191934,0.046887,0.212050,0.049780,1,2.450002,9.753748,-4.831398,0,1,5.026122,-0.408101,9.948197,-4.991981,-1.460873,-0.133464,-0.035892,0.000601,0.226802,-0.003194,0.211654
14:28:47.078,11.050,221,-0.690926,9.962436,-5.027175,1,0.000000,0.000000,3.204439,-0.019038,0.191569,-0.006244,1,-0.701978,10.161512,-5.356123,1,1,4.999198,-0.646634,10.106314,-5.007818,-1.512668,-0.092536,-0.052035,0.000708,0.226761,-0.003220,0.151780
14:28:47.128,11.100,222,-0.765574,9.955661,-5.029782,1,0.000000,0.000000,3.236347,0.002197,0.254569,0.025598,1,-0.701978,10.161512,-5.356123,0,1,5.086043,-0.722361,10.101162,-5.031625,-1.511698,-0.104124,-0.076174,0.000715,0.226888,-0.003129,0.151793
14:28:47.179,11.150,223,-0.840168,9.948326,-5.032387,1,0.000000,0.000000,3.229326,0.045221,0.223047,0.035616,1,-0.701978,10.161512,-5.356123,0,1,4.974379,-0.798326,10.095883,-5.035376,-1.511220,-0.115304,-0.076182,0.000917,0.226871,-0.002955,0.153403
14:28:47.229,11.200,224,-0.914706,9.940432,-5.034990,1,0.000000,0.000000,3.225411,-0.010981,0.273820,0.018331,1,-0.701978,10.161512,-5.356123,0,1,4.989997,-0.873933,10.089322,-5.039150,-1.510268,-0.127156,-0.076244,0.000863,0.227083,-0.002860,0.154427
14:28:47.279,11.250,225,-0.989183,9.931979,-5.037591,1,0.000000,0.000000,3.237916,0.004299,0.246238,0.016277,1,-0.701978,10.161512,-5.356123,0,1,5.002764,-0.949533,10.082495,-5.031543,-1.509292,-0.138673,-0.063356,0.000879,0.227169,-0.002754,0.155768
14:28:47.329,11.300,226,-1.063594,9.922966,-5.040189,1,0.000000,0.000000,3.293280,0.024190,0.203845,-0.003193,1,-0.701978,10.161512,-5.356123,0,1,5.048831,-1.025116,10.075632,-5.034715,-1.507847,-0.149599,-0.063495,0.000983,0.227065,-0.002756,0.157535
14:28:47.379,11.350,227,-1.137935,9.913396,-5.042785,1,0.000000,0.000000,3.264517,0.013120,0.273664,0.008338,1,-0.701978,10.161512,-5.356123,0,1,5.073189,-1.100809,10.067385,-5.037873,-1.506724,-0.161395,-0.063589,0.001037,0.227272,-0.002707,0.158478
14:28:47.429,11.400,228,-1.212203,9.903268,-5.045379,1,0.000000,0.000000,3.292787,0.007023,0.238466,-0.042863,1,-0.701978,10.161512,-5.356123,0,1,5.077223,-1.176223,10.058925,-5.051436,-1.505153,-0.172760,-0.075620,0.001064,0.227322,-0.002902,0.159876
14:28:47.479,11.450,229,-1.286392,9.892583,-5.047970,1,0.000000,0.000000,3.271609,0.046676,0.189421,0.009930,1,-0.701978,10.161512,-5.356123,0,1,4.996438,-1.251856,10.050678,-5.055200,-1.504218,-0.183509,-0.075717,0.001265,0.227155,-0.002845,0.161985
14:28:47.529,11.500,230,-1.360500,9.881342,-5.050557,1,0.000000,0.000000,3.312904,0.023584,0.237896,0.017254,1,-0.701978,10.161512,-5.356123,0,1,5.072581,-1.327359,10.041179,-5.058954,-1.502632,-0.194806,-0.075779,0.001364,0.227202,-0.002758,0.163453
14:28:47.579,11.550,231,-1.434521,9.869544,-5.053142,1,0.000000,0.000000,3.303572,-0.037333,0.230314,0.015588,1,-0.701978,10.161512,-5.356123,0,1,5.057226,-1.401931,10.030944,-5.061137,-1.500395,-0.206126,-0.074051,0.001194,0.227215,-0.002676,0.164851
14:28:47.629,11.600,232,-1.508451,9.857192,-5.055724,1,0.000000,0.000000,3.303441,0.056794,0.241314,0.011206,1,-0.701978,10.161512,-5.356123,0,1,5.090222,-1.477761,10.020406,-5.064821,-1.499338,-0.217441,-0.074133,0.001437,0.227277,-0.002616,0.166323
14:28:47.679,11.650,233,-1.582287,9.844285,-5.058302,1,0.000000,0.000000,3.295510,0.027864,0.242290,0.000892,1,-0.701978,10.161512,-5.356123,0,1,4.992949,-1.553145,10.009150,-5.068524,-1.498023,-0.228833,-0.074251,0.001551,0.227342,-0.002601,0.167733
14:28:47.729,11.700,234,-1.656024,9.830824,-5.060877,1,0.000000,0.000000,3.321673,0.058835,0.204527,-0.008465,1,-0.701978,10.161512,-5.356123,0,1,5.059722,-1.628773,9.998042,-5.068646,-1.496764,-0.239658,-0.070306,0.001799,0.227244,-0.002619,0.169602
14:28:47.779,11.750,235,-1.729658,9.816811,-5.063449,1,0.000000,0.000000,3.324288,0.027549,0.213623,0.023084,1,-0.701978,10.161512,-5.356123,0,1,5.018726,-1.703909,9.986116,-5.072124,-1.495104,-0.250636,-0.070343,0.001910,0.227185,-0.002510,0.171472
14:28:47.830,11.800,236,-1.803185,9.802245,-5.066016,1,0.000000,0.000000,3.310292,-0.047480,0.179117,0.038528,1,-0.701978,10.161512,-5.356123,0,1,5.050154,-1.777578,9.973867,-5.075572,-1.492580,-0.261285,-0.070310,0.001698,0.226979,-0.002336,0.173785
14:28:47.880,11.850,237,-1.876601,9.787128,-5.068580,1,0.000000,0.000000,3.336730,-0.006396,0.202693,0.029673,1,-0.701978,10.161512,-5.356123,0,1,5.041241,-1.851901,9.960901,-5.068131,-1.490324,-0.272123,-0.057928,0.001664,0.226875,-0.002182,0.175521
14:28:47.930,11.900,238,-1.949901,9.771460,-5.071140,1,0.000000,0.000000,3.359247,0.014441,0.248734,-0.028797,1,-0.701978,10.161512,-5.356123,0,1,5.107883,-1.926688,9.946691,-5.071071,-1.488154,-0.283495,-0.058133,0.001718,0.226968,-0.002294,0.176762
14:28:47.980,11.950,239,-2.023082,9.755242,-5.073695,1,0.000000,0.000000,3.349302,0.015266,0.253974,0.024269,1,-0.701978,10.161512,-5.356123,0,1,5.117816,-2.001418,9.931809,-5.073935,-1.486113,-0.294968,-0.058147,0.001775,0.227082,-0.002182,0.177891
14:28:48.030,12.000,240,-2.096139,9.738476,-5.076247,1,0.000000,0.000000,3.378359,0.019578,0.212680,-0.022320,1,-0.701978,10.161512,-5.356123,0,1,5.073290,-2.075926,9.917143,-5.075846,-1.483764,-0.305808,-0.057160,0.001850,0.227022,-0.002265,0.179807
