timestamp,sim_time,iteration,true_pos_x,true_pos_y,true_pos_z,imu_valid,imu_roll,imu_pitch,imu_yaw,imu_acc_x,imu_acc_y,imu_acc_z,usbl_valid,usbl_pos_x,usbl_pos_y,usbl_pos_z,usbl_fix_used,depth_valid,depth_measurement,kf_pos_x,kf_pos_y,kf_pos_z,kf_vel_x,kf_vel_y,kf_vel_z,kf_acc_x,kf_acc_y,kf_acc_z,error_norm
14:36:36.026,0.000,0,10.168406,0.000000,-4.647959,1,0.000000,0.000000,1.558213,0.022871,0.212432,0.026887,0,0.000000,0.000000,0.000000,0,1,4.643890,10.168141,0.000032,-4.643900,-0.010597,0.001276,0.001544,0.022850,0.212241,0.026863,0.004068
14:36:36.076,0.050,1,10.168125,0.074999,-4.647969,1,0.000000,0.000000,1.543149,-0.017636,0.254983,0.000658,0,0.000000,0.000000,0.000000,0,1,4.657111,10.167238,0.000032,-4.643839,-0.023350,0.000731,0.001578,0.002616,0.233602,0.013766,0.075086
14:36:36.126,0.100,2,10.167281,0.149994,-4.647998,1,0.000000,0.000000,1.553180,-0.010002,0.238768,-0.007592,0,0.000000,0.000000,0.000000,0,1,4.627386,10.165759,0.000030,-4.643814,-0.035296,0.000442,0.001199,-0.001589,0.235323,0.006649,0.150030
14:36:36.176,0.150,3,10.165876,0.224981,-4.648048,1,0.000000,0.000000,1.596572,-0.026635,0.261930,-0.073495,0,0.000000,0.000000,0.000000,0,1,4.655118,10.163565,-0.000080,-4.654118,-0.048396,-0.001181,-0.062419,-0.007849,0.241974,-0.013384,0.225155
14:36:36.226,0.200,4,10.163909,0.299955,-4.648116,1,0.000000,0.000000,1.617267,-0.044199,0.152890,-0.000762,0,0.000000,0.000000,0.000000,0,1,4.661353,10.161397,-0.000396,-4.657235,-0.056006,-0.003939,-0.062716,-0.015118,0.224160,-0.010860,0.300500
14:36:36.276,0.250,5,10.161380,0.374912,-4.648205,1,0.000000,0.000000,1.620547,-0.003364,0.211848,0.015724,0,0.000000,0.000000,0.000000,0,1,4.606205,10.158411,-0.000539,-4.660312,-0.066554,-0.004658,-0.062382,-0.013159,0.222108,-0.006430,0.375658
14:36:36.326,0.300,6,10.158289,0.449848,-4.648312,1,0.000000,0.000000,1.644432,0.012561,0.267602,0.017079,0,0.000000,0.000000,0.000000,0,1,4.679124,10.154410,-0.000583,-4.676077,-0.079879,-0.004891,-0.111686,-0.009485,0.228607,-0.003076,0.451303
14:36:36.376,0.350,7,10.154636,0.524759,-4.648440,1,0.000000,0.000000,1.630252,0.070081,0.175428,-0.034900,0,0.000000,0.000000,0.000000,0,1,4.630044,10.150658,-0.000059,-4.681724,-0.088703,-0.002004,-0.112678,0.000460,0.221960,-0.007054,0.525887
14:36:36.426,0.400,8,10.150422,0.599640,-4.648587,1,0.000000,0.000000,1.584096,-0.005274,0.272612,-0.064358,0,0.000000,0.000000,0.000000,0,1,4.663343,10.145377,-0.000232,-4.687534,-0.102323,-0.002474,-0.114689,-0.000177,0.227587,-0.013420,0.601156
14:36:36.476,0.450,9,10.145647,0.674488,-4.648754,1,0.000000,0.000000,1.606336,-0.000120,0.229515,-0.019234,0,0.000000,0.000000,0.000000,0,1,4.616115,10.139952,-0.000365,-4.640012,-0.113792,-0.002887,0.035870,-0.000172,0.227780,-0.013967,0.674934
14:36:36.526,0.500,10,10.140311,0.749297,-4.648940,1,0.000000,0.000000,1.632599,0.019648,0.227723,-0.026633,0,0.000000,0.000000,0.000000,0,1,4.681533,10.133975,-0.000255,-4.638265,-0.125183,-0.002609,0.034848,0.001630,0.227775,-0.015118,0.749655
14:36:36.576,0.550,11,10.134415,0.824064,-4.649146,1,0.000000,0.000000,1.645599,0.003098,0.236873,-0.001085,0,0.000000,0.000000,0.000000,0,1,4.666779,10.127295,-0.000385,-4.636494,-0.137003,-0.003320,0.034479,0.001752,0.228533,-0.013949,0.824577
14:36:36.626,0.600,12,10.127958,0.898785,-4.649372,1,0.000000,0.000000,1.669112,-0.002889,0.287983,-0.016628,0,0.000000,0.000000,0.000000,0,1,4.642869,10.119197,-0.000671,-4.639614,-0.151343,-0.004696,0.022965,0.001395,0.233106,-0.014160,0.899552
14:36:36.677,0.650,13,10.120941,0.973456,-4.649617,1,0.000000,0.000000,1.662202,-0.008576,0.223409,0.029558,0,0.000000,0.000000,0.000000,0,1,4.619300,10.111513,-0.001102,-4.638358,-0.162451,-0.006168,0.023359,0.000683,0.232413,-0.011038,0.974668
14:36:36.727,0.700,14,10.113365,1.048072,-4.649881,1,0.000000,0.000000,1.683307,-0.004972,0.166650,-0.001497,0,0.000000,0.000000,0.000000,0,1,4.691631,10.104336,-0.001517,-4.637167,-0.170708,-0.007571,0.023064,0.000306,0.228029,-0.010402,1.049704
14:36:36.777,0.750,15,10.105230,1.122628,-4.650165,1,0.000000,0.000000,1.695899,-0.027305,0.220013,-0.098018,0,0.000000,0.000000,0.000000,0,1,4.655846,10.095693,-0.002478,-4.646619,-0.181552,-0.010336,0.001311,-0.001420,0.227528,-0.015894,1.125152
14:36:36.827,0.800,16,10.096536,1.197122,-4.650469,1,0.000000,0.000000,1.687109,-0.028258,0.243154,0.000618,0,0.000000,0.000000,0.000000,0,1,4.597108,10.086019,-0.003609,-4.646517,-0.193550,-0.013107,0.000929,-0.002998,0.228447,-0.014923,1.200784
14:36:36.877,0.850,17,10.087284,1.271548,-4.650792,1,0.000000,0.000000,1.683712,0.028377,0.272703,-0.011527,0,0.000000,0.000000,0.000000,0,1,4.599151,10.075041,-0.003629,-4.646474,-0.207179,-0.013106,0.000273,-0.001255,0.230906,-0.014734,1.275243
14:36:36.927,0.900,18,10.077474,1.345903,-4.651135,1,0.000000,0.000000,1.639686,0.037230,0.259609,-0.001627,0,0.000000,0.000000,0.000000,0,1,4.591423,10.063681,-0.003417,-4.620700,-0.220236,-0.012128,0.040804,0.000770,0.232416,-0.013986,1.349734
14:36:36.977,0.950,19,10.067108,1.420182,-4.651497,1,0.000000,0.000000,1.719819,-0.016345,0.227381,0.019358,0,0.000000,0.000000,0.000000,0,1,4.569555,10.052523,-0.004488,-4.618544,-0.231429,-0.014653,0.040932,-0.000085,0.232165,-0.012319,1.425126
14:36:37.027,1.000,20,10.056185,1.494381,-4.651878,1,0.000000,0.000000,1.726430,-0.031948,0.225429,0.043164,0,0.000000,0.000000,0.000000,0,1,4.669235,10.040876,-0.006093,-4.616233,-0.242454,-0.018021,0.041760,-0.001603,0.231844,-0.009678,1.500976
14:36:37.077,1.050,21,10.044706,1.568496,-4.652279,1,0.000000,0.000000,1.736000,-0.017782,0.231345,-0.063993,0,0.000000,0.000000,0.000000,0,1,4.610082,10.028500,-0.007488,-4.612623,-0.253793,-0.020811,0.042448,-0.002338,0.231821,-0.012140,1.576566
14:36:37.127,1.100,22,10.032672,1.642523,-4.652699,1,0.000000,0.000000,1.752194,0.031523,0.240481,0.019940,0,0.000000,0.000000,0.000000,0,1,4.617929,10.015233,-0.007623,-4.610370,-0.265733,-0.021364,0.042630,-0.000866,0.232198,-0.010746,1.650782
14:36:37.177,1.150,23,10.020083,1.716458,-4.653139,1,0.000000,0.000000,1.748352,0.021096,0.235662,0.011971,0,0.000000,0.000000,0.000000,0,1,4.671064,10.001525,-0.008092,-4.608125,-0.277413,-0.022379,0.042675,0.000049,0.232342,-0.009800,1.725237
14:36:37.227,1.200,24,10.006941,1.790296,-4.653598,1,0.000000,0.000000,1.739595,0.009137,0.214595,0.012222,0,0.000000,0.000000,0.000000,0,1,4.660207,9.987907,-0.008948,-4.626998,-0.288021,-0.023802,0.015359,0.000413,0.231632,-0.008999,1.799541
14:36:37.278,1.250,25,9.993246,1.864033,-4.654076,1,0.000000,0.000000,1.763021,-0.026503,0.194068,-0.030227,0,0.000000,0.000000,0.000000,0,1,4.605936,9.974486,-0.010999,-4.626349,-0.297408,-0.027167,0.014394,-0.000623,0.230188,-0.009815,1.875331
14:36:37.328,1.300,26,9.978998,1.937665,-4.654573,1,0.000000,0.000000,1.760398,0.007521,0.176840,0.028712,0,0.000000,0.000000,0.000000,0,1,4.557056,9.961113,-0.012037,-4.625407,-0.306092,-0.028717,0.014876,-0.000321,0.228212,-0.008389,1.950002
14:36:37.378,1.350,27,9.964199,2.011189,-4.655090,1,0.000000,0.000000,1.749548,0.023769,0.246417,-0.002898,0,0.000000,0.000000,0.000000,0,1,4.713721,9.944843,-0.012721,-4.656890,-0.318336,-0.029651,-0.024636,0.000539,0.228862,-0.008339,2.024003
14:36:37.428,1.400,28,9.948849,2.084599,-4.655626,1,0.000000,0.000000,1.786222,0.046699,0.269647,-0.065382,0,0.000000,0.000000,0.000000,0,1,4.659870,9.927070,-0.012688,-4.658449,-0.331773,-0.029982,-0.026417,0.002131,0.230268,-0.010304,2.097402
14:36:37.478,1.450,29,9.932949,2.157892,-4.656181,1,0.000000,0.000000,1.779331,0.057551,0.221439,0.031018,0,0.000000,0.000000,0.000000,0,1,4.636039,9.910396,-0.012153,-4.659512,-0.342906,-0.029466,-0.025908,0.003978,0.229974,-0.008928,2.170164
14:36:37.528,1.500,30,9.916500,2.231064,-4.656756,1,0.000000,0.000000,1.794034,0.006555,0.166777,-0.024836,0,0.000000,0.000000,0.000000,0,1,4.722827,9.895401,-0.013422,-4.682059,-0.351043,-0.031354,-0.051372,0.004061,0.227935,-0.009552,2.244727
14:36:37.578,1.550,31,9.899504,2.304110,-4.657349,1,0.000000,0.000000,1.794824,0.049953,0.196746,0.029671,0,0.000000,0.000000,0.000000,0,1,4.714050,9.878685,-0.013134,-4.684405,-0.360907,-0.031242,-0.050930,0.005495,0.226961,-0.008328,2.317495
14:36:37.628,1.600,32,9.881960,2.377026,-4.657962,1,0.000000,0.000000,1.809976,-0.008648,0.185127,-0.015390,0,0.000000,0.000000,0.000000,0,1,4.603562,9.862121,-0.015213,-4.687011,-0.369845,-0.034126,-0.051518,0.005067,0.225693,-0.008542,2.392498
14:36:37.678,1.650,33,9.863870,2.449809,-4.658594,1,0.000000,0.000000,1.808766,0.022613,0.222131,0.009460,0,0.000000,0.000000,0.000000,0,1,4.601564,9.843449,-0.016227,-4.660852,-0.380798,-0.035650,-0.019023,0.005583,0.225588,-0.007842,2.466121
14:36:37.728,1.700,34,9.845236,2.522454,-4.659245,1,0.000000,0.000000,1.818476,-0.054246,0.235416,0.001351,0,0.000000,0.000000,0.000000,0,1,4.652616,9.823907,-0.020708,-4.661755,-0.391925,-0.041164,-0.019205,0.003874,0.225869,-0.007580,2.543253
14:36:37.778,1.750,35,9.826057,2.594957,-4.659914,1,0.000000,0.000000,1.837629,-0.032187,0.253965,0.021061,0,0.000000,0.000000,0.000000,0,1,4.596399,9.802909,-0.024550,-4.662516,-0.404034,-0.045914,-0.018908,0.002872,0.226650,-0.006786,2.619611
14:36:37.828,1.800,36,9.806335,2.667314,-4.660603,1,0.000000,0.000000,1.824194,-0.004311,0.271435,-0.028256,0,0.000000,0.000000,0.000000,0,1,4.609476,9.780401,-0.027414,-4.646657,-0.417207,-0.049258,-0.000735,0.002678,0.227860,-0.007254,2.694889
14:36:37.879,1.850,37,9.786072,2.739521,-4.661311,1,0.000000,0.000000,1.847026,0.032626,0.204382,-0.025807,0,0.000000,0.000000,0.000000,0,1,4.653034,9.760253,-0.028443,-4.646825,-0.427243,-0.050603,-0.001509,0.003466,0.227242,-0.007741,2.768123
14:36:37.929,1.900,38,9.765268,2.811575,-4.662037,1,0.000000,0.000000,1.842210,0.021771,0.218240,0.004602,0,0.000000,0.000000,0.000000,0,1,4.685671,9.738975,-0.030121,-4.646817,-0.437916,-0.052517,-0.001614,0.003935,0.227011,-0.007426,2.841857
14:36:37.979,1.950,39,9.743925,2.883469,-4.662782,1,0.000000,0.000000,1.885470,-0.005946,0.203447,-0.028380,0,0.000000,0.000000,0.000000,0,1,4.734822,9.718022,-0.033215,-4.673858,-0.447539,-0.056166,-0.032331,0.003688,0.226422,-0.008135,2.916820
14:36:38.029,2.000,40,9.722043,2.955202,-4.663547,1,0.000000,0.000000,1.874047,0.005429,0.238199,-0.048696,0,0.000000,0.000000,0.000000,0,1,4.665557,9.694766,-0.036070,-4.675761,-0.458991,-0.059369,-0.033604,0.003731,0.226709,-0.009122,2.991422
14:36:38.079,2.050,41,9.699624,3.026769,-4.664329,1,0.000000,0.000000,1.867083,-0.040757,0.232154,-0.034758,0,0.000000,0.000000,0.000000,0,1,4.775724,9.671481,-0.041462,-4.677650,-0.469827,-0.064731,-0.034625,0.002671,0.226839,-0.009731,3.068388
14:36:38.129,2.100,42,9.676669,3.098165,-4.665131,1,0.000000,0.000000,1.869383,0.006735,0.225769,-0.015244,0,0.000000,0.000000,0.000000,0,1,4.641286,9.647754,-0.044556,-4.668025,-0.480685,-0.067731,-0.022500,0.002766,0.226814,-0.009775,3.142855
14:36:38.179,2.150,43,9.653180,3.169387,-4.665951,1,0.000000,0.000000,1.859919,-0.039117,0.232581,-0.044470,0,0.000000,0.000000,0.000000,0,1,4.530201,9.623362,-0.050336,-4.669402,-0.491555,-0.072936,-0.023699,0.001814,0.226945,-0.010561,3.219863
14:36:38.229,2.200,44,9.629158,3.240430,-4.666790,1,0.000000,0.000000,1.909932,0.009634,0.218275,0.002534,0,0.000000,0.000000,0.000000,0,1,4.734476,9.598954,-0.053589,-4.670498,-0.501922,-0.076173,-0.023950,0.001988,0.226753,-0.010271,3.294160
14:36:38.279,2.250,45,9.604604,3.311292,-4.667648,1,0.000000,0.000000,1.915724,-0.049238,0.210462,0.010337,0,0.000000,0.000000,0.000000,0,1,4.626231,9.574826,-0.060312,-4.658155,-0.511412,-0.082295,-0.009048,0.000874,0.226398,-0.009725,3.371749
14:36:38.329,2.300,46,9.579519,3.381967,-4.668524,1,0.000000,0.000000,1.936142,0.052176,0.216625,-0.013214,0,0.000000,0.000000,0.000000,0,1,4.691698,9.549237,-0.061480,-4.658643,-0.521947,-0.083702,-0.009602,0.001966,0.226190,-0.009799,3.443594
14:36:38.379,2.350,47,9.553906,3.452452,-4.669418,1,0.000000,0.000000,1.923784,0.027338,0.240945,-0.076840,0,0.000000,0.000000,0.000000,0,1,4.731546,9.521831,-0.064351,-4.659658,-0.533531,-0.086402,-0.011445,0.002494,0.226498,-0.011190,3.516962
14:36:38.430,2.400,48,9.527764,3.522742,-4.670331,1,0.000000,0.000000,1.915382,-0.007430,0.249226,-0.055614,0,0.000000,0.000000,0.000000,0,1,4.752350,9.493577,-0.069521,-4.687478,-0.545259,-0.090793,-0.043093,0.002292,0.226962,-0.012295,3.592467
14:36:38.480,2.450,49,9.501097,3.592835,-4.671262,1,0.000000,0.000000,1.883636,-0.009989,0.240413,-0.000088,0,0.000000,0.000000,0.000000,0,1,4.642369,9.465300,-0.075001,-4.689564,-0.556641,-0.094895,-0.043481,0.002046,0.227231,-0.012052,3.668056
14:36:38.530,2.500,50,9.473905,3.662725,-4.672212,1,0.000000,0.000000,1.920344,0.032914,0.184742,-0.017368,0,0.000000,0.000000,0.000000,0,1,4.568808,9.439648,-0.077578,-4.691794,-0.565551,-0.096801,-0.044185,0.002651,0.226398,-0.012156,3.740511
14:36:38.580,2.550,51,9.446190,3.732410,-4.673179,1,0.000000,0.000000,1.994740,-0.032054,0.186248,-0.032617,0,0.000000,0.000000,0.000000,0,1,4.658551,9.413959,-0.084449,-4.683813,-0.573645,-0.102662,-0.033496,0.001984,0.225626,-0.012470,3.817010
14:36:38.630,2.600,52,9.417954,3.801884,-4.674166,1,0.000000,0.000000,1.931526,0.001736,0.245466,0.008862,0,0.000000,0.000000,0.000000,0,1,4.669285,9.383716,-0.089856,-4.685359,-0.585200,-0.106748,-0.033743,0.001979,0.226000,-0.012070,3.891907
14:36:38.680,2.650,53,9.389197,3.871145,-4.675170,1,0.000000,0.000000,1.999315,-0.028769,0.179023,0.027839,0,0.000000,0.000000,0.000000,0,1,4.672968,9.357587,-0.096963,-4.686760,-0.592938,-0.112403,-0.033620,0.001410,0.225130,-0.011335,3.968251
14:36:38.730,2.700,54,9.359923,3.940188,-4.676192,1,0.000000,0.000000,1.966663,0.018149,0.302715,-0.005430,0,0.000000,0.000000,0.000000,0,1,4.586369,9.322270,-0.102231,-4.658776,-0.607289,-0.116619,-0.000577,0.001714,0.226541,-0.011011,4.042632
14:36:38.780,2.750,55,9.330131,4.009009,-4.677232,1,0.000000,0.000000,1.979585,-0.012067,0.231117,0.014517,0,0.000000,0.000000,0.000000,0,1,4.729037,9.291453,-0.109166,-4.658650,-0.617803,-0.121758,-0.000702,0.001468,0.226622,-0.010558,4.118398
14:36:38.830,2.800,56,9.299825,4.077605,-4.678291,1,0.000000,0.000000,1.983636,-0.005266,0.226942,-0.037476,0,0.000000,0.000000,0.000000,0,1,4.694559,9.260344,-0.115841,-4.658895,-0.628159,-0.126567,-0.001694,0.001350,0.226628,-0.011027,4.193677
14:36:38.880,2.850,57,9.269005,4.145971,-4.679367,1,0.000000,0.000000,2.003472,-0.000814,0.228191,0.016502,0,0.000000,0.000000,0.000000,0,1,4.722097,9.228587,-0.122457,-4.677133,-0.638528,-0.131378,-0.022554,0.001313,0.226655,-0.010686,4.268620
14:36:38.930,2.900,58,9.237673,4.214104,-4.680461,1,0.000000,0.000000,2.000692,0.012998,0.248571,-0.052419,0,0.000000,0.000000,0.000000,0,1,4.706150,9.194693,-0.128514,-4.678541,-0.650041,-0.135704,-0.023745,0.001511,0.227026,-0.011389,4.342832
14:36:38.980,2.950,59,9.205832,4.282000,-4.681573,1,0.000000,0.000000,2.007066,0.040214,0.219194,0.001141,0,0.000000,0.000000,0.000000,0,1,4.641126,9.162108,-0.132479,-4.679654,-0.660394,-0.138476,-0.024110,0.002156,0.226896,-0.011181,4.414696
14:36:39.030,3.000,60,9.173483,4.349655,-4.682703,1,0.000000,0.000000,2.014086,0.035204,0.229259,-0.026156,0,0.000000,0.000000,0.000000,0,1,4.611865,9.128297,-0.137069,-4.660961,-0.671160,-0.141672,-0.002208,0.002698,0.226935,-0.011287,4.487004
14:36:39.080,3.050,61,9.140628,4.417066,-4.683850,1,0.000000,0.000000,2.036060,0.015842,0.229241,-0.001257,0,0.000000,0.000000,0.000000,0,1,4.674067,9.094161,-0.143301,-4.661023,-0.681617,-0.146033,-0.002623,0.002910,0.226972,-0.011127,4.560661
14:36:39.130,3.100,62,9.107268,4.484228,-4.685015,1,0.000000,0.000000,2.022118,-0.046688,0.245247,-0.037877,0,0.000000,0.000000,0.000000,0,1,4.579561,9.058981,-0.154772,-4.661351,-0.692220,-0.153448,-0.003592,0.002122,0.227262,-0.011548,4.639311
14:36:39.181,3.150,63,9.073406,4.551138,-4.686197,1,0.000000,0.000000,2.029798,0.036076,0.264230,0.019087,0,0.000000,0.000000,0.000000,0,1,4.755798,9.020806,-0.160340,-4.688684,-0.704621,-0.157171,-0.034734,0.002653,0.227839,-0.011254,4.711773
14:36:39.231,3.200,64,9.039043,4.617792,-4.687397,1,0.000000,0.000000,2.060058,-0.016297,0.214923,-0.012170,0,0.000000,0.000000,0.000000,0,1,4.673082,8.986585,-0.169682,-4.690441,-0.713899,-0.163171,-0.035309,0.002361,0.227641,-0.011268,4.787762
14:36:39.281,3.250,65,9.004182,4.684186,-4.688615,1,0.000000,0.000000,2.051712,-0.009115,0.247271,0.044856,0,0.000000,0.000000,0.000000,0,1,4.641985,8.949193,-0.179147,-4.691853,-0.724853,-0.169113,-0.035054,0.002187,0.227938,-0.010424,4.863645
14:36:39.331,3.300,66,8.968824,4.750317,-4.689849,1,0.000000,0.000000,2.036438,0.003936,0.179540,-0.009760,0,0.000000,0.000000,0.000000,0,1,4.667760,8.916645,-0.186952,-4.686125,-0.732783,-0.173474,-0.027068,0.002214,0.227216,-0.010367,4.937546
14:36:39.381,3.350,67,8.932971,4.816180,-4.691101,1,0.000000,0.000000,2.045230,0.028294,0.216419,0.037271,0,0.000000,0.000000,0.000000,0,1,4.614351,8.880300,-0.193436,-4.687221,-0.742735,-0.177185,-0.026954,0.002597,0.227057,-0.009672,5.009894
14:36:39.431,3.400,68,8.896626,4.881772,-4.692371,1,0.000000,0.000000,2.068027,-0.013434,0.281319,-0.016655,0,0.000000,0.000000,0.000000,0,1,4.727462,8.838552,-0.204535,-4.688625,-0.755179,-0.183916,-0.027534,0.002365,0.227843,-0.009773,5.086640
14:36:39.481,3.450,69,8.859790,4.947090,-4.693657,1,0.000000,0.000000,2.076141,-0.019882,0.239697,-0.034927,0,0.000000,0.000000,0.000000,0,1,4.761543,8.799846,-0.215940,-4.710852,-0.765497,-0.190538,-0.051829,0.002047,0.228013,-0.010255,5.163407
14:36:39.531,3.500,70,8.822466,5.012130,-4.694960,1,0.000000,0.000000,2.089093,0.024320,0.225534,-0.014882,0,0.000000,0.000000,0.000000,0,1,4.647107,8.761210,-0.223636,-4.713481,-0.775612,-0.195002,-0.052400,0.002361,0.227978,-0.010319,5.236157
14:36:39.581,3.550,71,8.784655,5.076888,-4.696281,1,0.000000,0.000000,2.088358,-0.049985,0.250204,-0.033585,0,0.000000,0.000000,0.000000,0,1,4.620044,8.721017,-0.238465,-4.716254,-0.785971,-0.203320,-0.053221,0.001634,0.228287,-0.010640,5.315771
14:36:39.631,3.600,72,8.746359,5.141360,-4.697618,1,0.000000,0.000000,2.103529,-0.017590,0.249870,-0.012943,0,0.000000,0.000000,0.000000,0,1,4.734061,8.679848,-0.250823,-4.723321,-0.796627,-0.210241,-0.058750,0.001370,0.228582,-0.010696,5.392655
14:36:39.681,3.650,73,8.707582,5.205543,-4.698972,1,0.000000,0.000000,2.109445,-0.044789,0.231280,0.053070,0,0.000000,0.000000,0.000000,0,1,4.670156,8.640265,-0.265691,-4.725941,-0.805998,-0.218277,-0.058521,0.000747,0.228619,-0.009843,5.471714
14:36:39.731,3.700,74,8.668325,5.269433,-4.700343,1,0.000000,0.000000,2.128737,-0.019342,0.245663,0.000120,0,0.000000,0.000000,0.000000,0,1,4.635503,8.598494,-0.278872,-4.728822,-0.816260,-0.225478,-0.058889,0.000479,0.228846,-0.009711,5.548817
14:36:39.781,3.750,75,8.628589,5.333027,-4.701731,1,0.000000,0.000000,2.140975,-0.060711,0.253381,0.010305,0,0.000000,0.000000,0.000000,0,1,4.648609,8.556202,-0.296379,-4.707609,-0.826248,-0.234867,-0.031851,-0.000326,0.229169,-0.009316,5.629875
14:36:39.831,3.800,76,8.588379,5.396320,-4.703135,1,0.000000,0.000000,2.137357,-0.026499,0.253724,-0.003451,0,0.000000,0.000000,0.000000,0,1,4.716579,8.512800,-0.311156,-4.709184,-0.836715,-0.242605,-0.032250,-0.000666,0.229488,-0.009241,5.707980
14:36:39.881,3.850,77,8.547695,5.459311,-4.704556,1,0.000000,0.000000,2.151400,0.032668,0.268175,0.010702,0,0.000000,0.000000,0.000000,0,1,4.804898,8.466460,-0.320970,-4.710699,-0.848581,-0.247883,-0.032475,-0.000239,0.229984,-0.008988,5.780854
14:36:39.931,3.900,78,8.506540,5.521994,-4.705993,1,0.000000,0.000000,2.126104,0.008518,0.216800,-0.002553,0,0.000000,0.000000,0.000000,0,1,4.667539,8.424893,-0.332434,-4.699339,-0.857845,-0.253358,-0.018158,-0.000128,0.229817,-0.008838,5.855001
14:36:39.982,3.950,79,8.464916,5.584366,-4.707446,1,0.000000,0.000000,2.139030,0.027417,0.265318,-0.045188,0,0.000000,0.000000,0.000000,0,1,4.774240,8.377793,-0.343244,-4.700430,-0.869590,-0.258747,-0.018995,0.000216,0.230260,-0.009288,5.928255
14:36:40.032,4.000,80,8.422826,5.646425,-4.708916,1,0.000000,0.000000,2.166958,-0.003359,0.196776,0.014191,0,0.000000,0.000000,0.000000,0,1,4.733427,8.337436,-0.356052,-4.701268,-0.877494,-0.264893,-0.019193,0.000172,0.229847,-0.009001,6.003089
14:36:40.082,4.050,81,8.380272,5.708166,-4.710402,1,0.000000,0.000000,2.155282,0.069665,0.187909,-0.008006,0,0.000000,0.000000,0.000000,0,1,4.747989,8.296126,-0.361717,-4.715477,-0.886112,-0.267352,-0.034640,0.001020,0.229336,-0.009056,6.070468
14:36:40.132,4.100,82,8.337256,5.769585,-4.711904,1,0.000000,0.000000,2.167850,0.012874,0.242285,0.027925,0,0.000000,0.000000,0.000000,0,1,4.638453,8.250041,-0.374313,-4.717052,-0.896406,-0.273389,-0.034708,0.001162,0.229492,-0.008615,6.144519
14:36:40.182,4.150,83,8.293782,5.830680,-4.713422,1,0.000000,0.000000,2.199456,-0.002656,0.200211,-0.035900,0,0.000000,0.000000,0.000000,0,1,4.668124,8.208046,-0.387934,-4.718935,-0.904291,-0.279836,-0.035435,0.001117,0.229143,-0.008937,6.219208
14:36:40.232,4.200,84,8.249850,5.891448,-4.714957,1,0.000000,0.000000,2.213626,0.039593,0.234424,-0.042462,0,0.000000,0.000000,0.000000,0,1,4.674966,8.161244,-0.398249,-4.707610,-0.914317,-0.284937,-0.021199,0.001570,0.229205,-0.009262,6.290325
14:36:40.282,4.250,85,8.205465,5.951883,-4.716507,1,0.000000,0.000000,2.223872,0.007483,0.212468,-0.034240,0,0.000000,0.000000,0.000000,0,1,4.676656,8.116913,-0.411692,-4.708790,-0.922774,-0.291309,-0.021912,0.001638,0.229011,-0.009550,6.364196
14:36:40.332,4.300,86,8.160627,6.011984,-4.718072,1,0.000000,0.000000,2.249587,-0.000056,0.172533,-0.025373,0,0.000000,0.000000,0.000000,0,1,4.656712,8.076525,-0.425362,-4.709974,-0.929076,-0.297648,-0.022555,0.001619,0.228361,-0.009730,6.437901
14:36:40.382,4.350,87,8.115341,6.071747,-4.719654,1,0.000000,0.000000,2.222018,0.009963,0.284576,0.008754,0,0.000000,0.000000,0.000000,0,1,4.691166,8.023681,-0.440804,-4.705273,-0.940954,-0.304987,-0.016333,0.001714,0.229000,-0.009495,6.513212
14:36:40.432,4.400,88,8.069607,6.131169,-4.721251,1,0.000000,0.000000,2.224463,0.035206,0.263269,0.004539,0,0.000000,0.000000,0.000000,0,1,4.706848,7.971948,-0.453424,-4.706042,-0.952214,-0.310861,-0.016673,0.002090,0.229385,-0.009339,6.585334
14:36:40.482,4.450,89,8.023430,6.190245,-4.722863,1,0.000000,0.000000,2.229500,0.040587,0.163486,-0.062922,0,0.000000,0.000000,0.000000,0,1,4.723824,7.930346,-0.463401,-4.707136,-0.958897,-0.314969,-0.017679,0.002518,0.228653,-0.009928,6.654315
14:36:40.532,4.500,90,7.976811,6.248973,-4.724491,1,0.000000,0.000000,2.221190,-0.004277,0.230842,0.020346,0,0.000000,0.000000,0.000000,0,1,4.722357,7.882096,-0.480118,-4.712067,-0.968065,-0.322141,-0.022603,0.002443,0.228677,-0.009618,6.729769
14:36:40.582,4.550,91,7.929753,6.307350,-4.726135,1,0.000000,0.000000,2.248267,-0.006647,0.216668,0.030405,0,0.000000,0.000000,0.000000,0,1,4.639080,7.835023,-0.497110,-4.713048,-0.976348,-0.329440,-0.022713,0.002344,0.228547,-0.009188,6.805132
14:36:40.632,4.600,92,7.882259,6.365372,-4.727793,1,0.000000,0.000000,2.257934,-0.043370,0.220912,0.001385,0,0.000000,0.000000,0.000000,0,1,4.723163,7.787994,-0.518680,-4.714148,-0.984158,-0.338584,-0.023070,0.001853,0.228465,-0.009075,6.884711
14:36:40.683,4.650,93,7.834332,6.423036,-4.729467,1,0.000000,0.000000,2.266933,-0.039028,0.259943,-0.011572,0,0.000000,0.000000,0.000000,0,1,4.693655,7.736068,-0.541221,-4.709056,-0.993760,-0.348242,-0.016448,0.001418,0.228799,-0.009074,6.964980
14:36:40.733,4.700,94,7.785973,6.480338,-4.731156,1,0.000000,0.000000,2.251179,-0.054761,0.235018,-0.009976,0,0.000000,0.000000,0.000000,0,1,4.639550,7.686932,-0.565383,-4.709894,-1.002049,-0.358073,-0.016910,0.000826,0.228865,-0.009084,7.046449
14:36:40.783,4.750,95,7.737187,6.537276,-4.732859,1,0.000000,0.000000,2.273648,0.007948,0.241735,0.005149,0,0.000000,0.000000,0.000000,0,1,4.690105,7.634936,-0.582998,-4.710689,-1.011518,-0.365327,-0.017231,0.000901,0.228999,-0.008937,7.121043
14:36:40.833,4.800,96,7.687975,6.593847,-4.734578,1,0.000000,0.000000,2.293919,-0.034651,0.232239,-0.048694,0,0.000000,0.000000,0.000000,0,1,4.762423,7.584747,-0.605674,-4.726407,-1.019678,-0.374556,-0.034668,0.000534,0.229032,-0.009404,7.200265
14:36:40.883,4.850,97,7.638340,6.650046,-4.736311,1,0.000000,0.000000,2.269704,0.018278,0.209825,-0.021810,0,0.000000,0.000000,0.000000,0,1,4.652047,7.535299,-0.621964,-4.728198,-1.027886,-0.380762,-0.035245,0.000715,0.228836,-0.009529,7.272745
14:36:40.933,4.900,98,7.588286,6.705872,-4.738059,1,0.000000,0.000000,2.315673,0.068827,0.197813,-0.001552,0,0.000000,0.000000,0.000000,0,1,4.750696,7.485414,-0.632240,-4.729939,-1.036083,-0.384843,-0.035649,0.001403,0.228523,-0.009449,7.338838
14:36:40.983,4.950,99,7.537815,6.761320,-4.739821,1,0.000000,0.000000,2.331095,0.043544,0.238628,0.016698,0,0.000000,0.000000,0.000000,0,1,4.664040,7.430962,-0.646938,-4.712071,-1.045607,-0.390922,-0.013739,0.001825,0.228624,-0.009112,7.409080
14:36:41.033,5.000,100,7.486929,6.816388,-4.741598,1,0.000000,0.000000,2.314123,0.001692,0.183303,-0.058512,0,0.000000,0.000000,0.000000,0,1,4.799309,7.383938,-0.665340,-4.712948,-1.052020,-0.397798,-0.014609,0.001823,0.228175,-0.009595,7.482491
14:36:41.083,5.050,101,7.435632,6.871072,-4.743390,1,0.000000,0.000000,2.338704,0.050108,0.217766,-0.013680,0,0.000000,0.000000,0.000000,0,1,4.685190,7.330928,-0.679235,-4.713707,-1.060677,-0.403279,-0.015124,0.002297,0.228073,-0.009635,7.551091
14:36:41.133,5.100,102,7.383927,6.925370,-4.745195,1,0.000000,0.000000,2.280658,-0.005540,0.215534,-0.013271,0,0.000000,0.000000,0.000000,0,1,4.624969,7.279458,-0.700155,-4.688602,-1.068692,-0.410754,0.013682,0.002221,0.227952,-0.009568,7.626451
14:36:41.183,5.150,103,7.331816,6.979278,-4.747015,1,0.000000,0.000000,2.331496,-0.045582,0.292234,-0.022568,0,0.000000,0.000000,0.000000,0,1,4.713035,7.219367,-0.728838,-4.687976,-1.079068,-0.421858,0.013097,0.001761,0.228570,-0.009691,7.709163
14:36:41.233,5.200,104,7.279302,7.032794,-4.748849,1,0.000000,0.000000,2.353485,0.000189,0.226686,-0.017019,0,0.000000,0.000000,0.000000,0,1,4.775143,7.165496,-0.750267,-4.687362,-1.087120,-0.429892,0.012550,0.001746,0.228552,-0.009760,7.784136
14:36:41.283,5.250,105,7.226389,7.085914,-4.750697,1,0.000000,0.000000,2.372789,0.013778,0.254720,-0.011704,0,0.000000,0.000000,0.000000,0,1,4.793033,7.107249,-0.771309,-4.717488,-1.096529,-0.437984,-0.022761,0.001859,0.228799,-0.009895,7.858197
14:36:41.334,5.300,106,7.173079,7.138636,-4.752558,1,0.000000,0.000000,2.342568,-0.023193,0.222835,-0.009476,0,0.000000,0.000000,0.000000,0,1,4.733326,7.053811,-0.796388,-4.718637,-1.104058,-0.446912,-0.023253,0.001625,0.228743,-0.009891,7.935993
14:36:41.384,5.350,107,7.119376,7.190956,-4.754434,1,0.000000,0.000000,2.371171,-0.003295,0.266612,-0.032865,0,0.000000,0.000000,0.000000,0,1,4.743044,6.993725,-0.820858,-4.719899,-1.113689,-0.455993,-0.023938,0.001580,0.229093,-0.010102,8.012873
14:36:41.434,5.400,108,7.065282,7.242872,-4.756323,1,0.000000,0.000000,2.354110,-0.021669,0.216030,0.002396,0,0.000000,0.000000,0.000000,0,1,4.738507,6.940329,-0.846407,-4.726102,-1.120837,-0.464815,-0.030049,0.001367,0.228974,-0.010007,8.090300
14:36:41.484,5.450,109,7.010800,7.294380,-4.758225,1,0.000000,0.000000,2.389114,-0.001615,0.212852,-0.023794,0,0.000000,0.000000,0.000000,0,1,4.686986,6.886295,-0.869674,-4.727663,-1.127934,-0.472952,-0.030656,0.001339,0.228827,-0.010131,8.165061
14:36:41.534,5.500,110,6.955934,7.345478,-4.760141,1,0.000000,0.000000,2.381705,0.012115,0.215281,0.004009,0,0.000000,0.000000,0.000000,0,1,4.745643,6.831090,-0.891627,-4.729157,-1.135467,-0.480459,-0.031048,0.001436,0.228705,-0.010005,8.238109
14:36:41.584,5.550,111,6.900686,7.396163,-4.762070,1,0.000000,0.000000,2.369672,-0.005399,0.222027,-0.061254,0,0.000000,0.000000,0.000000,0,1,4.728667,6.775250,-0.916513,-4.730275,-1.143065,-0.488778,-0.031240,0.001375,0.228645,-0.010455,8.313683
14:36:41.634,5.600,112,6.845060,7.446431,-4.764013,1,0.000000,0.000000,2.430335,-0.006427,0.154133,0.046101,0,0.000000,0.000000,0.000000,0,1,4.736908,6.728133,-0.939434,-4.731668,-1.147118,-0.496286,-0.031340,0.001306,0.227986,-0.009960,8.386743
14:36:41.684,5.650,113,6.789058,7.496281,-4.765969,1,0.000000,0.000000,2.433224,-0.021472,0.208355,0.010622,0,0.000000,0.000000,0.000000,0,1,4.745322,6.674091,-0.966781,-4.733174,-1.153266,-0.505523,-0.031676,0.001107,0.227814,-0.009782,8.463906
14:36:41.734,5.700,114,6.732685,7.545709,-4.767937,1,0.000000,0.000000,2.440111,0.016825,0.175930,-0.004949,0,0.000000,0.000000,0.000000,0,1,4.719048,6.622662,-0.988146,-4.730211,-1.158678,-0.512464,-0.026984,0.001243,0.227363,-0.009725,8.534648
14:36:41.784,5.750,115,6.675943,7.594713,-4.769919,1,0.000000,0.000000,2.391051,-0.022797,0.205333,-0.002338,0,0.000000,0.000000,0.000000,0,1,4.721538,6.568481,-1.016392,-4.731549,-1.165024,-0.521356,-0.027416,0.001036,0.227173,-0.009662,8.611861
14:36:41.834,5.800,116,6.618835,7.643289,-4.771913,1,0.000000,0.000000,2.466544,0.045327,0.203985,-0.007556,0,0.000000,0.000000,0.000000,0,1,4.787569,6.511473,-1.035669,-4.732924,-1.172035,-0.527775,-0.027883,0.001415,0.226975,-0.009644,8.679710
14:36:41.884,5.850,117,6.561364,7.691436,-4.773920,1,0.000000,0.000000,2.462736,0.016425,0.168924,-0.012928,0,0.000000,0.000000,0.000000,0,1,4.840552,6.460123,-1.057846,-4.765052,-1.176972,-0.534725,-0.063165,0.001542,0.226483,-0.009776,8.749872
14:36:41.935,5.900,118,6.503535,7.739150,-4.775939,1,0.000000,0.000000,2.415306,0.001631,0.263736,0.025468,0,0.000000,0.000000,0.000000,0,1,4.778605,6.395884,-1.086315,-4.768115,-1.186184,-0.543898,-0.063403,0.001543,0.226796,-0.009483,8.826125
14:36:41.985,5.950,119,6.445349,7.786428,-4.777971,1,0.000000,0.000000,2.439963,0.011050,0.217927,-0.014455,0,0.000000,0.000000,0.000000,0,1,4.881904,6.337238,-1.112018,-4.771313,-1.193371,-0.551911,-0.063915,0.001622,0.226722,-0.009524,8.899106
14:36:42.035,6.000,120,6.386810,7.833269,-4.780015,1,0.000000,0.000000,2.466124,-0.005420,0.204452,-0.021298,0,0.000000,0.000000,0.000000,0,1,4.713096,6.280843,-1.139882,-4.756793,-1.199405,-0.560552,-0.044359,0.001564,0.226538,-0.009562,8.973807
14:36:42.085,6.050,121,6.327923,7.879669,-4.782072,1,0.000000,0.000000,2.518675,0.010431,0.189724,0.001958,0,0.000000,0.000000,0.000000,0,1,4.869379,6.225569,-1.165283,-4.758988,-1.204661,-0.568551,-0.044757,0.001636,0.226236,-0.009468,9.045560
14:36:42.135,6.100,122,6.268689,7.925626,-4.784140,1,0.000000,0.000000,2.447861,-0.033177,0.243322,-0.016271,0,0.000000,0.000000,0.000000,0,1,4.706954,6.164231,-1.199674,-4.761261,-1.211965,-0.579066,-0.045280,0.001353,0.226375,-0.009523,9.125927
14:36:42.185,6.150,123,6.209112,7.971137,-4.786221,1,0.000000,0.000000,2.482588,0.016596,0.217312,0.011420,0,0.000000,0.000000,0.000000,0,1,4.745135,6.104088,-1.226243,-4.758162,-1.218880,-0.587121,-0.039597,0.001476,0.226302,-0.009339,9.198022
14:36:42.235,6.200,124,6.149195,8.016199,-4.788313,1,0.000000,0.000000,2.491558,-0.014054,0.215958,0.024120,0,0.000000,0.000000,0.000000,0,1,4.845394,6.045181,-1.257614,-4.760057,-1.225008,-0.596534,-0.039838,0.001352,0.226219,-0.009075,9.274440
14:36:42.285,6.250,125,6.088943,8.060811,-4.790417,1,0.000000,0.000000,2.495369,-0.010885,0.259223,0.037899,0,0.000000,0.000000,0.000000,0,1,4.784605,5.979486,-1.290978,-4.761908,-1.233033,-0.606761,-0.039957,0.001255,0.226481,-0.008707,9.352473
14:36:42.335,6.300,126,6.028358,8.104969,-4.792533,1,0.000000,0.000000,2.488939,-0.027220,0.219502,-0.003598,0,0.000000,0.000000,0.000000,0,1,4.806223,5.920023,-1.325415,-4.776135,-1.239043,-0.616792,-0.054210,0.001031,0.226426,-0.008706,9.431021
14:36:42.385,6.350,127,5.967444,8.148672,-4.794660,1,0.000000,0.000000,2.519839,-0.023041,0.254958,-0.019916,0,0.000000,0.000000,0.000000,0,1,4.836136,5.854810,-1.361413,-4.778888,-1.246378,-0.627619,-0.054719,0.000843,0.226649,-0.008792,9.510765
14:36:42.435,6.400,128,5.906204,8.191916,-4.796799,1,0.000000,0.000000,2.527970,-0.035484,0.245343,0.018003,0,0.000000,0.000000,0.000000,0,1,4.804460,5.791283,-1.399357,-4.781551,-1.252941,-0.638824,-0.054973,0.000561,0.226794,-0.008587,9.591973
14:36:42.485,6.450,129,5.844641,8.234699,-4.798948,1,0.000000,0.000000,2.545907,0.005673,0.277004,-0.021863,0,0.000000,0.000000,0.000000,0,1,4.693914,5.720671,-1.433220,-4.758209,-1.261581,-0.649085,-0.025893,0.000600,0.227180,-0.008607,9.668799
14:36:42.535,6.500,130,5.782760,8.277019,-4.801109,1,0.000000,0.000000,2.528961,-0.002783,0.250548,0.000617,0,0.000000,0.000000,0.000000,0,1,4.809467,5.654058,-1.467578,-4.759489,-1.269056,-0.659025,-0.026264,0.000574,0.227358,-0.008538,9.745536
14:36:42.585,6.550,131,5.720563,8.318873,-4.803281,1,0.000000,0.000000,2.529702,0.018327,0.267637,-0.058391,0,0.000000,0.000000,0.000000,0,1,4.729058,5.583407,-1.500086,-4.760966,-1.277717,-0.668462,-0.027030,0.000709,0.227664,-0.008911,9.820008
14:36:42.636,6.600,132,5.658054,8.360260,-4.805464,1,0.000000,0.000000,2.534176,-0.024644,0.222261,-0.018157,0,0.000000,0.000000,0.000000,0,1,4.744912,5.521483,-1.537354,-4.757316,-1.283443,-0.678740,-0.021830,0.000518,0.227623,-0.008964,9.898673
14:36:42.686,6.650,133,5.595236,8.401176,-4.807658,1,0.000000,0.000000,2.574435,0.036825,0.205311,0.009547,0,0.000000,0.000000,0.000000,0,1,4.764047,5.458718,-1.564770,-4.758369,-1.289460,-0.686287,-0.022161,0.000789,0.227456,-0.008828,9.967003
14:36:42.736,6.700,134,5.532114,8.441620,-4.809862,1,0.000000,0.000000,2.528487,0.036391,0.209695,0.015647,0,0.000000,0.000000,0.000000,0,1,4.866407,5.394966,-1.592853,-4.759414,-1.296100,-0.693661,-0.022440,0.001053,0.227325,-0.008649,10.035536
14:36:42.786,6.750,135,5.468690,8.481588,-4.812077,1,0.000000,0.000000,2.580749,-0.021839,0.169025,-0.009304,0,0.000000,0.000000,0.000000,0,1,4.745789,5.340340,-1.628241,-4.756282,-1.299216,-0.702882,-0.018046,0.000885,0.226896,-0.008641,10.110798
14:36:42.836,6.800,136,5.404969,8.521080,-4.814302,1,0.000000,0.000000,2.596152,0.003839,0.235379,-0.031105,0,0.000000,0.000000,0.000000,0,1,4.885687,5.273737,-1.663622,-4.757255,-1.305563,-0.712630,-0.018616,0.000906,0.226958,-0.008803,10.185707
14:36:42.886,6.850,137,5.340953,8.560093,-4.816538,1,0.000000,0.000000,2.585166,0.010963,0.248340,0.005585,0,0.000000,0.000000,0.000000,0,1,4.871585,5.204375,-1.699077,-4.758154,-1.312722,-0.722318,-0.018963,0.000979,0.227113,-0.008700,10.260245
14:36:42.936,6.900,138,5.276647,8.598624,-4.818783,1,0.000000,0.000000,2.604653,0.014247,0.247502,0.005297,0,0.000000,0.000000,0.000000,0,1,4.786258,5.134610,-1.734460,-4.766928,-1.319732,-0.731974,-0.028202,0.001075,0.227260,-0.008623,10.334190
14:36:42.986,6.950,139,5.212054,8.636671,-4.821039,1,0.000000,0.000000,2.623677,-0.031378,0.190118,-0.009684,0,0.000000,0.000000,0.000000,0,1,4.859008,5.076257,-1.774402,-4.768352,-1.323098,-0.742296,-0.028640,0.000843,0.226994,-0.008631,10.412092
14:36:43.036,7.000,140,5.147177,8.674232,-4.823304,1,0.000000,0.000000,2.603002,0.005403,0.181478,-0.012328,0,0.000000,0.000000,0.000000,0,1,4.900516,5.017021,-1.808422,-4.769805,-1.327177,-0.750752,-0.029095,0.000875,0.226672,-0.008656,10.483599
14:36:43.086,7.050,141,5.082021,8.711306,-4.825580,1,0.000000,0.000000,2.595068,-0.023795,0.219613,-0.047677,0,0.000000,0.000000,0.000000,0,1,4.760183,4.953087,-1.849786,-4.768154,-1.332227,-0.761263,-0.026118,0.000701,0.226622,-0.008918,10.562035
14:36:43.136,7.100,142,5.016588,8.747889,-4.827865,1,0.000000,0.000000,2.607918,0.020003,0.218775,0.012318,0,0.000000,0.000000,0.000000,0,1,4.821181,4.886474,-1.884489,-4.769417,-1.338159,-0.770018,-0.026438,0.000836,0.226567,-0.008772,10.633335
14:36:43.186,7.150,143,4.950883,8.783981,-4.830159,1,0.000000,0.000000,2.647463,-0.009482,0.296282,-0.045608,0,0.000000,0.000000,0.000000,0,1,4.882757,4.808631,-1.929080,-4.770854,-1.346185,-0.782072,-0.027106,0.000765,0.227051,-0.009024,10.714169
14:36:43.237,7.200,144,4.884910,8.819578,-4.832463,1,0.000000,0.000000,2.634128,-0.022014,0.193784,-0.013425,0,0.000000,0.000000,0.000000,0,1,4.840505,4.748035,-1.970174,-4.791970,-1.349821,-0.792104,-0.049929,0.000608,0.226822,-0.009109,10.790696
14:36:43.287,7.250,145,4.818672,8.854679,-4.834776,1,0.000000,0.000000,2.633342,0.010994,0.279129,0.022330,0,0.000000,0.000000,0.000000,0,1,4.813853,4.671110,-2.011505,-4.794399,-1.357757,-0.802845,-0.050202,0.000679,0.227180,-0.008896,10.867261
14:36:43.337,7.300,146,4.752172,8.889282,-4.837098,1,0.000000,0.000000,2.622368,0.009538,0.210810,0.019988,0,0.000000,0.000000,0.000000,0,1,4.813559,4.605257,-2.049405,-4.796841,-1.362972,-0.811929,-0.050470,0.000739,0.227069,-0.008703,10.939748
14:36:43.387,7.350,147,4.685415,8.923386,-4.839429,1,0.000000,0.000000,2.668479,0.009309,0.232215,-0.047386,0,0.000000,0.000000,0.000000,0,1,4.900553,4.535579,-2.089142,-4.828707,-1.368599,-0.821796,-0.084225,0.000797,0.227103,-0.009040,11.013552
14:36:43.437,7.400,148,4.618404,8.956987,-4.841770,1,0.000000,0.000000,2.680024,-0.021653,0.253447,0.022745,0,0.000000,0.000000,0.000000,0,1,4.897139,4.464016,-2.135937,-4.832852,-1.374203,-0.833506,-0.084496,0.000646,0.227280,-0.008829,11.094002
14:36:43.487,7.450,149,4.551143,8.990084,-4.844118,1,0.000000,0.000000,2.702947,-0.015167,0.219817,-0.030632,0,0.000000,0.000000,0.000000,0,1,4.798977,4.397465,-2.180064,-4.837147,-1.378364,-0.844234,-0.085068,0.000541,0.227230,-0.008973,11.171207
14:36:43.537,7.500,150,4.483636,9.022676,-4.846476,1,0.000000,0.000000,2.692986,0.006626,0.283724,-0.020409,0,0.000000,0.000000,0.000000,0,1,4.860978,4.318420,-2.225178,-4.847091,-1.385743,-0.855627,-0.091980,0.000581,0.227605,-0.009062,11.249068
14:36:43.587,7.550,151,4.415887,9.054760,-4.848842,1,0.000000,0.000000,2.701486,-0.035841,0.227653,-0.008025,0,0.000000,0.000000,0.000000,0,1,4.899471,4.251406,-2.274446,-4.851699,-1.389704,-0.867373,-0.092427,0.000341,0.227605,-0.009056,11.330400
14:36:43.637,7.600,152,4.347899,9.086335,-4.851216,1,0.000000,0.000000,2.745663,-0.025341,0.219011,-0.032122,0,0.000000,0.000000,0.000000,0,1,4.864602,4.185004,-2.321915,-4.856393,-1.393116,-0.878676,-0.093015,0.000174,0.227549,-0.009204,11.409414
14:36:43.687,7.650,153,4.279676,9.117399,-4.853598,1,0.000000,0.000000,2.710700,0.010064,0.242713,-0.055177,0,0.000000,0.000000,0.000000,0,1,4.855497,4.111941,-2.365425,-4.859545,-1.398732,-0.889001,-0.091894,0.000238,0.227647,-0.009494,11.484050
14:36:43.737,7.700,154,4.211222,9.147950,-4.855989,1,0.000000,0.000000,2.697839,-0.007463,0.253559,0.001065,0,0.000000,0.000000,0.000000,0,1,4.774235,4.037912,-2.413243,-4.864127,-1.404463,-0.900243,-0.092311,0.000188,0.227814,-0.009427,11.562494
14:36:43.787,7.750,155,4.142542,9.177986,-4.858387,1,0.000000,0.000000,2.735013,0.058635,0.198491,-0.055230,0,0.000000,0.000000,0.000000,0,1,4.930391,3.968639,-2.446290,-4.868873,-1.409314,-0.907633,-0.093046,0.000563,0.227626,-0.009717,11.625581
14:36:43.837,7.800,156,4.073638,9.207506,-4.860793,1,0.000000,0.000000,2.740265,0.034596,0.232308,0.012954,0,0.000000,0.000000,0.000000,0,1,4.901310,3.894853,-2.486296,-4.881519,-1.414848,-0.916876,-0.102504,0.000780,0.227656,-0.009595,11.695187
14:36:43.887,7.850,157,4.004514,9.236508,-4.863207,1,0.000000,0.000000,2.723972,-0.037154,0.208848,-0.006667,0,0.000000,0.000000,0.000000,0,1,4.882766,3.830001,-2.537745,-4.886650,-1.417777,-0.928271,-0.102968,0.000539,0.227537,-0.009577,11.775570
14:36:43.938,7.900,158,3.935176,9.264991,-4.865628,1,0.000000,0.000000,2.722212,0.015486,0.190999,0.006063,0,0.000000,0.000000,0.000000,0,1,4.958646,3.764389,-2.579148,-4.891770,-1.421389,-0.937113,-0.103359,0.000633,0.227307,-0.009480,11.845398
14:36:43.988,7.950,159,3.865625,9.292952,-4.868057,1,0.000000,0.000000,2.742482,-0.068096,0.196480,-0.020043,0,0.000000,0.000000,0.000000,0,1,4.855268,3.703687,-2.636246,-4.884923,-1.422831,-0.949456,-0.090247,0.000204,0.227115,-0.009515,11.930309
14:36:44.038,8.000,160,3.795868,9.320391,-4.870493,1,0.000000,0.000000,2.755929,-0.014348,0.254888,-0.042535,0,0.000000,0.000000,0.000000,0,1,4.823989,3.628547,-2.688625,-4.889522,-1.427812,-0.961271,-0.090897,0.000114,0.227287,-0.009717,12.010196
14:36:44.088,8.050,161,3.725906,9.347305,-4.872936,1,0.000000,0.000000,2.761753,-0.069735,0.219701,0.004801,0,0.000000,0.000000,0.000000,0,1,4.825825,3.563611,-2.748927,-4.894042,-1.429892,-0.974339,-0.091302,-0.000318,0.227240,-0.009628,12.097339
14:36:44.138,8.100,162,3.655745,9.373694,-4.875386,1,0.000000,0.000000,2.787444,-0.017361,0.241118,0.034741,0,0.000000,0.000000,0.000000,0,1,4.820062,3.490798,-2.802029,-4.875825,-1.433902,-0.986030,-0.065863,-0.000422,0.227326,-0.009304,12.176840
14:36:44.188,8.150,163,3.585388,9.399555,-4.877843,1,0.000000,0.000000,2.803099,0.022322,0.191146,-0.074243,0,0.000000,0.000000,0.000000,0,1,4.919972,3.423832,-2.844723,-4.879274,-1.436866,-0.994915,-0.066664,-0.000283,0.227105,-0.009695,12.245344
14:36:44.238,8.200,164,3.514839,9.424888,-4.880307,1,0.000000,0.000000,2.801192,-0.011156,0.250572,-0.037382,0,0.000000,0.000000,0.000000,0,1,4.855915,3.348461,-2.898522,-4.882687,-1.441256,-1.006670,-0.067299,-0.000349,0.227247,-0.009860,12.324534
14:36:44.288,8.250,165,3.444102,9.449691,-4.882777,1,0.000000,0.000000,2.794849,-0.001508,0.174106,0.045803,0,0.000000,0.000000,0.000000,0,1,4.825259,3.286108,-2.945195,-4.868381,-1.443032,-1.015977,-0.047630,-0.000356,0.226927,-0.009487,12.395901
14:36:44.338,8.300,166,3.373181,9.473962,-4.885254,1,0.000000,0.000000,2.799412,0.011331,0.160239,-0.007564,0,0.000000,0.000000,0.000000,0,1,4.854605,3.225187,-2.988862,-4.870770,-1.444589,-1.024422,-0.048095,-0.000286,0.226528,-0.009476,12.463711
14:36:44.388,8.350,167,3.302080,9.497700,-4.887737,1,0.000000,0.000000,2.816562,-0.006093,0.240250,-0.034864,0,0.000000,0.000000,0.000000,0,1,4.909173,3.150799,-3.042516,-4.873248,-1.448557,-1.035754,-0.048704,-0.000321,0.226609,-0.009625,12.541136
14:36:44.438,8.400,168,3.230804,9.520903,-4.890226,1,0.000000,0.000000,2.848208,-0.014480,0.238089,-0.013758,0,0.000000,0.000000,0.000000,0,1,4.852938,3.077303,-3.098122,-4.869126,-1.451868,-1.047455,-0.041759,-0.000405,0.226677,-0.009633,12.619977
14:36:44.488,8.450,169,3.159355,9.543572,-4.892721,1,0.000000,0.000000,2.838271,0.010873,0.257204,-0.033005,0,0.000000,0.000000,0.000000,0,1,5.024548,2.998028,-3.151153,-4.871276,-1.456697,-1.058688,-0.042357,-0.000338,0.226857,-0.009769,12.695768
14:36:44.538,8.500,170,3.087739,9.565703,-4.895222,1,0.000000,0.000000,2.844268,0.014622,0.265076,0.021037,0,0.000000,0.000000,0.000000,0,1,4.893578,2.916738,-3.204710,-4.873332,-1.461856,-1.070026,-0.042684,-0.000251,0.227080,-0.009591,12.771577
14:36:44.589,8.550,171,3.015958,9.587297,-4.897728,1,0.000000,0.000000,2.887447,-0.025014,0.203211,-0.070753,0,0.000000,0.000000,0.000000,0,1,4.913874,2.850114,-3.261146,-4.886691,-1.463118,-1.081288,-0.056009,-0.000395,0.226942,-0.009968,12.849518
14:36:44.639,8.600,172,2.944018,9.608351,-4.900240,1,0.000000,0.000000,2.816085,0.000766,0.235056,-0.003312,0,0.000000,0.000000,0.000000,0,1,4.909169,2.775241,-3.315943,-4.889489,-1.467064,-1.092227,-0.056474,-0.000388,0.226988,-0.009930,12.925400
14:36:44.689,8.650,173,2.871922,9.628864,-4.902758,1,0.000000,0.000000,2.861919,0.004314,0.281718,0.005795,0,0.000000,0.000000,0.000000,0,1,4.827074,2.691056,-3.374591,-4.892289,-1.472349,-1.104491,-0.056890,-0.000361,0.227303,-0.009840,13.004717
14:36:44.739,8.700,174,2.799674,9.648836,-4.905281,1,0.000000,0.000000,2.849180,0.048973,0.182155,-0.018914,0,0.000000,0.000000,0.000000,0,1,4.963572,2.621694,-3.416837,-4.914939,-1.475311,-1.112283,-0.079809,-0.000079,0.227045,-0.009937,13.066889
14:36:44.789,8.750,175,2.727279,9.668266,-4.907809,1,0.000000,0.000000,2.853473,-0.048568,0.229073,-0.030439,0,0.000000,0.000000,0.000000,0,1,4.893579,2.551672,-3.482147,-4.918985,-1.477246,-1.125020,-0.080404,-0.000355,0.227057,-0.010052,13.151590
14:36:44.839,8.800,176,2.654740,9.687151,-4.910342,1,0.000000,0.000000,2.877335,-0.025399,0.212638,-0.027052,0,0.000000,0.000000,0.000000,0,1,4.803331,2.482695,-3.542203,-4.923056,-1.478956,-1.136500,-0.080993,-0.000496,0.226975,-0.010146,13.230479
14:36:44.889,8.850,177,2.582062,9.705492,-4.912880,1,0.000000,0.000000,2.897745,0.004424,0.280756,0.033733,0,0.000000,0.000000,0.000000,0,1,4.907808,2.397904,-3.603126,-4.921458,-1.483787,-1.148862,-0.074986,-0.000469,0.227277,-0.009891,13.309895
14:36:44.939,8.900,178,2.509248,9.723286,-4.915423,1,0.000000,0.000000,2.912098,-0.055211,0.267424,-0.019941,0,0.000000,0.000000,0.000000,0,1,4.899737,2.320805,-3.675009,-4.925240,-1.486262,-1.163078,-0.075529,-0.000774,0.227502,-0.009946,13.399624
14:36:44.989,8.950,179,2.436303,9.740534,-4.917970,1,0.000000,0.000000,2.882889,-0.037761,0.181006,0.008512,0,0.000000,0.000000,0.000000,0,1,4.938306,2.258777,-3.736396,-4.928987,-1.486383,-1.174106,-0.075934,-0.000980,0.227243,-0.009845,13.478104
14:36:45.039,9.000,180,2.363230,9.757234,-4.920522,1,0.000000,0.000000,2.915377,-0.007463,0.236171,-0.007827,0,0.000000,0.000000,0.000000,0,1,5.053703,2.183252,-3.797456,-4.967737,-1.489022,-1.185681,-0.115970,-0.001016,0.227293,-0.009912,13.555966
14:36:45.089,9.050,181,2.290035,9.773385,-4.923078,1,0.000000,0.000000,2.927228,-0.018245,0.212144,-0.015842,0,0.000000,0.000000,0.000000,0,1,4.875648,2.113290,-3.858982,-4.973560,-1.490347,-1.196983,-0.116493,-0.001110,0.227209,-0.009944,13.633606
14:36:45.139,9.100,182,2.216720,9.788986,-4.925638,1,0.000000,0.000000,2.928192,0.021259,0.214859,-0.079891,0,0.000000,0.000000,0.000000,0,1,4.934632,2.039048,-3.913573,-4.979553,-1.492899,-1.206935,-0.117333,-0.000988,0.227142,-0.010320,13.703817
14:36:45.189,9.150,183,2.143291,9.804036,-4.928202,1,0.000000,0.000000,2.941793,0.016419,0.235222,-0.036637,0,0.000000,0.000000,0.000000,0,1,4.940978,1.961118,-3.971536,-4.972630,-1.495900,-1.217685,-0.103421,-0.000894,0.227186,-0.010433,13.776848
14:36:45.239,9.200,184,2.069751,9.818535,-4.930770,1,0.000000,0.000000,2.926964,-0.035304,0.187730,-0.024730,0,0.000000,0.000000,0.000000,0,1,4.968185,1.897328,-4.035736,-4.977842,-1.495863,-1.228876,-0.104008,-0.001080,0.226972,-0.010510,13.855424
14:36:45.290,9.250,185,1.996104,9.832482,-4.933342,1,0.000000,0.000000,2.940310,0.024352,0.209273,0.009090,0,0.000000,0.000000,0.000000,0,1,4.919764,1.823542,-4.090718,-4.983013,-1.498191,-1.238584,-0.104439,-0.000943,0.226877,-0.010406,13.924358
14:36:45.340,9.300,186,1.922355,9.845876,-4.935918,1,0.000000,0.000000,2.939850,-0.017313,0.227933,-0.043255,0,0.000000,0.000000,0.000000,0,1,4.973821,1.749956,-4.156283,-4.984135,-1.499976,-1.250319,-0.100380,-0.001030,0.226883,-0.010570,14.003303
14:36:45.390,9.350,187,1.848507,9.858716,-4.938496,1,0.000000,0.000000,2.944790,-0.026204,0.243540,-0.016704,0,0.000000,0.000000,0.000000,0,1,4.978194,1.674046,-4.225734,-4.989179,-1.501992,-1.262834,-0.100936,-0.001164,0.226972,-0.010602,14.085621
14:36:45.440,9.400,188,1.774565,9.871001,-4.941079,1,0.000000,0.000000,2.971314,0.023326,0.183540,-0.015470,0,0.000000,0.000000,0.000000,0,1,4.857786,1.605174,-4.279953,-4.994250,-1.503051,-1.271884,-0.101490,-0.001035,0.226742,-0.010627,14.152067
14:36:45.490,9.450,189,1.700534,9.882731,-4.943664,1,0.000000,0.000000,3.010575,0.005463,0.193975,0.011186,0,0.000000,0.000000,0.000000,0,1,4.894901,1.535922,-4.339248,-4.969117,-1.503525,-1.281932,-0.067767,-0.001000,0.226569,-0.010451,14.222955
14:36:45.540,9.500,190,1.626416,9.893905,-4.946252,1,0.000000,0.000000,2.993752,-0.006202,0.290611,-0.028016,0,0.000000,0.000000,0.000000,0,1,5.011580,1.448315,-4.411134,-4.972552,-1.507225,-1.295230,-0.068368,-0.001028,0.226905,-0.010541,14.306172
14:36:45.590,9.550,191,1.552217,9.904523,-4.948843,1,0.000000,0.000000,2.998109,0.049986,0.212879,-0.013613,0,0.000000,0.000000,0.000000,0,1,5.004214,1.370558,-4.464426,-4.975990,-1.509831,-1.304274,-0.068909,-0.000762,0.226832,-0.010557,14.370123
14:36:45.640,9.600,192,1.477940,9.914583,-4.951437,1,0.000000,0.000000,3.006859,-0.011972,0.242643,-0.032388,0,0.000000,0.000000,0.000000,0,1,5.011868,1.292971,-4.533822,-4.988855,-1.511528,-1.316379,-0.080132,-0.000820,0.226913,-0.010688,14.449638
14:36:45.690,9.650,193,1.403590,9.924086,-4.954033,1,0.000000,0.000000,3.027449,-0.002224,0.252608,0.028954,0,0.000000,0.000000,0.000000,0,1,4.982107,1.212275,-4.602874,-4.992800,-1.513624,-1.328476,-0.080493,-0.000827,0.227046,-0.010487,14.528272
14:36:45.740,9.700,194,1.329171,9.933031,-4.956632,1,0.000000,0.000000,3.015856,-0.020089,0.216065,-0.016420,0,0.000000,0.000000,0.000000,0,1,4.913620,1.140821,-4.672367,-4.996850,-1.514049,-1.340074,-0.081045,-0.000926,0.226990,-0.010517,14.606667
14:36:45.790,9.750,195,1.254687,9.941417,-4.959233,1,0.000000,0.000000,3.049085,0.006666,0.230849,0.004682,0,0.000000,0.000000,0.000000,0,1,5.001626,1.063500,-4.738504,-5.001096,-1.515413,-1.351236,-0.081741,-0.000887,0.227009,-0.010441,14.681226
14:36:45.840,9.800,196,1.180142,9.949243,-4.961836,1,0.000000,0.000000,3.044821,-0.019601,0.239356,0.067491,0,0.000000,0.000000,0.000000,0,1,4.998587,0.987159,-4.811515,-5.005052,-1.516318,-1.363549,-0.081928,-0.000982,0.227072,-0.010051,14.762083
14:36:45.890,9.850,197,1.105540,9.956511,-4.964441,1,0.000000,0.000000,3.063801,0.014669,0.286213,0.012233,0,0.000000,0.000000,0.000000,0,1,4.903928,0.897433,-4.883112,-5.009116,-1.519631,-1.376142,-0.082329,-0.000903,0.227371,-0.009940,14.841149
14:36:45.940,9.900,198,1.030887,9.963218,-4.967048,1,0.000000,0.000000,3.047692,0.070574,0.238936,0.012494,0,0.000000,0.000000,0.000000,0,1,4.919466,0.811268,-4.938662,-4.986106,-1.523224,-1.385407,-0.052063,-0.000544,0.227429,-0.009774,14.903510
14:36:45.991,9.950,199,0.956185,9.969364,-4.969657,1,0.000000,0.000000,3.048310,0.029071,0.274944,0.041423,0,0.000000,0.000000,0.000000,0,1,5.046498,0.721968,-5.007274,-4.988628,-1.526759,-1.397192,-0.052335,-0.000396,0.227666,-0.009522,14.978481
14:36:46.041,10.000,200,0.881439,9.974950,-4.972267,1,0.000000,0.000000,3.031105,-0.024209,0.202849,0.003171,0,0.000000,0.000000,0.000000,0,1,5.058552,0.653402,-5.079632,-4.991231,-1.526433,-1.408542,-0.052754,-0.000515,0.227543,-0.009460,15.056321
14:36:46.091,10.050,201,0.806653,9.979975,-4.974879,1,0.000000,0.000000,3.074577,-0.020878,0.259653,0.036491,0,0.000000,0.000000,0.000000,0,1,4.995826,0.572626,-5.158180,-4.994370,-1.527610,-1.421563,-0.053682,-0.000615,0.227702,-0.009237,15.139976
14:36:46.141,10.100,202,0.731832,9.984438,-4.977492,1,0.000000,0.000000,3.059180,-0.004281,0.193179,-0.003709,0,0.000000,0.000000,0.000000,0,1,4.988248,0.503869,-5.226424,-4.997056,-1.527259,-1.431966,-0.054121,-0.000633,0.227532,-0.009210,15.212582
14:36:46.191,10.150,203,0.656979,9.988340,-4.980106,1,0.000000,0.000000,3.075274,0.042707,0.225914,-0.049263,0,0.000000,0.000000,0.000000,0,1,5.056206,0.422907,-5.289013,-4.999853,-1.529272,-1.441839,-0.054757,-0.000421,0.227524,-0.009403,15.279159
14:36:46.241,10.200,204,0.582099,9.991679,-4.982720,1,0.000000,0.000000,3.062672,-0.005838,0.240183,-0.040881,0,0.000000,0.000000,0.000000,0,1,5.007099,0.344373,-5.363981,-5.003952,-1.530395,-1.453753,-0.056821,-0.000447,0.227586,-0.009557,15.357515
14:36:46.291,10.250,205,0.507196,9.994457,-4.985336,1,0.000000,0.000000,3.126244,-0.032257,0.231738,0.014583,0,0.000000,0.000000,0.000000,0,1,5.009850,0.270648,-5.444158,-5.006762,-1.529691,-1.466302,-0.057199,-0.000602,0.227606,-0.009442,15.440442
14:36:46.341,10.300,206,0.432275,9.996673,-4.987952,1,0.000000,0.000000,3.113444,0.040136,0.258039,-0.036538,0,0.000000,0.000000,0.000000,0,1,4.983152,0.182955,-5.512668,-5.009687,-1.532247,-1.477304,-0.057789,-0.000405,0.227753,-0.009571,15.511360
14:36:46.391,10.350,207,0.357339,9.998326,-4.990569,1,0.000000,0.000000,3.112306,-0.008081,0.168151,-0.009770,0,0.000000,0.000000,0.000000,0,1,4.968531,0.119910,-5.581443,-4.999856,-1.530387,-1.487066,-0.043858,-0.000442,0.227466,-0.009547,15.581581
14:36:46.441,10.400,208,0.282393,9.999417,-4.993186,1,0.000000,0.000000,3.084637,-0.016801,0.201444,0.010120,0,0.000000,0.000000,0.000000,0,1,5.003251,0.050862,-5.656483,-5.002027,-1.529659,-1.498132,-0.044256,-0.000520,0.227342,-0.009454,15.657614
14:36:46.491,10.450,209,0.207441,9.999946,-4.995804,1,0.000000,0.000000,3.149526,0.034313,0.158205,0.006035,0,0.000000,0.000000,0.000000,0,1,4.971072,-0.015002,-5.715960,-5.004222,-1.528421,-1.506199,-0.044663,-0.000354,0.227012,-0.009382,15.717482
14:36:46.541,10.500,210,0.132486,9.999912,-4.998421,1,0.000000,0.000000,3.145141,0.005309,0.183212,0.069535,0,0.000000,0.000000,0.000000,0,1,5.015148,-0.082714,-5.785058,-5.008855,-1.527143,-1.515983,-0.047673,-0.000327,0.226805,-0.009018,15.786440
14:36:46.591,10.550,211,0.057535,9.999315,-5.001039,1,0.000000,0.000000,3.172316,0.022546,0.245266,0.026195,0,0.000000,0.000000,0.000000,0,1,4.969304,-0.165812,-5.858468,-5.011190,-1.528091,-1.527176,-0.047983,-0.000220,0.226892,-0.008854,15.859360
14:36:46.642,10.600,212,-0.017410,9.998156,-5.003656,1,0.000000,0.000000,3.132774,0.000357,0.222558,-0.004998,0,0.000000,0.000000,0.000000,0,1,4.972802,-0.241355,-5.934455,-5.013593,-1.528061,-1.538364,-0.048410,-0.000217,0.226872,-0.008837,15.934188
14:36:46.692,10.650,213,-0.092345,9.996435,-5.006272,1,0.000000,0.000000,3.174971,-0.039445,0.257008,0.021335,0,0.000000,0.000000,0.000000,0,1,5.069434,-0.319411,-6.023860,-5.031414,-1.527370,-1.551897,-0.066207,-0.000400,0.227012,-0.008727,16.021923
14:36:46.742,10.700,214,-0.167264,9.994151,-5.008889,1,0.000000,0.000000,3.159948,-0.007710,0.254776,-0.009867,0,0.000000,0.000000,0.000000,0,1,5.032609,-0.400879,-6.106782,-5.034737,-1.527778,-1.564362,-0.066648,-0.000434,0.227142,-0.008732,16.102649
14:36:46.792,10.750,215,-0.242164,9.991305,-5.011504,1,0.000000,0.000000,3.165098,-0.008820,0.235223,0.008527,0,0.000000,0.000000,0.000000,0,1,4.984535,-0.477962,-6.188121,-5.038048,-1.527472,-1.576237,-0.067013,-0.000473,0.227179,-0.008653,16.181166
14:36:46.842,10.800,216,-0.317041,9.987897,-5.014119,1,0.000000,0.000000,3.194328,0.008199,0.216342,0.042469,0,0.000000,0.000000,0.000000,0,1,4.976335,-0.553059,-6.263955,-5.022528,-1.526792,-1.586961,-0.045975,-0.000433,0.227129,-0.008386,16.253568
14:36:46.892,10.850,217,-0.391890,9.983928,-5.016733,1,0.000000,0.000000,3.202071,0.016871,0.235720,-0.003671,0,0.000000,0.000000,0.000000,0,1,4.952302,-0.633466,-6.340906,-5.024829,-1.526907,-1.598038,-0.046376,-0.000354,0.227168,-0.008365,16.326623
14:36:46.942,10.900,218,-0.466707,9.979397,-5.019346,1,0.000000,0.000000,3.216663,0.077140,0.192006,-0.013427,0,0.000000,0.000000,0.000000,0,1,5.070678,-0.712069,-6.399604,-5.027168,-1.527461,-1.605846,-0.046815,0.000000,0.227008,-0.008388,16.380840
14:36:46.992,10.950,219,-0.541489,9.974304,-5.021957,1,0.000000,0.000000,3.218512,0.028259,0.231889,-0.052796,0,0.000000,0.000000,0.000000,0,1,5.097146,-0.793158,-6.474613,-5.049127,-1.527653,-1.616457,-0.069513,0.000129,0.227030,-0.008622,16.450865
14:36:47.042,11.000,220,-0.616229,9.968650,-5.024567,1,0.000000,0.000000,3.210550,-0.045848,0.220099,0.022025,0,0.000000,0.000000,0.000000,0,1,5.031735,-0.861984,-6.564924,-5.052563,-1.525174,-1.628955,-0.069826,-0.000079,0.226999,-0.008486,16.535424
14:36:47.092,11.050,221,-0.690926,9.962436,-5.027175,1,0.000000,0.000000,3.210716,-0.038014,0.246082,0.020317,0,0.000000,0.000000,0.000000,0,1,5.117897,-0.937430,-6.657532,-5.056013,-1.523729,-1.642047,-0.070134,-0.000250,0.227085,-0.008358,16.621821
14:36:47.142,11.100,222,-0.765574,9.955661,-5.029782,1,0.000000,0.000000,3.224245,0.056269,0.235953,-0.026744,0,0.000000,0.000000,0.000000,0,1,4.971056,-1.023061,-6.728607,-5.033989,-1.524890,-1.651949,-0.041684,0.000003,0.227124,-0.008393,16.686256
14:36:47.192,11.150,223,-0.840168,9.948326,-5.032387,1,0.000000,0.000000,3.237125,0.049124,0.201385,-0.030702,0,0.000000,0.000000,0.000000,0,1,5.103279,-1.100154,-6.797162,-5.036120,-1.524641,-1.660941,-0.042188,0.000222,0.227010,-0.008491,16.747507
14:36:47.242,11.200,224,-0.914706,9.940432,-5.034990,1,0.000000,0.000000,3.247365,0.019387,0.201451,0.045822,0,0.000000,0.000000,0.000000,0,1,4.952912,-1.173269,-6.872789,-5.038141,-1.523321,-1.670820,-0.042396,0.000308,0.226896,-0.008253,16.815209
14:36:47.292,11.250,225,-0.989183,9.931979,-5.037591,1,0.000000,0.000000,3.239884,-0.038705,0.219458,0.006622,0,0.000000,0.000000,0.000000,0,1,5.118603,-1.242448,-6.964280,-5.062887,-1.520721,-1.683024,-0.068373,0.000135,0.226863,-0.008229,16.898176
14:36:47.343,11.300,226,-1.063594,9.922966,-5.040189,1,0.000000,0.000000,3.234373,-0.005947,0.171900,-0.005962,0,0.000000,0.000000,0.000000,0,1,5.039893,-1.305369,-7.042540,-5.066312,-1.517856,-1.692689,-0.068776,0.000108,0.226621,-0.008219,16.967249
14:36:47.393,11.350,227,-1.137935,9.913396,-5.042785,1,0.000000,0.000000,3.265206,-0.000291,0.207893,0.029852,0,0.000000,0.000000,0.000000,0,1,5.066043,-1.376987,-7.124959,-5.069693,-1.515901,-1.703328,-0.069037,0.000106,0.226539,-0.008054,17.040053
14:36:47.443,11.400,228,-1.212203,9.903268,-5.045379,1,0.000000,0.000000,3.292560,-0.016221,0.254049,-0.039451,0,0.000000,0.000000,0.000000,0,1,5.073206,-1.456630,-7.217888,-5.073214,-1.514466,-1.715913,-0.069566,0.000035,0.226659,-0.008189,17.122924
14:36:47.493,11.450,229,-1.286392,9.892583,-5.047970,1,0.000000,0.000000,3.274300,-0.008278,0.220243,-0.000515,0,0.000000,0.000000,0.000000,0,1,4.972123,-1.529711,-7.304931,-5.076690,-1.512506,-1.727175,-0.069947,-0.000001,0.226631,-0.008157,17.199260
14:36:47.543,11.500,230,-1.360500,9.881342,-5.050557,1,0.000000,0.000000,3.328292,0.036842,0.274439,0.000304,0,0.000000,0.000000,0.000000,0,1,5.068887,-1.621237,-7.390033,-5.080183,-1.513006,-1.738834,-0.070322,0.000159,0.226838,-0.008121,17.273368
14:36:47.593,11.550,231,-1.434521,9.869544,-5.053142,1,0.000000,0.000000,3.311734,0.021756,0.287899,0.010422,0,0.000000,0.000000,0.000000,0,1,5.157110,-1.713672,-7.481072,-5.104895,-1.513564,-1.751426,-0.094668,0.000252,0.227101,-0.008078,17.352939
14:36:47.643,11.600,232,-1.508451,9.857192,-5.055724,1,0.000000,0.000000,3.298974,-0.040519,0.219955,0.014950,0,0.000000,0.000000,0.000000,0,1,5.031775,-1.781850,-7.577107,-5.109602,-1.510233,-1.763568,-0.094989,0.000077,0.227071,-0.007981,17.436525
14:36:47.693,11.650,233,-1.582287,9.844285,-5.058302,1,0.000000,0.000000,3.330746,-0.037717,0.218849,0.045386,0,0.000000,0.000000,0.000000,0,1,5.035493,-1.849993,-7.672929,-5.114269,-1.506606,-1.775517,-0.095183,-0.000085,0.227035,-0.007756,17.519348
14:36:47.743,11.700,234,-1.656024,9.830824,-5.060877,1,0.000000,0.000000,3.321554,-0.066447,0.217427,-0.013286,0,0.000000,0.000000,0.000000,0,1,5.072372,-1.913445,-7.775633,-5.105560,-1.502077,-1.788235,-0.080329,-0.000367,0.226994,-0.007757,17.608395
14:36:47.793,11.750,235,-1.729658,9.816811,-5.063449,1,0.000000,0.000000,3.323954,-0.009293,0.221580,0.014671,0,0.000000,0.000000,0.000000,0,1,5.042671,-1.985960,-7.866558,-5.109552,-1.499550,-1.799462,-0.080637,-0.000405,0.226972,-0.007663,17.685286
14:36:47.843,11.800,236,-1.803185,9.802245,-5.066016,1,0.000000,0.000000,3.326980,0.031210,0.210584,-0.007625,0,0.000000,0.000000,0.000000,0,1,5.023582,-2.061818,-7.947197,-5.113593,-1.498043,-1.809180,-0.081020,-0.000272,0.226902,-0.007663,17.751390
14:36:47.893,11.850,237,-1.876601,9.787128,-5.068580,1,0.000000,0.000000,3.335417,0.029721,0.228542,0.063314,0,0.000000,0.000000,0.000000,0,1,5.128947,-2.141495,-8.031338,-5.120821,-1.496900,-1.819533,-0.084858,-0.000146,0.226909,-0.007375,17.820511
14:36:47.943,11.900,238,-1.949901,9.771460,-5.071140,1,0.000000,0.000000,3.326060,-0.015784,0.210921,0.032620,0,0.000000,0.000000,0.000000,0,1,5.026277,-2.210295,-8.123774,-5.125013,-1.493843,-1.830577,-0.085085,-0.000211,0.226842,-0.007210,17.897209
14:36:47.994,11.950,239,-2.023082,9.755242,-5.073695,1,0.000000,0.000000,3.334895,-0.028495,0.211247,0.011865,0,0.000000,0.000000,0.000000,0,1,5.181249,-2.277101,-8.219705,-5.129244,-1.490270,-1.841954,-0.085375,-0.000329,0.226777,-0.007132,17.976828
