timestamp,sim_time,iteration,true_pos_x,true_pos_y,true_pos_z,imu_valid,imu_roll,imu_pitch,imu_yaw,imu_acc_x,imu_acc_y,imu_acc_z,usbl_valid,usbl_pos_x,usbl_pos_y,usbl_pos_z,usbl_fix_used,depth_valid,depth_measurement,kf_pos_x,kf_pos_y,kf_pos_z,kf_vel_x,kf_vel_y,kf_vel_z,kf_acc_x,kf_acc_y,kf_acc_z,error_norm
14:29:50.161,0.000,0,10.168406,0.000000,-4.647959,1,0.000000,0.000000,1.579689,0.002770,0.207323,0.024074,0,0.000000,0.000000,0.000000,0,1,4.644083,10.168147,0.000001,-4.644093,-0.010358,0.000046,0.001394,0.002767,0.207137,0.024052,0.003875
14:29:50.211,0.050,1,10.168125,0.074999,-4.647969,1,0.000000,0.000000,1.576946,-0.003135,0.235068,0.036431,0,0.000000,0.000000,0.000000,0,1,4.609143,10.167300,-0.000010,-4.643970,-0.022109,-0.000185,0.003215,-0.000183,0.221096,0.030239,0.075120
14:29:50.261,0.100,2,10.167281,0.149994,-4.647998,1,0.000000,0.000000,1.595766,0.011479,0.260347,0.000289,0,0.000000,0.000000,0.000000,0,1,4.716225,10.165771,0.000016,-4.643871,-0.035129,0.000087,0.003230,0.003703,0.234176,0.020258,0.150043
14:29:50.311,0.150,3,10.165876,0.224981,-4.648048,1,0.000000,0.000000,1.598694,-0.019299,0.230935,-0.033222,0,0.000000,0.000000,0.000000,0,1,4.620820,10.163739,-0.000098,-4.622923,-0.046657,-0.001201,0.127569,-0.002046,0.233366,0.006895,0.226487
14:29:50.361,0.200,4,10.163909,0.299955,-4.648116,1,0.000000,0.000000,1.575163,0.029723,0.271826,-0.008859,0,0.000000,0.000000,0.000000,0,1,4.722962,10.160872,0.000033,-4.616561,-0.060270,0.000205,0.127448,0.004307,0.241056,0.003745,0.301592
14:29:50.411,0.250,5,10.161380,0.374912,-4.648205,1,0.000000,0.000000,1.591791,-0.008721,0.137622,0.033878,0,0.000000,0.000000,0.000000,0,1,4.677777,10.158334,-0.000044,-4.610101,-0.067145,-0.000403,0.128628,0.002136,0.223820,0.008766,0.376900
14:29:50.461,0.300,6,10.158289,0.449848,-4.648312,1,0.000000,0.000000,1.601270,0.018149,0.251299,-0.034812,0,0.000000,0.000000,0.000000,0,1,4.662049,10.154455,0.000066,-4.650807,-0.079722,0.000139,-0.056288,0.004423,0.227745,0.002526,0.449805
14:29:50.511,0.350,7,10.154636,0.524759,-4.648440,1,0.000000,0.000000,1.597251,0.018004,0.264282,-0.006366,0,0.000000,0.000000,0.000000,0,1,4.682405,10.149816,0.000201,-4.653635,-0.092950,0.000703,-0.056395,0.006121,0.232312,0.001414,0.524605
14:29:50.561,0.400,8,10.150422,0.599640,-4.648587,1,0.000000,0.000000,1.658682,0.017758,0.188013,-0.021140,0,0.000000,0.000000,0.000000,0,1,4.604956,10.145375,0.000358,-4.656519,-0.102349,0.000629,-0.056978,0.007413,0.227390,-0.001092,0.599356
14:29:50.611,0.450,9,10.145647,0.674488,-4.648754,1,0.000000,0.000000,1.621049,-0.031688,0.240013,-0.044367,0,0.000000,0.000000,0.000000,0,1,4.595996,10.139825,-0.000107,-4.615669,-0.114297,-0.001544,0.066271,0.003504,0.228652,-0.005390,0.675431
14:29:50.661,0.500,10,10.140311,0.749297,-4.648940,1,0.000000,0.000000,1.671288,-0.010107,0.215492,-0.024172,0,0.000000,0.000000,0.000000,0,1,4.634060,10.134010,-0.000392,-4.612406,-0.125009,-0.003173,0.065522,0.002266,0.227456,-0.007097,0.750605
14:29:50.711,0.550,11,10.134415,0.824064,-4.649146,1,0.000000,0.000000,1.636159,0.043260,0.243605,-0.051850,0,0.000000,0.000000,0.000000,0,1,4.736602,10.127219,0.000043,-4.609290,-0.137248,-0.001786,0.063933,0.005682,0.228802,-0.010826,0.825017
14:29:50.762,0.600,12,10.127958,0.898785,-4.649372,1,0.000000,0.000000,1.682260,0.009846,0.226073,0.004915,0,0.000000,0.000000,0.000000,0,1,4.616623,10.120114,-0.000003,-4.612352,-0.148522,-0.002563,0.049764,0.006003,0.228592,-0.009622,0.899585
14:29:50.812,0.650,13,10.120941,0.973456,-4.649617,1,0.000000,0.000000,1.644973,-0.024624,0.216505,0.009929,0,0.000000,0.000000,0.000000,0,1,4.639167,10.112629,-0.000674,-4.609820,-0.159269,-0.004612,0.049775,0.003815,0.227728,-0.008226,0.974978
14:29:50.862,0.700,14,10.113365,1.048072,-4.649881,1,0.000000,0.000000,1.675120,0.013200,0.224496,0.017036,0,0.000000,0.000000,0.000000,0,1,4.671343,10.104437,-0.000752,-4.607243,-0.170476,-0.005131,0.050043,0.004441,0.227513,-0.006542,1.049728
14:29:50.912,0.750,15,10.105230,1.122628,-4.650165,1,0.000000,0.000000,1.701106,-0.021467,0.223359,-0.017055,0,0.000000,0.000000,0.000000,0,1,4.648295,10.095731,-0.001555,-4.627588,-0.181506,-0.007670,0.007332,0.002822,0.227253,-0.007236,1.124450
14:29:50.962,0.800,16,10.096536,1.197122,-4.650469,1,0.000000,0.000000,1.666273,0.007977,0.257732,-0.025631,0,0.000000,0.000000,0.000000,0,1,4.710083,10.085722,-0.001876,-4.627294,-0.194365,-0.008443,0.006510,0.003125,0.229046,-0.008318,1.199271
14:29:51.012,0.850,17,10.087284,1.271548,-4.650792,1,0.000000,0.000000,1.710955,-0.014132,0.242858,0.040576,0,0.000000,0.000000,0.000000,0,1,4.632583,10.075424,-0.002734,-4.626759,-0.206362,-0.010791,0.007385,0.002166,0.229813,-0.005602,1.274564
14:29:51.062,0.900,18,10.077474,1.345903,-4.651135,1,0.000000,0.000000,1.703917,-0.017820,0.208105,-0.031171,0,0.000000,0.000000,0.000000,0,1,4.619824,10.065355,-0.003761,-4.623400,-0.216618,-0.013134,0.011394,0.001114,0.228671,-0.006941,1.350004
14:29:51.112,0.950,19,10.067108,1.420182,-4.651497,1,0.000000,0.000000,1.717965,-0.026934,0.220030,-0.010385,0,0.000000,0.000000,0.000000,0,1,4.711187,10.054488,-0.005149,-4.622853,-0.227409,-0.016123,0.010961,-0.000288,0.228239,-0.007113,1.425675
14:29:51.162,1.000,20,10.056185,1.494381,-4.651878,1,0.000000,0.000000,1.711520,-0.047011,0.203851,0.019269,0,0.000000,0.000000,0.000000,0,1,4.673951,10.043531,-0.007190,-4.622180,-0.237321,-0.019976,0.011292,-0.002513,0.227078,-0.005857,1.501918
14:29:51.212,1.050,21,10.044706,1.568496,-4.652279,1,0.000000,0.000000,1.722608,0.025817,0.200197,0.034821,0,0.000000,0.000000,0.000000,0,1,4.569709,10.032084,-0.007421,-4.599495,-0.247295,-0.020304,0.043092,-0.001225,0.225856,-0.003943,1.576852
14:29:51.262,1.100,22,10.032672,1.642523,-4.652699,1,0.000000,0.000000,1.737760,0.002629,0.239451,-0.022672,0,0.000000,0.000000,0.000000,0,1,4.658918,10.019046,-0.008395,-4.597431,-0.259113,-0.022104,0.042434,-0.001058,0.226447,-0.004757,1.651899
14:29:51.312,1.150,23,10.020083,1.716458,-4.653139,1,0.000000,0.000000,1.751815,-0.019747,0.215915,-0.033858,0,0.000000,0.000000,0.000000,0,1,4.643688,10.006157,-0.010094,-4.595477,-0.269638,-0.025080,0.041449,-0.001836,0.226008,-0.005969,1.727571
14:29:51.362,1.200,24,10.006941,1.790296,-4.653598,1,0.000000,0.000000,1.742286,-0.036437,0.205790,-0.027134,0,0.000000,0.000000,0.000000,0,1,4.678216,9.993089,-0.012441,-4.626486,-0.279600,-0.028730,-0.002114,-0.003220,0.225199,-0.006939,1.802994
14:29:51.413,1.250,25,9.993246,1.864033,-4.654076,1,0.000000,0.000000,1.772269,-0.007742,0.214320,0.010489,0,0.000000,0.000000,0.000000,0,1,4.676885,9.979195,-0.014064,-4.626512,-0.290038,-0.031316,-0.002037,-0.003394,0.224781,-0.006269,1.878351
14:29:51.463,1.300,26,9.978998,1.937665,-4.654573,1,0.000000,0.000000,1.742997,-0.036957,0.228336,0.000692,0,0.000000,0.000000,0.000000,0,1,4.663638,9.964367,-0.016818,-4.626579,-0.301099,-0.035093,-0.002175,-0.004637,0.224913,-0.006011,1.954739
14:29:51.513,1.350,27,9.964199,2.011189,-4.655090,1,0.000000,0.000000,1.748077,0.009339,0.244361,0.014070,0,0.000000,0.000000,0.000000,0,1,4.651828,9.948326,-0.018184,-4.635704,-0.313162,-0.036706,-0.013082,-0.004138,0.225607,-0.005336,2.029528
14:29:51.563,1.400,28,9.948849,2.084599,-4.655626,1,0.000000,0.000000,1.769550,0.004406,0.167336,0.029496,0,0.000000,0.000000,0.000000,0,1,4.677676,9.934477,-0.019632,-4.636171,-0.321330,-0.038416,-0.012516,-0.003843,0.223598,-0.004136,2.104370
14:29:51.613,1.450,29,9.932949,2.157892,-4.656181,1,0.000000,0.000000,1.748804,-0.009565,0.195400,0.004944,0,0.000000,0.000000,0.000000,0,1,4.641154,9.919204,-0.021748,-4.636742,-0.330870,-0.040722,-0.012497,-0.004034,0.222658,-0.003834,2.179770
14:29:51.663,1.500,30,9.916500,2.231064,-4.656756,1,0.000000,0.000000,1.794193,-0.001361,0.236438,0.017013,0,0.000000,0.000000,0.000000,0,1,4.703589,9.901851,-0.023785,-4.659864,-0.342380,-0.043327,-0.038550,-0.003948,0.223103,-0.003281,2.254898
14:29:51.713,1.550,31,9.899504,2.304110,-4.657349,1,0.000000,0.000000,1.808855,0.023387,0.217059,-0.048956,0,0.000000,0.000000,0.000000,0,1,4.646863,9.884623,-0.024916,-4.662069,-0.353027,-0.044761,-0.039784,-0.003094,0.222914,-0.004707,2.329078
14:29:51.763,1.600,32,9.881960,2.377026,-4.657962,1,0.000000,0.000000,1.805133,-0.045697,0.210277,0.001853,0,0.000000,0.000000,0.000000,0,1,4.629469,9.867354,-0.028932,-4.664018,-0.362960,-0.049537,-0.039861,-0.004385,0.222531,-0.004508,2.406010
14:29:51.813,1.650,33,9.863870,2.449809,-4.658594,1,0.000000,0.000000,1.801867,-0.021495,0.223079,-0.046019,0,0.000000,0.000000,0.000000,0,1,4.576871,9.848970,-0.032203,-4.637230,-0.373666,-0.053149,-0.008065,-0.004888,0.222547,-0.005554,2.482149
14:29:51.863,1.700,34,9.845236,2.522454,-4.659245,1,0.000000,0.000000,1.838573,0.006734,0.217739,-0.055885,0,0.000000,0.000000,0.000000,0,1,4.685985,9.830188,-0.034417,-4.637960,-0.384166,-0.055724,-0.009493,-0.004556,0.222410,-0.006990,2.557004
14:29:51.913,1.750,35,9.826057,2.594957,-4.659914,1,0.000000,0.000000,1.837404,-0.009785,0.250290,0.042636,0,0.000000,0.000000,0.000000,0,1,4.669838,9.809485,-0.037620,-4.638080,-0.396179,-0.059309,-0.008671,-0.004701,0.223184,-0.005614,2.632720
14:29:51.963,1.800,36,9.806335,2.667314,-4.660603,1,0.000000,0.000000,1.783311,0.014772,0.190935,-0.033446,0,0.000000,0.000000,0.000000,0,1,4.717701,9.790810,-0.039628,-4.663514,-0.405569,-0.060722,-0.037370,-0.004175,0.222312,-0.006527,2.706988
14:29:52.013,1.850,37,9.786072,2.739521,-4.661311,1,0.000000,0.000000,1.819823,0.004675,0.179848,0.010782,0,0.000000,0.000000,0.000000,0,1,4.631653,9.772232,-0.042142,-4.665276,-0.414251,-0.062946,-0.037312,-0.003942,0.221195,-0.006072,2.781701
14:29:52.064,1.900,38,9.765268,2.811575,-4.662037,1,0.000000,0.000000,1.858294,-0.031483,0.206322,-0.015036,0,0.000000,0.000000,0.000000,0,1,4.699212,9.752097,-0.046641,-4.667217,-0.423879,-0.067529,-0.037821,-0.004648,0.220814,-0.006302,2.858251
14:29:52.114,1.950,39,9.743925,2.883469,-4.662782,1,0.000000,0.000000,1.860009,0.025277,0.231171,-0.007528,0,0.000000,0.000000,0.000000,0,1,4.645616,9.729987,-0.048664,-4.661952,-0.435115,-0.069497,-0.030165,-0.003900,0.221072,-0.006282,2.932166
14:29:52.164,2.000,40,9.722043,2.955202,-4.663547,1,0.000000,0.000000,1.869632,0.071969,0.190975,0.008740,0,0.000000,0.000000,0.000000,0,1,4.699696,9.709131,-0.048218,-4.663366,-0.444683,-0.068982,-0.030159,-0.002050,0.220338,-0.005917,3.003448
14:29:52.214,2.050,41,9.699624,3.026769,-4.664329,1,0.000000,0.000000,1.891371,0.017152,0.208977,0.025518,0,0.000000,0.000000,0.000000,0,1,4.670634,9.687130,-0.050698,-4.664639,-0.454688,-0.071522,-0.029762,-0.001592,0.220068,-0.005170,3.077492
14:29:52.264,2.100,42,9.676669,3.098165,-4.665131,1,0.000000,0.000000,1.898542,0.019228,0.191237,0.044544,0,0.000000,0.000000,0.000000,0,1,4.618315,9.665562,-0.053099,-4.651524,-0.463820,-0.073896,-0.013073,-0.001108,0.219397,-0.003913,3.151313
14:29:52.314,2.150,43,9.653180,3.169387,-4.665951,1,0.000000,0.000000,1.902253,0.059720,0.228993,-0.037402,0,0.000000,0.000000,0.000000,0,1,4.679290,9.641247,-0.053621,-4.652414,-0.475119,-0.074603,-0.013955,0.000274,0.219616,-0.004672,3.223058
14:29:52.364,2.200,44,9.629158,3.240430,-4.666790,1,0.000000,0.000000,1.874436,0.010909,0.219357,-0.028533,0,0.000000,0.000000,0.000000,0,1,4.775475,9.617181,-0.056838,-4.653304,-0.485674,-0.077348,-0.014693,0.000510,0.219610,-0.005201,3.297318
14:29:52.414,2.250,45,9.604604,3.311292,-4.667648,1,0.000000,0.000000,1.896846,-0.019450,0.207849,0.001338,0,0.000000,0.000000,0.000000,0,1,4.623565,9.593430,-0.061858,-4.645005,-0.495345,-0.081726,-0.004758,0.000077,0.219354,-0.004992,3.373244
14:29:52.464,2.300,46,9.579519,3.381967,-4.668524,1,0.000000,0.000000,1.948213,-0.007736,0.196330,-0.033034,0,0.000000,0.000000,0.000000,0,1,4.723463,9.569798,-0.066352,-4.645444,-0.504348,-0.085955,-0.005556,-0.000090,0.218864,-0.005586,3.448409
14:29:52.514,2.350,47,9.553906,3.452452,-4.669418,1,0.000000,0.000000,1.915065,0.031323,0.216569,0.020733,0,0.000000,0.000000,0.000000,0,1,4.723690,9.544248,-0.068860,-4.645524,-0.514802,-0.088094,-0.005304,0.000565,0.218816,-0.005040,3.521406
14:29:52.564,2.400,48,9.527764,3.522742,-4.670331,1,0.000000,0.000000,1.937092,0.018331,0.245132,0.028487,0,0.000000,0.000000,0.000000,0,1,4.583367,9.516533,-0.072470,-4.627315,-0.526470,-0.091346,0.015577,0.000927,0.219353,-0.004222,3.595487
14:29:52.614,2.450,49,9.501097,3.592835,-4.671262,1,0.000000,0.000000,1.926269,0.038157,0.239001,0.012126,0,0.000000,0.000000,0.000000,0,1,4.683616,9.488466,-0.074973,-4.626429,-0.538060,-0.093473,0.015669,0.001672,0.219746,-0.003896,3.668103
14:29:52.664,2.500,50,9.473905,3.662725,-4.672212,1,0.000000,0.000000,1.951098,-0.034035,0.239268,-0.049135,0,0.000000,0.000000,0.000000,0,1,4.716580,9.460348,-0.082146,-4.625999,-0.548923,-0.099396,0.014606,0.000972,0.220129,-0.004779,3.745181
14:29:52.714,2.550,51,9.446190,3.732410,-4.673179,1,0.000000,0.000000,1.942518,-0.008070,0.210989,0.019271,0,0.000000,0.000000,0.000000,0,1,4.754530,9.433303,-0.087723,-4.662772,-0.558666,-0.103705,-0.027663,0.000798,0.219953,-0.004600,3.820168
14:29:52.765,2.600,52,9.417954,3.801884,-4.674166,1,0.000000,0.000000,1.959857,0.028058,0.257989,0.030690,0,0.000000,0.000000,0.000000,0,1,4.600122,9.402402,-0.091540,-4.663922,-0.570968,-0.106869,-0.027272,0.001312,0.220671,-0.003938,3.893468
14:29:52.815,2.650,53,9.389197,3.871145,-4.675170,1,0.000000,0.000000,1.945934,-0.023855,0.200102,0.028983,0,0.000000,0.000000,0.000000,0,1,4.636716,9.375182,-0.098485,-4.665043,-0.580015,-0.111880,-0.026869,0.000846,0.220290,-0.003331,3.969667
14:29:52.865,2.700,54,9.359923,3.940188,-4.676192,1,0.000000,0.000000,1.948237,0.030764,0.215085,0.050492,0,0.000000,0.000000,0.000000,0,1,4.644112,9.346013,-0.102103,-4.659603,-0.590308,-0.114392,-0.018857,0.001390,0.220195,-0.002311,4.042349
14:29:52.915,2.750,55,9.330131,4.009009,-4.677232,1,0.000000,0.000000,1.986923,0.041651,0.173661,-0.020497,0,0.000000,0.000000,0.000000,0,1,4.714031,9.319088,-0.104725,-4.660669,-0.598544,-0.116359,-0.019276,0.002109,0.219365,-0.002634,4.113782
14:29:52.965,2.800,56,9.299825,4.077605,-4.678291,1,0.000000,0.000000,1.981835,0.051491,0.278408,-0.050957,0,0.000000,0.000000,0.000000,0,1,4.740388,9.284291,-0.107743,-4.661990,-0.612008,-0.118843,-0.020241,0.002975,0.220400,-0.003477,4.185408
14:29:53.015,2.850,57,9.269005,4.145971,-4.679367,1,0.000000,0.000000,1.999717,-0.014676,0.246888,0.046200,0,0.000000,0.000000,0.000000,0,1,4.576380,9.251720,-0.115319,-4.637604,-0.623195,-0.124420,0.008790,0.002671,0.220857,-0.002447,4.261530
14:29:53.065,2.900,58,9.237673,4.214104,-4.680461,1,0.000000,0.000000,1.980352,0.047600,0.193698,-0.005951,0,0.000000,0.000000,0.000000,0,1,4.739524,9.221820,-0.118106,-4.637190,-0.632532,-0.126233,0.008612,0.003433,0.220397,-0.002506,4.332455
14:29:53.115,2.950,59,9.205832,4.282000,-4.681573,1,0.000000,0.000000,2.041378,0.004455,0.197112,-0.029351,0,0.000000,0.000000,0.000000,0,1,4.577627,9.191654,-0.124217,-4.636953,-0.641315,-0.130778,0.008049,0.003450,0.220009,-0.002951,4.406466
14:29:53.165,3.000,60,9.173483,4.349655,-4.682703,1,0.000000,0.000000,2.017775,-0.013902,0.264208,0.009923,0,0.000000,0.000000,0.000000,0,1,4.608662,9.156212,-0.132656,-4.628401,-0.653259,-0.136696,0.017251,0.003165,0.220733,-0.002685,4.482673
14:29:53.215,3.050,61,9.140628,4.417066,-4.683850,1,0.000000,0.000000,2.001339,0.064479,0.245216,0.025762,0,0.000000,0.000000,0.000000,0,1,4.614777,9.120739,-0.135206,-4.627366,-0.665212,-0.138466,0.017539,0.004154,0.221128,-0.002230,4.552666
14:29:53.265,3.100,62,9.107268,4.484228,-4.685015,1,0.000000,0.000000,2.055660,0.020438,0.268648,0.013120,0,0.000000,0.000000,0.000000,0,1,4.662282,9.083364,-0.141548,-4.626387,-0.677566,-0.143182,0.017664,0.004413,0.221882,-0.001988,4.626209
14:29:53.315,3.150,63,9.073406,4.551138,-4.686197,1,0.000000,0.000000,2.050264,-0.054864,0.232937,-0.001841,0,0.000000,0.000000,0.000000,0,1,4.682463,9.049082,-0.153621,-4.642004,-0.687368,-0.151086,-0.001153,0.003486,0.222055,-0.002095,4.705029
14:29:53.366,3.200,64,9.039043,4.617792,-4.687397,1,0.000000,0.000000,2.003154,0.024986,0.242143,-0.043195,0,0.000000,0.000000,0.000000,0,1,4.748637,9.012591,-0.159823,-4.642308,-0.698738,-0.154777,-0.001835,0.003817,0.222364,-0.002722,4.777900
14:29:53.416,3.250,65,9.004182,4.684186,-4.688615,1,0.000000,0.000000,2.050444,-0.025523,0.264972,0.012725,0,0.000000,0.000000,0.000000,0,1,4.668683,8.974333,-0.170606,-4.642302,-0.710395,-0.161648,-0.001745,0.003373,0.223010,-0.002490,4.855104
14:29:53.466,3.300,66,8.968824,4.750317,-4.689849,1,0.000000,0.000000,2.038407,0.027646,0.265818,0.001223,0,0.000000,0.000000,0.000000,0,1,4.610668,8.934727,-0.177383,-4.633185,-0.722769,-0.165866,0.008604,0.003735,0.223649,-0.002377,4.928143
14:29:53.516,3.350,67,8.932971,4.816180,-4.691101,1,0.000000,0.000000,2.052670,-0.006051,0.219044,-0.048601,0,0.000000,0.000000,0.000000,0,1,4.654169,8.898855,-0.186554,-4.633021,-0.732426,-0.171297,0.007871,0.003591,0.223581,-0.003051,5.003187
14:29:53.566,3.400,68,8.896626,4.881772,-4.692371,1,0.000000,0.000000,2.085204,-0.003493,0.190930,-0.016185,0,0.000000,0.000000,0.000000,0,1,4.700080,8.864845,-0.195393,-4.632713,-0.740595,-0.176581,0.007537,0.003488,0.223108,-0.003240,5.077615
14:29:53.616,3.450,69,8.859790,4.947090,-4.693657,1,0.000000,0.000000,2.073714,0.018565,0.251855,-0.013530,0,0.000000,0.000000,0.000000,0,1,4.750550,8.824890,-0.203476,-4.666625,-0.752016,-0.181440,-0.031591,0.003704,0.223518,-0.003593,5.150756
14:29:53.666,3.500,70,8.822466,5.012130,-4.694960,1,0.000000,0.000000,2.090038,-0.016914,0.195201,-0.059376,0,0.000000,0.000000,0.000000,0,1,4.732688,8.789808,-0.214052,-4.668512,-0.760198,-0.187454,-0.032473,0.003413,0.223120,-0.004372,5.226351
14:29:53.716,3.550,71,8.784655,5.076888,-4.696281,1,0.000000,0.000000,2.092828,0.027301,0.334211,0.065943,0,0.000000,0.000000,0.000000,0,1,4.646191,8.741418,-0.223154,-4.669720,-0.775560,-0.193144,-0.031770,0.003745,0.224663,-0.003404,5.300285
14:29:53.766,3.600,72,8.746359,5.141360,-4.697618,1,0.000000,0.000000,2.090347,0.003563,0.237113,-0.056662,0,0.000000,0.000000,0.000000,0,1,4.697066,8.701287,-0.233159,-4.679019,-0.785995,-0.198728,-0.041009,0.003743,0.224833,-0.004170,5.374740
14:29:53.816,3.650,73,8.707582,5.205543,-4.698972,1,0.000000,0.000000,2.117409,-0.040087,0.269656,-0.014241,0,0.000000,0.000000,0.000000,0,1,4.778227,8.658404,-0.247917,-4.681127,-0.797257,-0.207084,-0.041338,0.003150,0.225439,-0.004305,5.453711
14:29:53.866,3.700,74,8.668325,5.269433,-4.700343,1,0.000000,0.000000,2.131371,-0.005712,0.195658,-0.023768,0,0.000000,0.000000,0.000000,0,1,4.691267,8.621171,-0.258735,-4.683311,-0.805354,-0.212970,-0.041796,0.003032,0.225042,-0.004562,5.528395
14:29:53.916,3.750,75,8.628589,5.333027,-4.701731,1,0.000000,0.000000,2.133527,-0.001395,0.177094,-0.040789,0,0.000000,0.000000,0.000000,0,1,4.700795,8.585178,-0.269125,-4.690024,-0.812617,-0.218411,-0.047471,0.002974,0.224411,-0.005059,5.602332
14:29:53.966,3.800,76,8.588379,5.396320,-4.703135,1,0.000000,0.000000,2.133969,-0.022723,0.219729,-0.044423,0,0.000000,0.000000,0.000000,0,1,4.731976,8.545196,-0.282520,-4.692599,-0.821612,-0.225430,-0.048172,0.002640,0.224350,-0.005565,5.679014
14:29:54.016,3.850,77,8.547695,5.459311,-4.704556,1,0.000000,0.000000,2.117468,0.066129,0.238244,-0.048561,0,0.000000,0.000000,0.000000,0,1,4.743942,8.501418,-0.288157,-4.695250,-0.832795,-0.228334,-0.048962,0.003454,0.224528,-0.006111,5.747662
14:29:54.066,3.900,78,8.506540,5.521994,-4.705993,1,0.000000,0.000000,2.142317,-0.036610,0.262499,-0.053728,0,0.000000,0.000000,0.000000,0,1,4.698170,8.456629,-0.304268,-4.698043,-0.843568,-0.236684,-0.049914,0.002947,0.225009,-0.006708,5.826481
14:29:54.117,3.950,79,8.464916,5.584366,-4.707446,1,0.000000,0.000000,2.176133,0.032842,0.239255,0.000580,0,0.000000,0.000000,0.000000,0,1,4.721582,8.412269,-0.313622,-4.700513,-0.853997,-0.241755,-0.050171,0.003321,0.225187,-0.006618,5.898228
14:29:54.167,4.000,80,8.422826,5.646425,-4.708916,1,0.000000,0.000000,2.161615,-0.047767,0.235734,-0.043800,0,0.000000,0.000000,0.000000,0,1,4.758833,8.369282,-0.331091,-4.703225,-0.863208,-0.250448,-0.050924,0.002690,0.225317,-0.007073,5.977759
14:29:54.217,4.050,81,8.380272,5.708166,-4.710402,1,0.000000,0.000000,2.181113,0.014381,0.236014,0.037211,0,0.000000,0.000000,0.000000,0,1,4.707684,8.324594,-0.342821,-4.706150,-0.873189,-0.256399,-0.051462,0.002833,0.225447,-0.006541,6.051244
14:29:54.267,4.100,82,8.337256,5.769585,-4.711904,1,0.000000,0.000000,2.164313,0.018933,0.159987,-0.025057,0,0.000000,0.000000,0.000000,0,1,4.663074,8.286959,-0.352848,-4.708815,-0.879773,-0.260872,-0.051982,0.003026,0.224659,-0.006762,6.122641
14:29:54.317,4.150,83,8.293782,5.830680,-4.713422,1,0.000000,0.000000,2.197873,-0.048775,0.211481,-0.003829,0,0.000000,0.000000,0.000000,0,1,4.779642,8.245158,-0.371051,-4.711408,-0.887573,-0.269576,-0.052288,0.002410,0.224502,-0.006727,6.201922
14:29:54.367,4.200,84,8.249850,5.891448,-4.714957,1,0.000000,0.000000,2.197937,0.012399,0.182885,-0.079835,0,0.000000,0.000000,0.000000,0,1,4.703753,8.204620,-0.382779,-4.711343,-0.894933,-0.274975,-0.049951,0.002527,0.224012,-0.007564,6.274391
14:29:54.417,4.250,85,8.205465,5.951883,-4.716507,1,0.000000,0.000000,2.204832,-0.050607,0.243995,0.026152,0,0.000000,0.000000,0.000000,0,1,4.752566,8.158724,-0.402654,-4.713703,-0.904161,-0.284295,-0.049992,0.001909,0.224245,-0.007176,6.354709
14:29:54.467,4.300,86,8.160627,6.011984,-4.718072,1,0.000000,0.000000,2.235136,-0.040679,0.241744,0.012102,0,0.000000,0.000000,0.000000,0,1,4.805605,8.112402,-0.421907,-4.716119,-0.913212,-0.293388,-0.050150,0.001420,0.224446,-0.006957,6.434073
14:29:54.517,4.350,87,8.115341,6.071747,-4.719654,1,0.000000,0.000000,2.241821,0.006580,0.159795,-0.008203,0,0.000000,0.000000,0.000000,0,1,4.625406,8.073273,-0.434728,-4.691665,-0.919114,-0.299068,-0.019948,0.001479,0.223711,-0.006844,6.506672
14:29:54.567,4.400,88,8.069607,6.131169,-4.721251,1,0.000000,0.000000,2.228001,0.018758,0.261882,0.018024,0,0.000000,0.000000,0.000000,0,1,4.670827,8.022593,-0.448885,-4.692567,-0.930060,-0.305637,-0.020051,0.001673,0.224140,-0.006568,6.580284
14:29:54.617,4.450,89,8.023430,6.190245,-4.722863,1,0.000000,0.000000,2.231634,0.013608,0.230947,-0.004370,0,0.000000,0.000000,0.000000,0,1,4.773715,7.974845,-0.463204,-4.693567,-0.939464,-0.312004,-0.020357,0.001805,0.224216,-0.006544,6.653691
14:29:54.667,4.500,90,7.976811,6.248973,-4.724491,1,0.000000,0.000000,2.234118,0.017484,0.231366,-0.045669,0,0.000000,0.000000,0.000000,0,1,4.709241,7.926484,-0.477430,-4.698972,-0.948936,-0.318223,-0.025830,0.001978,0.224294,-0.006988,6.726640
14:29:54.718,4.550,91,7.929753,6.307350,-4.726135,1,0.000000,0.000000,2.260996,0.011726,0.215758,-0.007435,0,0.000000,0.000000,0.000000,0,1,4.738862,7.879522,-0.492226,-4.700275,-0.957409,-0.324698,-0.026183,0.002084,0.224201,-0.006993,6.799811
14:29:54.768,4.600,92,7.882259,6.365372,-4.727793,1,0.000000,0.000000,2.288047,-0.054652,0.212486,-0.019886,0,0.000000,0.000000,0.000000,0,1,4.717367,7.834192,-0.514691,-4.701650,-0.964457,-0.334416,-0.026658,0.001474,0.224075,-0.007130,6.880280
14:29:54.818,4.650,93,7.834332,6.423036,-4.729467,1,0.000000,0.000000,2.293860,-0.000694,0.187462,0.040475,0,0.000000,0.000000,0.000000,0,1,4.734617,7.789949,-0.530889,-4.711974,-0.971183,-0.341269,-0.036972,0.001451,0.223686,-0.006669,6.954089
14:29:54.868,4.700,94,7.785973,6.480338,-4.731156,1,0.000000,0.000000,2.282963,0.026050,0.211776,0.009422,0,0.000000,0.000000,0.000000,0,1,4.729139,7.741883,-0.545012,-4.713768,-0.979560,-0.347192,-0.037161,0.001709,0.223561,-0.006501,7.025511
14:29:54.918,4.750,95,7.737187,6.537276,-4.732859,1,0.000000,0.000000,2.277221,-0.031179,0.271164,-0.037005,0,0.000000,0.000000,0.000000,0,1,4.782045,7.688100,-0.567629,-4.715766,-0.989749,-0.356696,-0.037772,0.001367,0.224056,-0.006816,7.105095
14:29:54.968,4.800,96,7.687975,6.593847,-4.734578,1,0.000000,0.000000,2.249259,0.006358,0.195094,0.054982,0,0.000000,0.000000,0.000000,0,1,4.657809,7.641623,-0.584257,-4.700143,-0.997271,-0.362952,-0.017995,0.001418,0.223758,-0.006114,7.178336
14:29:55.018,4.850,97,7.638340,6.650046,-4.736311,1,0.000000,0.000000,2.332479,0.010708,0.219153,0.006152,0,0.000000,0.000000,0.000000,0,1,4.754011,7.591833,-0.601376,-4.701004,-1.005366,-0.370118,-0.018195,0.001513,0.223711,-0.005990,7.251657
14:29:55.068,4.900,98,7.588286,6.705872,-4.738059,1,0.000000,0.000000,2.302890,-0.065740,0.206520,-0.004205,0,0.000000,0.000000,0.000000,0,1,4.767640,7.545328,-0.627536,-4.701914,-1.011784,-0.380310,-0.018478,0.000834,0.223537,-0.005972,7.333623
14:29:55.118,4.950,99,7.537815,6.761320,-4.739821,1,0.000000,0.000000,2.344453,-0.022345,0.240413,-0.056954,0,0.000000,0.000000,0.000000,0,1,4.685713,7.493203,-0.650012,-4.698056,-1.020171,-0.389442,-0.013571,0.000602,0.223706,-0.006456,7.411584
14:29:55.168,5.000,100,7.486929,6.816388,-4.741598,1,0.000000,0.000000,2.303752,-0.013929,0.232459,0.007177,0,0.000000,0.000000,0.000000,0,1,4.674885,7.441366,-0.671685,-4.698694,-1.028645,-0.397719,-0.013780,0.000458,0.223793,-0.006322,7.488335
14:29:55.218,5.050,101,7.435632,6.871072,-4.743390,1,0.000000,0.000000,2.319256,-0.004190,0.253259,0.034826,0,0.000000,0.000000,0.000000,0,1,4.784038,7.386285,-0.693227,-4.699225,-1.038114,-0.406054,-0.013734,0.000413,0.224082,-0.005924,7.564589
14:29:55.268,5.100,102,7.383927,6.925370,-4.745195,1,0.000000,0.000000,2.326789,0.047314,0.238629,0.007398,0,0.000000,0.000000,0.000000,0,1,4.697917,7.330929,-0.708418,-4.699298,-1.047784,-0.411863,-0.013271,0.000868,0.224223,-0.005794,7.634110
14:29:55.319,5.150,103,7.331816,6.979278,-4.747015,1,0.000000,0.000000,2.329317,-0.004863,0.201056,-0.014998,0,0.000000,0.000000,0.000000,0,1,4.795301,7.281386,-0.729177,-4.700001,-1.054799,-0.419381,-0.013636,0.000813,0.224000,-0.005881,7.708764
14:29:55.369,5.200,104,7.279302,7.032794,-4.748849,1,0.000000,0.000000,2.351729,0.007067,0.232511,0.005511,0,0.000000,0.000000,0.000000,0,1,4.813303,7.227181,-0.749837,-4.700646,-1.063282,-0.427110,-0.013833,0.000872,0.224081,-0.005774,7.782955
14:29:55.419,5.250,105,7.226389,7.085914,-4.750697,1,0.000000,0.000000,2.368811,-0.009914,0.204900,-0.000308,0,0.000000,0.000000,0.000000,0,1,4.764503,7.176592,-0.772118,-4.719592,-1.070072,-0.435232,-0.034765,0.000771,0.223900,-0.005792,7.858252
14:29:55.469,5.300,106,7.173079,7.138636,-4.752558,1,0.000000,0.000000,2.379808,-0.008720,0.216644,-0.072108,0,0.000000,0.000000,0.000000,0,1,4.768849,7.124135,-0.795044,-4.721563,-1.077323,-0.443597,-0.035578,0.000682,0.223832,-0.006404,7.933891
14:29:55.519,5.350,107,7.119376,7.190956,-4.754434,1,0.000000,0.000000,2.376848,-0.020456,0.228926,0.016179,0,0.000000,0.000000,0.000000,0,1,4.825030,7.070145,-0.820306,-4.723265,-1.084927,-0.452693,-0.035711,0.000486,0.223880,-0.006198,8.011474
14:29:55.569,5.400,108,7.065282,7.242872,-4.756323,1,0.000000,0.000000,2.379486,-0.031621,0.217444,-0.002233,0,0.000000,0.000000,0.000000,0,1,4.789962,7.017654,-0.847064,-4.743814,-1.091776,-0.462088,-0.057247,0.000192,0.223820,-0.006231,8.090086
14:29:55.619,5.450,109,7.010800,7.294380,-4.758225,1,0.000000,0.000000,2.410052,0.001965,0.212926,0.004833,0,0.000000,0.000000,0.000000,0,1,4.795463,6.964233,-0.869759,-4.746648,-1.098807,-0.470121,-0.057473,0.000208,0.223721,-0.006132,8.164280
14:29:55.669,5.500,110,6.955934,7.345478,-4.760141,1,0.000000,0.000000,2.380815,0.044494,0.190425,0.038567,0,0.000000,0.000000,0.000000,0,1,4.810816,6.911870,-0.886455,-4.749365,-1.105899,-0.475601,-0.057419,0.000607,0.223421,-0.005734,8.232057
14:29:55.719,5.550,111,6.900686,7.396163,-4.762070,1,0.000000,0.000000,2.379912,-0.025063,0.226434,-0.011022,0,0.000000,0.000000,0.000000,0,1,4.799378,6.856927,-0.913942,-4.765888,-1.113265,-0.484864,-0.073178,0.000378,0.223448,-0.005829,8.310221
14:29:55.769,5.600,112,6.845060,7.446431,-4.764013,1,0.000000,0.000000,2.404726,0.006906,0.192182,-0.005343,0,0.000000,0.000000,0.000000,0,1,4.747430,6.804999,-0.936352,-4.769552,-1.119528,-0.492223,-0.073466,0.000435,0.223172,-0.005825,8.382881
14:29:55.819,5.650,113,6.789058,7.496281,-4.765969,1,0.000000,0.000000,2.385386,0.005130,0.211633,0.007433,0,0.000000,0.000000,0.000000,0,1,4.734673,6.750202,-0.960097,-4.773186,-1.126782,-0.499889,-0.073653,0.000477,0.223070,-0.005710,8.456470
14:29:55.869,5.700,114,6.732685,7.545709,-4.767937,1,0.000000,0.000000,2.417088,-0.049860,0.246195,-0.020336,0,0.000000,0.000000,0.000000,0,1,4.809092,6.692496,-0.993008,-4.786231,-1.134212,-0.510909,-0.084589,0.000039,0.223272,-0.005868,8.538832
14:29:55.919,5.750,115,6.675943,7.594713,-4.769919,1,0.000000,0.000000,2.427946,0.021329,0.236558,0.028201,0,0.000000,0.000000,0.000000,0,1,4.743875,6.632952,-1.016384,-4.790362,-1.142533,-0.518676,-0.084634,0.000222,0.223386,-0.005578,8.611228
14:29:55.969,5.800,116,6.618835,7.643289,-4.771913,1,0.000000,0.000000,2.430350,0.024266,0.194962,-0.024858,0,0.000000,0.000000,0.000000,0,1,4.759458,6.578587,-1.038087,-4.794667,-1.149069,-0.525498,-0.085060,0.000428,0.223143,-0.005741,8.681499
14:29:56.020,5.850,117,6.561364,7.691436,-4.773920,1,0.000000,0.000000,2.454780,0.022242,0.249641,-0.001374,0,0.000000,0.000000,0.000000,0,1,4.777359,6.516400,-1.062635,-4.792679,-1.157767,-0.533695,-0.078256,0.000613,0.223368,-0.005683,8.754207
14:29:56.070,5.900,118,6.503535,7.739150,-4.775939,1,0.000000,0.000000,2.455043,0.027937,0.177928,0.009905,0,0.000000,0.000000,0.000000,0,1,4.796437,6.463541,-1.083845,-4.796552,-1.163442,-0.540185,-0.078429,0.000842,0.222986,-0.005554,8.823110
14:29:56.120,5.950,119,6.445349,7.786428,-4.777971,1,0.000000,0.000000,2.468487,0.061488,0.231650,-0.025024,0,0.000000,0.000000,0.000000,0,1,4.796534,6.401427,-1.102917,-4.800546,-1.172057,-0.546407,-0.078852,0.001348,0.223058,-0.005714,8.889482
14:29:56.170,6.000,120,6.386810,7.833269,-4.780015,1,0.000000,0.000000,2.430139,0.037148,0.196245,-0.013365,0,0.000000,0.000000,0.000000,0,1,4.738273,6.344904,-1.124236,-4.785369,-1.178968,-0.552693,-0.057508,0.001644,0.222836,-0.005713,8.957605
14:29:56.220,6.050,121,6.327923,7.879669,-4.782072,1,0.000000,0.000000,2.488802,-0.049062,0.232955,-0.009966,0,0.000000,0.000000,0.000000,0,1,4.806588,6.286545,-1.159755,-4.788265,-1.185177,-0.563910,-0.057823,0.001228,0.222919,-0.005748,9.039521
14:29:56.270,6.100,122,6.268689,7.925626,-4.784140,1,0.000000,0.000000,2.473108,0.042285,0.185839,-0.027951,0,0.000000,0.000000,0.000000,0,1,4.748705,6.230622,-1.180641,-4.791236,-1.191393,-0.570055,-0.058272,0.001562,0.222618,-0.005926,9.106349
14:29:56.320,6.150,123,6.209112,7.971137,-4.786221,1,0.000000,0.000000,2.489185,-0.010304,0.205191,-0.002567,0,0.000000,0.000000,0.000000,0,1,4.726416,6.173932,-1.210297,-4.774563,-1.197206,-0.578995,-0.036370,0.001466,0.222477,-0.005836,9.181508
14:29:56.370,6.200,124,6.149195,8.016199,-4.788313,1,0.000000,0.000000,2.512246,0.018631,0.230500,-0.038354,0,0.000000,0.000000,0.000000,0,1,4.853710,6.111958,-1.237338,-4.776483,-1.204527,-0.587376,-0.036882,0.001603,0.222542,-0.006093,9.253620
14:29:56.420,6.250,125,6.088943,8.060811,-4.790417,1,0.000000,0.000000,2.493563,-0.036960,0.248731,0.015370,0,0.000000,0.000000,0.000000,0,1,4.852462,6.049508,-1.273787,-4.778266,-1.211603,-0.598424,-0.037034,0.001297,0.222749,-0.005925,9.334690
14:29:56.470,6.300,126,6.028358,8.104969,-4.792533,1,0.000000,0.000000,2.498511,0.012349,0.284519,-0.033898,0,0.000000,0.000000,0.000000,0,1,4.790642,5.979132,-1.305201,-4.783237,-1.221226,-0.608164,-0.040949,0.001384,0.223236,-0.006152,9.410304
14:29:56.520,6.350,127,5.967444,8.148672,-4.794660,1,0.000000,0.000000,2.480478,0.011522,0.202873,-0.017306,0,0.000000,0.000000,0.000000,0,1,4.827206,5.920437,-1.333353,-4.785323,-1.227483,-0.616053,-0.041330,0.001464,0.223077,-0.006238,9.482145
14:29:56.570,6.400,128,5.906204,8.191916,-4.796799,1,0.000000,0.000000,2.532815,-0.003289,0.227724,-0.001818,0,0.000000,0.000000,0.000000,0,1,4.668390,5.858438,-1.365318,-4.787384,-1.234015,-0.625466,-0.041611,0.001427,0.223113,-0.006204,9.557358
14:29:56.621,6.450,129,5.844641,8.234699,-4.798948,1,0.000000,0.000000,2.499753,-0.025970,0.239343,-0.034372,0,0.000000,0.000000,0.000000,0,1,4.767366,5.795473,-1.401732,-4.783151,-1.240836,-0.635887,-0.034858,0.001216,0.223238,-0.006398,9.636569
14:29:56.671,6.500,130,5.782760,8.277019,-4.801109,1,0.000000,0.000000,2.525879,0.045460,0.217731,-0.003598,0,0.000000,0.000000,0.000000,0,1,4.768113,5.731897,-1.426780,-4.784894,-1.248084,-0.642959,-0.035160,0.001554,0.223196,-0.006377,9.703946
14:29:56.721,6.550,131,5.720563,8.318873,-4.803281,1,0.000000,0.000000,2.545678,0.013807,0.247389,-0.041055,0,0.000000,0.000000,0.000000,0,1,4.836134,5.665029,-1.458515,-4.786766,-1.255713,-0.652175,-0.035714,0.001647,0.223379,-0.006636,9.777560
14:29:56.771,6.600,132,5.658054,8.360260,-4.805464,1,0.000000,0.000000,2.543418,0.026653,0.260786,-0.023186,0,0.000000,0.000000,0.000000,0,1,4.784754,5.595065,-1.489440,-4.787500,-1.264218,-0.661144,-0.034899,0.001835,0.223660,-0.006756,9.849917
14:29:56.821,6.650,133,5.595236,8.401176,-4.807658,1,0.000000,0.000000,2.547997,-0.010592,0.251341,-0.032118,0,0.000000,0.000000,0.000000,0,1,4.791173,5.528072,-1.526086,-4.789322,-1.271436,-0.671516,-0.035397,0.001742,0.223867,-0.006942,9.927506
14:29:56.871,6.700,134,5.532114,8.441620,-4.809862,1,0.000000,0.000000,2.556769,-0.070966,0.210617,0.006050,0,0.000000,0.000000,0.000000,0,1,4.817229,5.470242,-1.570481,-4.791062,-1.275468,-0.683559,-0.035658,0.001203,0.223769,-0.006847,10.012310
14:29:56.921,6.750,135,5.468690,8.481588,-4.812077,1,0.000000,0.000000,2.558566,0.006325,0.187200,0.023730,0,0.000000,0.000000,0.000000,0,1,4.864054,5.411750,-1.602133,-4.813364,-1.280260,-0.691810,-0.059126,0.001241,0.223500,-0.006686,10.083882
14:29:56.971,6.800,136,5.404969,8.521080,-4.814302,1,0.000000,0.000000,2.570189,0.000809,0.230754,0.011472,0,0.000000,0.000000,0.000000,0,1,4.884310,5.346469,-1.637419,-4.816281,-1.286650,-0.701362,-0.059348,0.001238,0.223553,-0.006555,10.158668
14:29:57.021,6.850,137,5.340953,8.560093,-4.816538,1,0.000000,0.000000,2.585448,-0.041912,0.260793,0.006747,0,0.000000,0.000000,0.000000,0,1,4.744142,5.278477,-1.681597,-4.819217,-1.293155,-0.713492,-0.059589,0.000925,0.223822,-0.006460,10.241881
14:29:57.071,6.900,138,5.276647,8.598624,-4.818783,1,0.000000,0.000000,2.624056,-0.001766,0.250811,0.029954,0,0.000000,0.000000,0.000000,0,1,4.798849,5.209539,-1.719450,-4.815369,-1.299792,-0.723939,-0.052059,0.000906,0.224017,-0.006182,10.318292
14:29:57.121,6.950,139,5.212054,8.636671,-4.821039,1,0.000000,0.000000,2.622534,-0.013634,0.251621,-0.067773,0,0.000000,0.000000,0.000000,0,1,4.776993,5.140817,-1.759778,-4.818139,-1.306192,-0.734896,-0.052741,0.000802,0.224214,-0.006616,10.396694
14:29:57.171,7.000,140,5.147177,8.674232,-4.823304,1,0.000000,0.000000,2.624148,-0.068209,0.236138,-0.019515,0,0.000000,0.000000,0.000000,0,1,4.873060,5.077411,-1.808554,-4.820822,-1.310630,-0.747759,-0.053154,0.000312,0.224298,-0.006707,10.483019
14:29:57.221,7.050,141,5.082021,8.711306,-4.825580,1,0.000000,0.000000,2.656052,-0.003174,0.229226,0.007629,0,0.000000,0.000000,0.000000,0,1,4.758975,5.011154,-1.847041,-4.804806,-1.315998,-0.757932,-0.032295,0.000288,0.224333,-0.006554,10.558605
14:29:57.271,7.100,142,5.016588,8.747889,-4.827865,1,0.000000,0.000000,2.638984,-0.032984,0.231002,0.001700,0,0.000000,0.000000,0.000000,0,1,4.772167,4.946095,-1.890991,-4.806408,-1.320891,-0.769284,-0.032574,0.000055,0.224380,-0.006497,10.639136
14:29:57.322,7.150,143,4.950883,8.783981,-4.830159,1,0.000000,0.000000,2.633114,-0.017843,0.211487,-0.040100,0,0.000000,0.000000,0.000000,0,1,4.822979,4.883094,-1.931859,-4.808140,-1.325394,-0.779506,-0.033108,-0.000069,0.224290,-0.006728,10.716077
14:29:57.372,7.200,144,4.884910,8.819578,-4.832463,1,0.000000,0.000000,2.616266,0.043176,0.230565,0.021601,0,0.000000,0.000000,0.000000,0,1,4.789173,4.813032,-1.964340,-4.803777,-1.332321,-0.787592,-0.026537,0.000229,0.224333,-0.006518,10.784196
14:29:57.422,7.250,145,4.818672,8.854679,-4.834776,1,0.000000,0.000000,2.652464,-0.032329,0.233809,0.010395,0,0.000000,0.000000,0.000000,0,1,4.782544,4.746714,-2.009936,-4.805070,-1.337194,-0.799048,-0.026765,0.000006,0.224398,-0.006404,10.864894
14:29:57.472,7.300,146,4.752172,8.889282,-4.837098,1,0.000000,0.000000,2.682089,-0.012740,0.213709,0.007334,0,0.000000,0.000000,0.000000,0,1,4.938355,4.682301,-2.051596,-4.806378,-1.341423,-0.809361,-0.027001,-0.000081,0.224326,-0.006312,10.941145
14:29:57.522,7.350,147,4.685415,8.923386,-4.839429,1,0.000000,0.000000,2.651459,0.049545,0.227220,-0.001816,0,0.000000,0.000000,0.000000,0,1,4.902215,4.611489,-2.084192,-4.835037,-1.348040,-0.817316,-0.058211,0.000255,0.224345,-0.006356,11.007827
14:29:57.572,7.400,148,4.618404,8.956987,-4.841770,1,0.000000,0.000000,2.700662,0.039503,0.217538,-0.032358,0,0.000000,0.000000,0.000000,0,1,4.862696,4.542609,-2.118276,-4.838019,-1.353537,-0.825699,-0.058676,0.000518,0.224299,-0.006528,11.075523
14:29:57.622,7.450,149,4.551143,8.990084,-4.844118,1,0.000000,0.000000,2.691162,0.021919,0.231968,-0.011675,0,0.000000,0.000000,0.000000,0,1,4.828176,4.472131,-2.156690,-4.840975,-1.359286,-0.835113,-0.059034,0.000661,0.224351,-0.006562,11.147055
14:29:57.672,7.500,150,4.483636,9.022676,-4.846476,1,0.000000,0.000000,2.673019,0.011209,0.225558,-0.004052,0,0.000000,0.000000,0.000000,0,1,4.870666,4.403144,-2.196982,-4.851656,-1.364694,-0.844712,-0.068096,0.000731,0.224359,-0.006566,11.219948
14:29:57.722,7.550,151,4.415887,9.054760,-4.848842,1,0.000000,0.000000,2.687971,0.016644,0.175710,0.023604,0,0.000000,0.000000,0.000000,0,1,4.907269,4.342043,-2.233529,-4.854997,-1.368094,-0.852916,-0.068256,0.000835,0.224039,-0.006370,11.288532
14:29:57.772,7.600,152,4.347899,9.086335,-4.851216,1,0.000000,0.000000,2.696997,-0.020980,0.224600,-0.022929,0,0.000000,0.000000,0.000000,0,1,4.743911,4.274883,-2.280211,-4.858462,-1.372420,-0.863897,-0.068671,0.000693,0.224042,-0.006477,11.366783
14:29:57.822,7.650,153,4.279676,9.117399,-4.853598,1,0.000000,0.000000,2.729463,0.012611,0.208639,0.042907,0,0.000000,0.000000,0.000000,0,1,4.827651,4.207999,-2.320560,-4.851899,-1.376628,-0.873281,-0.057531,0.000770,0.223942,-0.006135,11.438183
14:29:57.872,7.700,154,4.211222,9.147950,-4.855989,1,0.000000,0.000000,2.757666,0.008652,0.175659,0.044034,0,0.000000,0.000000,0.000000,0,1,4.936543,4.146895,-2.359798,-4.854666,-1.379143,-0.882099,-0.057563,0.000821,0.223631,-0.005816,11.507927
14:29:57.922,7.750,155,4.142542,9.177986,-4.858387,1,0.000000,0.000000,2.725499,0.007090,0.237461,-0.017740,0,0.000000,0.000000,0.000000,0,1,4.804524,4.074977,-2.404027,-4.857583,-1.384409,-0.892418,-0.057923,0.000861,0.223719,-0.005891,11.582210
14:29:57.972,7.800,156,4.073638,9.207506,-4.860793,1,0.000000,0.000000,2.716650,-0.009196,0.235629,0.023010,0,0.000000,0.000000,0.000000,0,1,4.890350,4.004262,-2.451503,-4.869059,-1.389270,-0.903296,-0.067842,0.000797,0.223795,-0.005732,11.659218
14:29:58.022,7.850,157,4.004514,9.236508,-4.863207,1,0.000000,0.000000,2.755486,-0.011341,0.221266,-0.011169,0,0.000000,0.000000,0.000000,0,1,4.780351,3.936002,-2.498883,-4.872471,-1.393106,-0.914058,-0.068158,0.000720,0.223779,-0.005766,11.735595
14:29:58.073,7.900,158,3.935176,9.264991,-4.865628,1,0.000000,0.000000,2.745690,-0.001838,0.199590,-0.033830,0,0.000000,0.000000,0.000000,0,1,4.914207,3.870701,-2.543552,-4.875958,-1.396439,-0.923837,-0.068605,0.000704,0.223627,-0.005940,11.808723
14:29:58.123,7.950,159,3.865625,9.292952,-4.868057,1,0.000000,0.000000,2.745632,0.049088,0.247245,-0.019034,0,0.000000,0.000000,0.000000,0,1,4.866849,3.793044,-2.583125,-4.875795,-1.402976,-0.932869,-0.064862,0.001007,0.223775,-0.006011,11.876301
14:29:58.173,8.000,160,3.795868,9.320391,-4.870493,1,0.000000,0.000000,2.750713,-0.008237,0.195388,-0.052697,0,0.000000,0.000000,0.000000,0,1,4.885266,3.728539,-2.629582,-4.879151,-1.405936,-0.942806,-0.065408,0.000949,0.223598,-0.006297,11.950166
14:29:58.223,8.050,161,3.725906,9.347305,-4.872936,1,0.000000,0.000000,2.771126,-0.026058,0.194758,-0.011498,0,0.000000,0.000000,0.000000,0,1,4.869430,3.665330,-2.679675,-4.882443,-1.408194,-0.953495,-0.065752,0.000782,0.223420,-0.006329,12.027136
14:29:58.273,8.100,162,3.655745,9.373694,-4.875386,1,0.000000,0.000000,2.778837,-0.008305,0.224401,-0.014062,0,0.000000,0.000000,0.000000,0,1,4.816809,3.595330,-2.729322,-4.865830,-1.411990,-0.964303,-0.043553,0.000727,0.223426,-0.006327,12.103171
14:29:58.323,8.150,163,3.585388,9.399555,-4.877843,1,0.000000,0.000000,2.787732,-0.009572,0.240152,-0.009540,0,0.000000,0.000000,0.000000,0,1,4.882049,3.522391,-2.780942,-4.868022,-1.416265,-0.975614,-0.043886,0.000664,0.223528,-0.006346,12.180664
14:29:58.373,8.200,164,3.514839,9.424888,-4.880307,1,0.000000,0.000000,2.799208,-0.022548,0.224187,-0.056033,0,0.000000,0.000000,0.000000,0,1,4.915124,3.453157,-2.834258,-4.870347,-1.419451,-0.987040,-0.044473,0.000523,0.223532,-0.006643,12.259306
14:29:58.423,8.250,165,3.444102,9.449691,-4.882777,1,0.000000,0.000000,2.807464,0.005127,0.155718,-0.008485,0,0.000000,0.000000,0.000000,0,1,4.843121,3.394123,-2.877733,-4.864068,-1.420668,-0.995584,-0.035176,0.000551,0.223124,-0.006633,12.327539
14:29:58.473,8.300,166,3.373181,9.473962,-4.885254,1,0.000000,0.000000,2.799527,-0.015997,0.240190,-0.013678,0,0.000000,0.000000,0.000000,0,1,4.890753,3.321171,-2.932161,-4.865851,-1.424639,-1.007179,-0.035544,0.000452,0.223226,-0.006675,12.406246
14:29:58.523,8.350,167,3.302080,9.497700,-4.887737,1,0.000000,0.000000,2.807310,0.010698,0.247359,-0.046864,0,0.000000,0.000000,0.000000,0,1,4.837005,3.244580,-2.982823,-4.867733,-1.429519,-1.017982,-0.036092,0.000513,0.223370,-0.006911,12.480671
14:29:58.573,8.400,168,3.230804,9.520903,-4.890226,1,0.000000,0.000000,2.822469,0.021119,0.250204,-0.001992,0,0.000000,0.000000,0.000000,0,1,4.965564,3.166383,-3.032340,-4.897290,-1.434628,-1.028531,-0.067828,0.000635,0.223528,-0.006948,12.553411
14:29:58.623,8.450,169,3.159355,9.543572,-4.892721,1,0.000000,0.000000,2.835044,-0.011623,0.234371,-0.029877,0,0.000000,0.000000,0.000000,0,1,4.919586,3.093552,-3.087198,-4.900739,-1.438104,-1.039937,-0.068290,0.000563,0.223592,-0.007081,12.630943
14:29:58.673,8.500,170,3.087739,9.565703,-4.895222,1,0.000000,0.000000,2.855939,0.009599,0.226024,0.048794,0,0.000000,0.000000,0.000000,0,1,4.818146,3.020367,-3.137976,-4.904029,-1.441622,-1.050383,-0.068351,0.000616,0.223606,-0.006759,12.703861
14:29:58.724,8.550,171,3.015958,9.587297,-4.897728,1,0.000000,0.000000,2.831818,-0.059389,0.212882,0.034018,0,0.000000,0.000000,0.000000,0,1,4.885949,2.955220,-3.201117,-4.901163,-1.442996,-1.062975,-0.061464,0.000267,0.223544,-0.006511,12.788558
14:29:58.774,8.600,172,2.944018,9.608351,-4.900240,1,0.000000,0.000000,2.848484,0.029298,0.199395,-0.060925,0,0.000000,0.000000,0.000000,0,1,4.959976,2.885086,-3.247029,-4.904359,-1.446143,-1.071915,-0.062056,0.000435,0.223404,-0.006821,12.855516
14:29:58.824,8.650,173,2.871922,9.628864,-4.902758,1,0.000000,0.000000,2.861481,0.042122,0.227900,-0.012491,0,0.000000,0.000000,0.000000,0,1,4.887645,2.808296,-3.293395,-4.907483,-1.450583,-1.081218,-0.062426,0.000674,0.223430,-0.006853,12.922417
14:29:58.874,8.700,174,2.799674,9.648836,-4.905281,1,0.000000,0.000000,2.872554,-0.056606,0.248684,0.002433,0,0.000000,0.000000,0.000000,0,1,4.952608,2.735835,-3.360775,-4.922734,-1.452916,-1.094811,-0.076465,0.000347,0.223575,-0.006828,13.009780
14:29:58.924,8.750,175,2.727279,9.668266,-4.907809,1,0.000000,0.000000,2.884671,0.075488,0.234390,-0.034157,0,0.000000,0.000000,0.000000,0,1,4.934678,2.654512,-3.402406,-4.926622,-1.458288,-1.103146,-0.076938,0.000774,0.223636,-0.006981,13.070888
14:29:58.974,8.800,176,2.654740,9.687151,-4.910342,1,0.000000,0.000000,2.884433,-0.017587,0.257593,0.007414,0,0.000000,0.000000,0.000000,0,1,4.854482,2.576643,-3.464336,-4.930444,-1.461901,-1.115586,-0.077214,0.000670,0.223828,-0.006901,13.151734
14:29:59.024,8.850,177,2.582062,9.705492,-4.912880,1,0.000000,0.000000,2.886409,-0.023928,0.245964,0.013862,0,0.000000,0.000000,0.000000,0,1,4.919078,2.501411,-3.527080,-4.929872,-1.464872,-1.127937,-0.072482,0.000532,0.223952,-0.006776,13.232828
14:29:59.074,8.900,178,2.509248,9.723286,-4.915423,1,0.000000,0.000000,2.910653,-0.009055,0.221011,-0.019404,0,0.000000,0.000000,0.000000,0,1,4.960903,2.429532,-3.585334,-4.933531,-1.467080,-1.139098,-0.072880,0.000478,0.223936,-0.006846,13.308871
14:29:59.124,8.950,179,2.436303,9.740534,-4.917970,1,0.000000,0.000000,2.927116,-0.006583,0.216690,0.030940,0,0.000000,0.000000,0.000000,0,1,4.927725,2.358162,-3.643272,-4.937098,-1.469021,-1.150083,-0.073034,0.000439,0.223896,-0.006639,13.384047
14:29:59.174,9.000,180,2.363230,9.757234,-4.920522,1,0.000000,0.000000,2.881528,0.003488,0.210936,-0.009328,0,0.000000,0.000000,0.000000,0,1,4.891418,2.286877,-3.699265,-4.926502,-1.471538,-1.160413,-0.057237,0.000456,0.223824,-0.006622,13.456717
14:29:59.224,9.050,181,2.290035,9.773385,-4.923078,1,0.000000,0.000000,2.935433,0.024669,0.220859,0.069780,0,0.000000,0.000000,0.000000,0,1,4.936935,2.211578,-3.752561,-4.929220,-1.474443,-1.170402,-0.057213,0.000589,0.223808,-0.006208,13.526174
14:29:59.274,9.100,182,2.216720,9.788986,-4.925638,1,0.000000,0.000000,2.911013,0.024441,0.254556,-0.018167,0,0.000000,0.000000,0.000000,0,1,4.776893,2.129538,-3.809560,-4.932115,-1.478825,-1.181321,-0.057582,0.000719,0.223976,-0.006273,13.598826
14:29:59.324,9.150,183,2.143291,9.804036,-4.928202,1,0.000000,0.000000,2.949765,-0.014787,0.156856,-0.003339,0,0.000000,0.000000,0.000000,0,1,4.998336,2.070201,-3.865605,-4.953301,-1.478140,-1.190914,-0.078601,0.000635,0.223611,-0.006297,13.669859
14:29:59.374,9.200,184,2.069751,9.818535,-4.930770,1,0.000000,0.000000,2.942475,0.024681,0.261228,-0.016197,0,0.000000,0.000000,0.000000,0,1,4.917261,1.986521,-3.924271,-4.957259,-1.482426,-1.202106,-0.078961,0.000765,0.223814,-0.006350,13.743084
14:29:59.425,9.250,185,1.996104,9.832482,-4.933342,1,0.000000,0.000000,2.946605,0.030999,0.262926,0.022534,0,0.000000,0.000000,0.000000,0,1,4.899204,1.901687,-3.982435,-4.961152,-1.486908,-1.213146,-0.079139,0.000927,0.224025,-0.006197,13.815267
14:29:59.475,9.300,186,1.922355,9.845876,-4.935918,1,0.000000,0.000000,2.946990,-0.005690,0.211693,0.003085,0,0.000000,0.000000,0.000000,0,1,4.992506,1.830381,-4.043481,-4.973016,-1.488488,-1.223999,-0.088369,0.000892,0.223959,-0.006165,13.889711
14:29:59.525,9.350,187,1.848507,9.858716,-4.938496,1,0.000000,0.000000,2.971786,-0.006096,0.234488,0.032792,0,0.000000,0.000000,0.000000,0,1,4.902140,1.754495,-4.107385,-4.977367,-1.490590,-1.235585,-0.088502,0.000855,0.224015,-0.005960,13.966471
14:29:59.575,9.400,188,1.774565,9.871001,-4.941079,1,0.000000,0.000000,2.980310,0.009531,0.210881,-0.015419,0,0.000000,0.000000,0.000000,0,1,4.886916,1.681687,-4.166401,-4.981820,-1.492226,-1.245941,-0.088845,0.000901,0.223945,-0.006010,14.037769
14:29:59.625,9.450,189,1.700534,9.882731,-4.943664,1,0.000000,0.000000,2.992799,0.036958,0.238247,0.001767,0,0.000000,0.000000,0.000000,0,1,4.953465,1.600548,-4.223167,-4.976776,-1.495501,-1.256170,-0.078382,0.001091,0.224020,-0.005949,14.106292
14:29:59.675,9.500,190,1.626416,9.893905,-4.946252,1,0.000000,0.000000,2.979263,0.020137,0.202434,-0.010514,0,0.000000,0.000000,0.000000,0,1,4.925133,1.528149,-4.280231,-4.980711,-1.497180,-1.265909,-0.078700,0.001190,0.223907,-0.005973,14.174519
14:29:59.725,9.550,191,1.552217,9.904523,-4.948843,1,0.000000,0.000000,2.955961,-0.035318,0.229743,0.031761,0,0.000000,0.000000,0.000000,0,1,4.978602,1.455785,-4.351778,-4.984573,-1.498417,-1.278343,-0.078822,0.001000,0.223938,-0.005779,14.256672
14:29:59.775,9.600,192,1.477940,9.914583,-4.951437,1,0.000000,0.000000,2.996758,0.040215,0.196449,-0.023590,0,0.000000,0.000000,0.000000,0,1,5.049963,1.382357,-4.405183,-5.006309,-1.500308,-1.287235,-0.099282,0.001203,0.223795,-0.005907,14.320191
14:29:59.825,9.650,193,1.403590,9.924086,-4.954033,1,0.000000,0.000000,3.006519,-0.037210,0.276526,0.019784,0,0.000000,0.000000,0.000000,0,1,4.949196,1.300567,-4.483127,-5.011232,-1.502534,-1.301224,-0.099465,0.001005,0.224067,-0.005777,14.407695
14:29:59.875,9.700,194,1.329171,9.933031,-4.956632,1,0.000000,0.000000,3.019175,-0.007254,0.165596,-0.027415,0,0.000000,0.000000,0.000000,0,1,4.913811,1.238212,-4.544012,-5.016258,-1.501698,-1.310855,-0.099854,0.000963,0.223767,-0.005886,14.477452
14:29:59.925,9.750,195,1.254687,9.941417,-4.959233,1,0.000000,0.000000,3.038117,0.032607,0.209369,0.001648,0,0.000000,0.000000,0.000000,0,1,4.920429,1.162693,-4.601824,-4.992105,-1.503368,-1.320462,-0.067137,0.001124,0.223694,-0.005788,14.543569
14:29:59.975,9.800,196,1.180142,9.949243,-4.961836,1,0.000000,0.000000,3.025027,0.013922,0.189270,-0.042877,0,0.000000,0.000000,0.000000,0,1,4.934453,1.093197,-4.661813,-4.995538,-1.503944,-1.330084,-0.067586,0.001189,0.223519,-0.005974,14.611354
14:30:00.026,9.850,197,1.105540,9.956511,-4.964441,1,0.000000,0.000000,3.027984,0.015900,0.178894,0.034728,0,0.000000,0.000000,0.000000,0,1,4.991405,1.025579,-4.720744,-4.998841,-1.504208,-1.339322,-0.067700,0.001264,0.223294,-0.005771,14.677513
14:30:00.076,9.900,198,1.030887,9.963218,-4.967048,1,0.000000,0.000000,3.094516,0.017184,0.290576,-0.032165,0,0.000000,0.000000,0.000000,0,1,5.024259,0.934704,-4.792025,-5.008641,-1.507550,-1.351993,-0.075299,0.001344,0.223632,-0.005915,14.755614
14:30:00.126,9.950,199,0.956185,9.969364,-4.969657,1,0.000000,0.000000,3.087597,0.024475,0.199326,-0.028712,0,0.000000,0.000000,0.000000,0,1,4.950665,0.861811,-4.852433,-5.012455,-1.508115,-1.361633,-0.075691,0.001459,0.223510,-0.006027,14.822159
14:30:00.176,10.000,200,0.881439,9.974950,-4.972267,1,0.000000,0.000000,3.031813,0.075318,0.190683,0.005997,0,0.000000,0.000000,0.000000,0,1,5.005475,0.785014,-4.901781,-5.016223,-1.510588,-1.369257,-0.075939,0.001827,0.223347,-0.005968,14.877109
14:30:00.226,10.050,201,0.806653,9.979975,-4.974879,1,0.000000,0.000000,3.055405,-0.028481,0.183937,0.016786,0,0.000000,0.000000,0.000000,0,1,4.885201,0.721075,-4.972440,-4.981026,-1.509395,-1.380166,-0.032049,0.001677,0.223152,-0.005780,14.952660
14:30:00.276,10.100,202,0.731832,9.984438,-4.977492,1,0.000000,0.000000,3.071491,-0.074121,0.246655,-0.020121,0,0.000000,0.000000,0.000000,0,1,5.018765,0.649219,-5.060248,-4.982661,-1.508691,-1.394527,-0.032397,0.001303,0.223268,-0.005850,15.044914
14:30:00.326,10.150,203,0.656979,9.988340,-4.980106,1,0.000000,0.000000,3.058825,0.019958,0.241003,-0.020290,0,0.000000,0.000000,0.000000,0,1,4.965306,0.567911,-5.128355,-4.984317,-1.510843,-1.405583,-0.032753,0.001395,0.223355,-0.005919,15.116957
14:30:00.376,10.200,204,0.582099,9.991679,-4.982720,1,0.000000,0.000000,3.084156,-0.020074,0.263648,-0.065393,0,0.000000,0.000000,0.000000,0,1,4.929187,0.486331,-5.208062,-4.969648,-1.512207,-1.418688,-0.014711,0.001290,0.223551,-0.006173,15.200049
14:30:00.426,10.250,205,0.507196,9.994457,-4.985336,1,0.000000,0.000000,3.093085,0.060386,0.259275,-0.046943,0,0.000000,0.000000,0.000000,0,1,5.016423,0.396313,-5.270932,-4.970463,-1.515827,-1.429034,-0.015187,0.001577,0.223725,-0.006368,15.265799
14:30:00.476,10.300,206,0.432275,9.996673,-4.987952,1,0.000000,0.000000,3.105337,0.012661,0.263188,-0.085480,0,0.000000,0.000000,0.000000,0,1,5.064558,0.310855,-5.344927,-4.971386,-1.517942,-1.441086,-0.015848,0.001631,0.223915,-0.006745,15.342090
14:30:00.526,10.350,207,0.357339,9.998326,-4.990569,1,0.000000,0.000000,3.106193,0.025226,0.192553,0.045488,0,0.000000,0.000000,0.000000,0,1,4.935234,0.238827,-5.408553,-4.961426,-1.518145,-1.450523,-0.003899,0.001744,0.223764,-0.006477,15.407362
14:30:00.576,10.400,208,0.282393,9.999417,-4.993186,1,0.000000,0.000000,3.125036,-0.038414,0.236614,0.026657,0,0.000000,0.000000,0.000000,0,1,5.035667,0.164949,-5.491440,-4.961572,-1.517567,-1.463407,-0.004088,0.001552,0.223826,-0.006320,15.491335
14:30:00.626,10.450,209,0.207441,9.999946,-4.995804,1,0.000000,0.000000,3.136556,0.046127,0.240466,0.012961,0,0.000000,0.000000,0.000000,0,1,5.001022,0.080170,-5.557363,-4.961747,-1.519643,-1.473694,-0.004322,0.001764,0.223905,-0.006230,15.557867
14:30:00.676,10.500,210,0.132486,9.999912,-4.998421,1,0.000000,0.000000,3.135474,0.002348,0.204873,0.035537,0,0.000000,0.000000,0.000000,0,1,5.063676,0.008190,-5.628902,-4.991299,-1.519210,-1.484267,-0.037740,0.001767,0.223815,-0.006091,15.629310
14:30:00.727,10.550,211,0.057535,9.999315,-5.001039,1,0.000000,0.000000,3.132768,-0.004935,0.252292,-0.002234,0,0.000000,0.000000,0.000000,0,1,5.012105,-0.073074,-5.708306,-4.993187,-1.520089,-1.496574,-0.038029,0.001735,0.223949,-0.006073,15.708166
14:30:00.777,10.600,212,-0.017410,9.998156,-5.003656,1,0.000000,0.000000,3.159299,-0.016784,0.252723,-0.014218,0,0.000000,0.000000,0.000000,0,1,4.955816,-0.152996,-5.790939,-4.995112,-1.520298,-1.509273,-0.038367,0.001648,0.224084,-0.006111,15.789680
14:30:00.827,10.650,213,-0.092345,9.996435,-5.006272,1,0.000000,0.000000,3.143243,0.037005,0.209561,0.032509,0,0.000000,0.000000,0.000000,0,1,5.083818,-0.230258,-5.857249,-5.022058,-1.521034,-1.518901,-0.066910,0.001814,0.224017,-0.005980,15.854292
14:30:00.877,10.700,214,-0.167264,9.994151,-5.008889,1,0.000000,0.000000,3.163778,0.019432,0.237196,0.004819,0,0.000000,0.000000,0.000000,0,1,4.995821,-0.311360,-5.931307,-5.025393,-1.521853,-1.529971,-0.067167,0.001895,0.224078,-0.005930,15.926119
14:30:00.927,10.750,215,-0.242164,9.991305,-5.011504,1,0.000000,0.000000,3.158149,0.019013,0.175920,-0.018286,0,0.000000,0.000000,0.000000,0,1,5.048573,-0.379156,-5.998305,-5.028782,-1.520811,-1.539096,-0.067514,0.001975,0.223855,-0.005987,15.990206
14:30:00.977,10.800,216,-0.317041,9.987897,-5.014119,1,0.000000,0.000000,3.213650,-0.024630,0.186123,0.010955,0,0.000000,0.000000,0.000000,0,1,5.003206,-0.443590,-6.076536,-5.023771,-1.518077,-1.549877,-0.058280,0.001852,0.223681,-0.005894,16.064934
14:30:01.027,10.850,217,-0.391890,9.983928,-5.016733,1,0.000000,0.000000,3.199612,-0.031728,0.228735,0.024073,0,0.000000,0.000000,0.000000,0,1,4.977166,-0.516284,-6.162280,-5.026643,-1.516593,-1.562247,-0.058459,0.001698,0.223704,-0.005759,16.146690
14:30:01.077,10.900,218,-0.466707,9.979397,-5.019346,1,0.000000,0.000000,3.170414,0.010684,0.200397,-0.011190,0,0.000000,0.000000,0.000000,0,1,5.012298,-0.588171,-6.235700,-5.029583,-1.515931,-1.572400,-0.058769,0.001739,0.223598,-0.005783,16.215554
14:30:01.127,10.950,219,-0.541489,9.974304,-5.021957,1,0.000000,0.000000,3.195068,-0.004751,0.207830,0.001797,0,0.000000,0.000000,0.000000,0,1,5.130169,-0.659654,-6.313971,-5.060734,-1.514728,-1.583255,-0.090963,0.001710,0.223526,-0.005801,16.288749
14:30:01.177,11.000,220,-0.616229,9.968650,-5.024567,1,0.000000,0.000000,3.191499,0.012636,0.203907,-0.026083,0,0.000000,0.000000,0.000000,0,1,5.082613,-0.732500,-6.388440,-5.065323,-1.514014,-1.593452,-0.091331,0.001759,0.223437,-0.005891,16.357554
14:30:01.227,11.050,221,-0.690926,9.962436,-5.027175,1,0.000000,0.000000,3.222348,0.036339,0.227597,0.017844,0,0.000000,0.000000,0.000000,0,1,4.988482,-0.813666,-6.461324,-5.069853,-1.514453,-1.603684,-0.091530,0.001915,0.223456,-0.005786,16.424274
14:30:01.277,11.100,222,-0.765574,9.955661,-5.029782,1,0.000000,0.000000,3.243793,-0.025513,0.251220,-0.063611,0,0.000000,0.000000,0.000000,0,1,5.012368,-0.891839,-6.551539,-5.056583,-1.513348,-1.616541,-0.071727,0.001792,0.223581,-0.006009,16.507705
14:30:01.327,11.150,223,-0.840168,9.948326,-5.032387,1,0.000000,0.000000,3.214529,0.020160,0.209579,-0.035118,0,0.000000,0.000000,0.000000,0,1,5.073920,-0.966856,-6.626701,-5.060224,-1.512805,-1.626688,-0.072137,0.001874,0.223518,-0.006137,16.575535
14:30:01.378,11.200,224,-0.914706,9.940432,-5.034990,1,0.000000,0.000000,3.214176,-0.037406,0.259579,0.002692,0,0.000000,0.000000,0.000000,0,1,5.060377,-1.045163,-6.721903,-5.063823,-1.511873,-1.640195,-0.072409,0.001699,0.223678,-0.006098,16.662871
14:30:01.428,11.250,225,-0.989183,9.931979,-5.037591,1,0.000000,0.000000,3.221045,0.053395,0.218314,0.038032,0,0.000000,0.000000,0.000000,0,1,5.001758,-1.126590,-6.791970,-5.048404,-1.512612,-1.649641,-0.051075,0.001928,0.223655,-0.005872,16.724516
14:30:01.478,11.300,226,-1.063594,9.922966,-5.040189,1,0.000000,0.000000,3.271964,-0.022601,0.168875,-0.025465,0,0.000000,0.000000,0.000000,0,1,5.104228,-1.186614,-6.872671,-5.050997,-1.508830,-1.659659,-0.051441,0.001820,0.223413,-0.005957,16.796091
14:30:01.528,11.350,227,-1.137935,9.913396,-5.042785,1,0.000000,0.000000,3.244027,0.017022,0.235838,0.012118,0,0.000000,0.000000,0.000000,0,1,5.012331,-1.266907,-6.954257,-5.053544,-1.508645,-1.670745,-0.051668,0.001887,0.223468,-0.005879,16.868150
14:30:01.578,11.400,228,-1.212203,9.903268,-5.045379,1,0.000000,0.000000,3.292705,-0.026785,0.220146,-0.010044,0,0.000000,0.000000,0.000000,0,1,4.971888,-1.337559,-7.044023,-5.031795,-1.506010,-1.682532,-0.024426,0.001761,0.223453,-0.005855,16.947760
14:30:01.628,11.450,229,-1.286392,9.892583,-5.047970,1,0.000000,0.000000,3.269077,-0.061964,0.262326,0.023559,0,0.000000,0.000000,0.000000,0,1,5.154007,-1.412591,-7.148177,-5.032977,-1.503690,-1.696764,-0.024610,0.001484,0.223622,-0.005729,17.041234
14:30:01.678,11.500,230,-1.360500,9.881342,-5.050557,1,0.000000,0.000000,3.317793,-0.040809,0.204315,-0.040628,0,0.000000,0.000000,0.000000,0,1,4.961805,-1.477405,-7.240062,-5.034276,-1.499840,-1.708363,-0.025032,0.001301,0.223539,-0.005877,17.121810
14:30:01.728,11.550,231,-1.434521,9.869544,-5.053142,1,0.000000,0.000000,3.328234,-0.021086,0.230498,-0.028652,0,0.000000,0.000000,0.000000,0,1,5.104203,-1.550722,-7.331788,-5.055410,-1.497284,-1.720232,-0.047860,0.001205,0.223569,-0.006008,17.201725
14:30:01.778,11.600,232,-1.508451,9.857192,-5.055724,1,0.000000,0.000000,3.283913,-0.008485,0.214507,0.073482,0,0.000000,0.000000,0.000000,0,1,5.031965,-1.622112,-7.418961,-5.057687,-1.495176,-1.731280,-0.047871,0.001163,0.223530,-0.005672,17.276527
14:30:01.828,11.650,233,-1.582287,9.844285,-5.058302,1,0.000000,0.000000,3.302939,0.020744,0.205182,-0.034225,0,0.000000,0.000000,0.000000,0,1,5.096712,-1.695512,-7.498720,-5.060137,-1.493572,-1.741151,-0.048264,0.001247,0.223451,-0.005793,17.343374
14:30:01.878,11.700,234,-1.656024,9.830824,-5.060877,1,0.000000,0.000000,3.292133,-0.005580,0.220431,0.019752,0,0.000000,0.000000,0.000000,0,1,5.122007,-1.768471,-7.587160,-5.079702,-1.491644,-1.752298,-0.067908,0.001218,0.223439,-0.005715,17.418358
14:30:01.928,11.750,235,-1.729658,9.816811,-5.063449,1,0.000000,0.000000,3.330455,-0.036012,0.254234,-0.014039,0,0.000000,0.000000,0.000000,0,1,5.071363,-1.844527,-7.688021,-5.083117,-1.489220,-1.765362,-0.068224,0.001060,0.223569,-0.005750,17.505219
14:30:01.978,11.800,236,-1.803185,9.802245,-5.066016,1,0.000000,0.000000,3.362199,0.001451,0.265180,-0.010202,0,0.000000,0.000000,0.000000,0,1,5.095831,-1.928449,-7.782625,-5.086543,-1.488000,-1.777671,-0.068528,0.001062,0.223745,-0.005768,17.585328
14:30:02.028,11.850,237,-1.876601,9.787128,-5.068580,1,0.000000,0.000000,3.339629,0.059466,0.243370,0.024810,0,0.000000,0.000000,0.000000,0,1,5.032122,-2.015964,-7.861398,-5.073217,-1.488365,-1.787691,-0.049795,0.001307,0.223827,-0.005613,17.649076
14:30:02.079,11.900,238,-1.949901,9.771460,-5.071140,1,0.000000,0.000000,3.344488,-0.002945,0.225257,0.023429,0,0.000000,0.000000,0.000000,0,1,5.110570,-2.090016,-7.952242,-5.075670,-1.486069,-1.798832,-0.049973,0.001289,0.223833,-0.005494,17.724256
14:30:02.129,11.950,239,-2.023082,9.755242,-5.073695,1,0.000000,0.000000,3.362617,-0.048881,0.271487,-0.056198,0,0.000000,0.000000,0.000000,0,1,5.093514,-2.167581,-8.061128,-5.078261,-1.483287,-1.812754,-0.050437,0.001080,0.224032,-0.005702,17.816957
14:30:02.179,12.000,240,-2.096139,9.738476,-5.076247,1,0.000000,0.000000,3.377341,-0.001487,0.232993,0.040507,0,0.000000,0.000000,0.000000,0,1,5.049432,-2.243344,-8.153989,-5.071667,-1.480881,-1.824033,-0.040315,0.001070,0.224069,-0.005498,17.893072
