timestamp_abs,timestamp_rel,x,y,z,vx,vy,vz,ax,ay,az,roll,pitch,yaw
1765470128.2825053,0.9446110725402832,9.09698947693e-15,1.74941548054e-13,-0.0313923976089,3.17962827925e-09,6.11465028974e-08,-1.6596893045e-07,0.000555683496719,0.0106861870502,0.00238723660217,0.04381233720554448,0.07197118776771323,1.38230670642874
1765470128.3014731,0.9635789394378662,1.34835475929e-07,2.59298166184e-06,-0.0315529686274,1.33833678905e-05,0.000257371639583,-0.00025161192307,0.000670754273254,0.0128990795498,0.00288097692746,0.04381233720554448,0.07197118776771323,1.38230670642874
1765470128.3229835,0.9850893020629883,6.15613248758e-07,1.18386786105e-05,-0.0316145774207,2.96676546791e-05,0.000570530003345,-0.0004654644764,0.000721818342601,0.0138810777553,0.00309959105433,0.04381233720554448,0.07197118776771323,1.38230670642874
1765470128.3428135,1.0049192905426025,1.40322176382e-06,2.69849479599e-05,-0.0316515391054,4.56735284681e-05,0.000878334288016,-0.000603499297361,0.000751023089507,0.0144427057144,0.00322457523245,0.04381233720554448,0.07197118776771323,1.38230670642874
1765470128.3639202,1.0260260105133057,2.52842498658e-06,4.86234025458e-05,-0.0316773526803,6.2065924053e-05,0.00119357166047,-0.000654360391823,0.000770158308855,0.0148106895297,0.00330665240617,0.04381233720554448,0.07197118776771323,1.38230670642874
1765470128.38302,1.0451257228851318,-8.46014785672e-06,7.25131344159e-05,-0.0347336213419,-0.000187873208866,0.00142427955124,-0.0266316874741,-0.00306274602404,0.0138341020275,0.00566133308483,0.04344990178713071,0.07205698316670582,1.3823747501945913
1765470128.403017,1.0651228427886963,-2.44730271917e-05,0.000101056629261,-0.0371201605044,-0.000464318836108,0.00164826519906,-0.041757109738,-0.00591703642716,0.0131068560298,0.00745432499501,0.04344990178713071,0.07205698316670582,1.3823747501945913
1765470128.423702,1.0858078002929688,-4.56077643636e-05,0.0001341960409,-0.0389119476723,-0.000758032717781,0.00186763502993,-0.0489374891949,-0.00811144927199,0.0125477405464,0.00886957846562,0.04344990178713071,0.07205698316670582,1.3823747501945913
1765470128.4436634,1.105769157409668,-7.20051936851e-05,0.000171967784659,-0.0402147791048,-0.00106395406713,0.00208420810666,-0.0509977700667,-0.00983458600403,0.012108701726,0.0100103114654,0.04344990178713071,0.07205698316670582,1.3823747501945913
1765470128.4637167,1.1258225440979004,-0.000103774138234,0.000214279696979,-0.0411377834045,-0.00137849794514,0.00229843790217,-0.0500697357599,-0.0112063504769,0.0117591892091,0.0109404013058,0.04344990178713071,0.07205698316670582,1.3823747501945913
1765470128.484157,1.1462628841400146,-0.000141046651194,0.000261080866313,-0.0417781774744,-0.0016993748813,0.00251086593943,-0.0475590564242,-0.0123083797367,0.0114784026544,0.0117035646001,0.04344990178713071,0.07205698316670582,1.3823747501945913
1765470128.5041153,1.1662211418151855,-0.000184022780389,0.000312404689635,-0.0422138389641,-0.00202539464273,0.00272222753894,-0.0443159683784,-0.0131993053467,0.0112514032981,0.0123321022442,0.04344990178713071,0.07205698316670582,1.3823747501945913
1765470128.5242345,1.18634033203125,-0.000232827521861,0.000368169204285,-0.0416591330152,-0.00235523516694,0.00293259125399,-0.0363439176291,-0.013922485312,0.0110671439338,0.0129080971852,0.04344990178713071,0.07205698316670582,1.3823747501945913
1765470128.5442681,1.206373929977417,-0.000287617068596,0.000428350476323,-0.0411842145651,-0.0026881341098,0.00314221752541,-0.0300663772168,-0.0145111130705,0.0109171671896,0.0133673600167,0.04344990178713071,0.07205698316670582,1.3823747501945913
1765470128.564448,1.2265539169311523,-0.00034850598863,0.000492889414501,-0.04077730975,-0.00302335405176,0.00335117925684,-0.0250639747942,-0.0149910714338,0.010794878372,0.0137335227529,0.04344990178713071,0.07205698316670582,1.3823747501945913
1765470128.5844777,1.2465834617614746,-0.000442086144758,0.000561978798754,-0.0404339447543,-0.00365230631771,0.00356140856121,-0.0212018013342,-0.0186307419905,0.0107122348229,0.0114231524447,0.04365946343659552,0.07217810706203398,1.3825948604586864
1765470128.604521,1.2666268348693848,-0.000544123295292,0.000635333581489,-0.0401387270059,-0.00429523239802,0.00377112145742,-0.0180908752069,-0.0216043698693,0.0106447146566,0.00952924633997,0.04365946343659552,0.07217810706203398,1.3825948604586864
1765470128.6248507,1.286956548690796,-0.000656132184286,0.000713453877453,-0.0398852333729,-0.00495233054335,0.00398180016296,-0.0155541554045,-0.024037292405,0.0105894719225,0.00797421608481,0.04365946343659552,0.07217810706203398,1.3825948604586864
1765470128.6455326,1.30763840675354,-0.000777803376803,0.000795417701716,-0.0396642727305,-0.00561612427939,0.00419101799253,-0.0134709816424,-0.02602593153,0.0105443172327,0.00669806115018,0.04365946343659552,0.07217810706203398,1.3825948604586864
1765470128.665519,1.327624797821045,-0.000910330338783,0.000881670084132,-0.0387902300542,-0.00628751380569,0.00440010582728,-0.00928914612085,-0.027652145622,0.0105073918841,0.00572504021792,0.04365946343659552,0.07217810706203398,1.3825948604586864
1765470128.6854825,1.347588300704956,-0.00105423468723,0.000972167650254,-0.0380651739267,-0.00696490734614,0.00460902016495,-0.00608797285852,-0.0289823054048,0.0104771888414,0.00490892616861,0.04365946343659552,0.07217810706203398,1.3825948604586864
1765470128.705829,1.3679347038269043,-0.00121004704317,0.00106693656765,-0.0374619169971,-0.00764740146331,0.00481787178437,-0.00363026353482,-0.0300705539847,0.0104524787136,0.00422379830962,0.04365946343659552,0.07217810706203398,1.3825948604586864
1765470128.7258961,1.3880019187927246,-0.00137807485026,0.00116590964339,-0.0369587450641,-0.00833371796431,0.00502655431098,-0.00174121016837,-0.030960934924,0.010432261433,0.00364818027519,0.04365946343659552,0.07217810706203398,1.3825948604586864
1765470128.7457829,1.407888650894165,-0.00155876534852,0.00126914957016,-0.0365382394974,-0.00902354539897,0.00523523410798,-0.000290099406393,-0.0316895369406,0.0104157175575,0.00316414917264,0.04365946343659552,0.07217810706203398,1.3825948604586864
1765470128.767789,1.4298946857452393,-0.00175248207567,0.00137669461358,-0.0361862799764,-0.00971652777031,0.00544400155929,0.000821354403395,-0.0322858418224,0.010402177664,0.00275678775065,0.04365946343659552,0.07217810706203398,1.3825948604586864
1765470128.786185,1.4482908248901367,-0.00193503591358,0.00149833064962,-0.0358894075793,-0.0101674326586,0.00575245050623,0.00171745477465,-0.0300834970996,0.0114914200235,0.0030739156589,0.044069419635710386,0.07213213424371649,1.3828438660206088
1765470128.8056607,1.467766523361206,-0.00213023624324,0.00162490564889,-0.0356400659765,-0.0106114376118,0.0060654374435,0.00240827038281,-0.0282806183579,0.0123830932815,0.00332513236564,0.044069419635710386,0.07213213424371649,1.3828438660206088
1765470128.826611,1.4887168407440186,-0.00233624699009,0.00175613060317,-0.0354308359835,-0.011046942092,0.00638093732788,0.00293635764591,-0.0268056934949,0.0131125661116,0.00352340883026,0.044069419635710386,0.07213213424371649,1.3828438660206088
1765470128.8462787,1.5083844661712646,-0.00255320274625,0.00189270715515,-0.0352551628378,-0.011477230928,0.00669918024731,0.00333560042403,-0.0255988304456,0.0137094601136,0.00367943257999,0.044069419635710386,0.07213213424371649,1.3828438660206088
1765470128.867008,1.52911376953125,-0.00278055047909,0.00203483561657,-0.0351077671468,-0.011903103037,0.00701960131792,0.00363223811938,-0.0246112378945,0.0141979066449,0.00380178200544,0.044069419635710386,0.07213213424371649,1.3828438660206088
1765470128.8867784,1.5488841533660889,-0.00301801205832,0.00218278452323,-0.0349842192123,-0.0123255956857,0.00734194529816,0.00384696015364,-0.0238029792557,0.0145976576637,0.00389736176176,0.044069419635710386,0.07213213424371649,1.3828438660206088
1765470128.9078724,1.5699782371520996,-0.00326508982465,0.00233661537663,-0.0348809036758,-0.0127450128374,0.00766568462413,0.00399607873602,-0.0231415161614,0.0149248060951,0.00397170501658,0.044069419635710386,0.07213213424371649,1.3828438660206088
1765470128.927525,1.5896308422088623,-0.00352158093999,0.00249650041261,-0.0347947268747,-0.0131620257579,0.0079906319035,0.00409266632918,-0.0226001759847,0.0151925437681,0.00402925873693,0.044069419635710386,0.07213213424371649,1.3828438660206088
1765470128.9491181,1.6112239360809326,-0.00378726546991,0.00266254954685,-0.0349140173645,-0.0135770733784,0.00831657004841,0.0036572825095,-0.0221571382923,0.0154116626992,0.00404124972408,0.044069419635710386,0.07213213424371649,1.3828438660206088
1765470128.968129,1.630234718322754,-0.004053088924,0.00285388802546,-0.0350215497244,-0.0137880148798,0.00876373997622,0.00315814679977,-0.0193259179283,0.0167517780925,0.00239055043681,0.04388706800244562,0.07207789730364135,1.3828349444309571
1765470128.9883173,1.6504230499267578,-0.00431355652841,0.00304377851235,-0.0351183163331,-0.0139674240919,0.00920040699708,0.0027092809341,-0.0170180675242,0.0178441642208,0.00104868457331,0.04388706800244562,0.07207789730364135,1.3828349444309571
1765470129.008451,1.6705567836761475,-0.00458085024409,0.00324073192337,-0.0352030908206,-0.014138597309,0.00964063895717,0.00230679236549,-0.0151345080351,0.0187357186536,-4.32543977893e-05,0.04388706800244562,0.07207789730364135,1.3828349444309571
1765470129.028709,1.690814733505249,-0.00485604547915,0.00344642133122,-0.035277616308,-0.0143048601628,0.0100862455643,0.00194390180871,-0.0135944497983,0.0194646819571,-0.00093323461578,0.04388706800244562,0.07207789730364135,1.3828349444309571
1765470129.048926,1.7110319137573242,-0.00513537641796,0.00365898945187,-0.0353437275412,-0.0144641631824,0.0105324974716,0.00161600471441,-0.012336002145,0.0200603491448,-0.00165793076045,0.04388706800244562,0.07207789730364135,1.3828349444309571
1765470129.0689528,1.7310585975646973,-0.00541962527814,0.00387956601595,-0.0354024558906,-0.0146189049698,0.0109806613732,0.00131882733193,-0.0113072094941,0.0205473126061,-0.00224810296348,0.04388706800244562,0.07207789730364135,1.3828349444309571
1765470129.0890958,1.7512016296386719,-0.00570863461432,0.00410855321214,-0.0324712461776,-0.0147700992791,0.0114307390662,0.0083409542507,-0.0104657810835,0.0209455900343,-0.00218915560795,0.04388706800244562,0.07207789730364135,1.3828349444309571
1765470129.1092608,1.7713665962219238,-0.00600182445926,0.00434594164763,-0.0299647041687,-0.014918220046,0.0118820986768,0.0139583066044,-0.00977747536066,0.0212713891512,-0.00224093071624,0.04388706800244562,0.07207789730364135,1.3828349444309571
1765470129.1293569,1.7914626598358154,-0.0062991037883,0.00459201920738,-0.0278252298291,-0.015063938219,0.0123347622414,0.0183909805271,-0.0092143015174,0.0215379589831,-0.00236897345746,0.04388706800244562,0.07207789730364135,1.3828349444309571
1765470129.1495132,1.8116190433502197,-0.00660055746368,0.00484717037816,-0.0260027714805,-0.0152078708879,0.0127889748859,0.0218253347283,-0.00875337644954,0.0217561309017,-0.00254698680892,0.04388706800244562,0.07207789730364135,1.3828349444309571
1765470129.1695042,1.8316099643707275,-0.00692251496279,0.00514236991335,-0.0244476571124,-0.0155200816671,0.0135548245307,0.0245936767948,-0.0102475941164,0.0253584221439,-0.000563997483159,0.043644200194598005,0.07216036375127133,1.383029887822751
1765470129.1899173,1.8520231246948242,-0.00725052825005,0.00544948891488,-0.0231269903282,-0.0158390805555,0.0143371197751,0.0266632030678,-0.0114714714938,0.0283089713553,0.00100698656921,0.043644200194598005,0.07216036375127133,1.383029887822751
1765470129.2099733,1.8720791339874268,-0.00758074609498,0.00576585092193,-0.0220158803554,-0.0161608658001,0.0151260321159,0.0281448622994,-0.0124723048439,0.0307218013547,0.00224651568723,0.043644200194598005,0.07216036375127133,1.383029887822751
1765470129.2305863,1.8926920890808105,-0.00792425017549,0.0061025357627,-0.0245875689373,-0.0164927741784,0.0159396778626,0.0206915084207,-0.0132940224567,0.0327028153836,0.00257056788214,0.043644200194598005,0.07216036375127133,1.383029887822751
1765470129.2507308,1.9128365516662598,-0.00826515195143,0.00644492934156,-0.0268226904709,-0.0168214298946,0.0167451608449,0.0144496205899,-0.0139650097559,0.0343204456159,0.0029273205725,0.043644200194598005,0.07216036375127133,1.383029887822751
1765470129.2716312,1.93373703956604,-0.00861159912497,0.00680107014959,-0.0287535068244,-0.0171523827844,0.0175561787863,0.00924702798505,-0.0145133162499,0.0356423143941,0.00329817290425,0.043644200194598005,0.07216036375127133,1.383029887822751
1765470129.2916703,1.9537761211395264,-0.0089638459783,0.007171531337,-0.0304195968208,-0.0174852300728,0.0183717617586,0.00493559237155,-0.0149616007239,0.0367230479916,0.00366971157865,0.043644200194598005,0.07216036375127133,1.383029887822751
1765470129.311765,1.9738707542419434,-0.00932214455921,0.00755682975273,-0.0318552356453,-0.0178196809002,0.0191912110436,0.00138809445368,-0.0153282463948,0.0376069650531,0.00403242754006,0.043644200194598005,0.07216036375127133,1.383029887822751
1765470129.3320155,1.9941213130950928,-0.00968702910798,0.00795775496829,-0.0330903535415,-0.0181557776042,0.0200146424165,-0.0015053068494,-0.0156282420707,0.038330200911,0.00437978538105,0.043644200194598005,0.07216036375127133,1.383029887822751
1765470129.3535948,2.015700578689575,-0.0100577732682,0.00837367753562,-0.0341505190868,-0.0184925553395,0.0208396989675,-0.00383839476599,-0.0158736759,0.0389218979265,0.00470745278938,0.043644200194598005,0.07216036375127133,1.383029887822751
1765470129.3715556,2.033661365509033,-0.0103980881654,0.00875009632302,-0.0350655038965,-0.0184611121328,0.0211155508021,-0.00584296752691,-0.0120086688673,0.0333287241151,0.00314324732977,0.043680369251152644,0.07219658274209641,1.3832599849409337
1765470129.3924334,2.054539203643799,-0.0107429936289,0.00913975839947,-0.0336442096342,-0.0184153975534,0.0213703697903,-0.00219481997226,-0.00884609149353,0.0287520584598,0.00230871930129,0.043680369251152644,0.07219658274209641,1.3832599849409337
1765470129.4125662,2.074671983718872,-0.0110915992681,0.00954123880688,-0.0324180026545,-0.0183582773338,0.0216086681044,0.000806827575739,-0.00625804813046,0.0250068191269,0.00157544604321,0.043680369251152644,0.07219658274209641,1.3832599849409337
1765470129.4325643,2.094670057296753,-0.0114431236065,0.00995333165454,-0.0313621718177,-0.0182918837709,0.0218337862544,0.00325308040146,-0.00413978313851,0.0219414109197,0.000931938716091,0.043680369251152644,0.07219658274209641,1.3832599849409337
1765470129.4544797,2.1165854930877686,-0.0117966117394,0.0103746870345,-0.0304551146348,-0.0182178155692,0.0220479731263,0.00522283706565,-0.00240590790369,0.0194322652769,0.000367966723754,0.043680369251152644,0.07219658274209641,1.3832599849409337
1765470129.472937,2.135042905807495,-0.0121506327132,0.0108034009249,-0.0296782844846,-0.0181373665087,0.0222524773113,0.00678431750503,-0.00098704120468,0.0173789784405,-0.000125484528089,0.043680369251152644,0.07219658274209641,1.3832599849409337
1765470129.492961,2.155066728591919,-0.0125054483506,0.0112396534531,-0.0290147130297,-0.0180517859538,0.0224498521763,0.00799764438027,0.000174297439938,0.0156983685895,-0.000556638699841,0.043680369251152644,0.07219658274209641,1.3832599849409337
1765470129.513164,2.175269842147827,-0.0128603757237,0.0116825110163,-0.0284498449851,-0.017961960543,0.0226412058697,0.00891478274946,0.0011248813098,0.0143227486329,-0.000932764495212,0.043680369251152644,0.07219658274209641,1.3832599849409337
1765470129.533326,2.195431709289551,-0.0132148527691,0.0121311957701,-0.0305387696926,-0.0178686574297,0.0228275002494,0.00347412399254,0.00190291131484,0.0131968368268,-0.00174331318643,0.043680369251152644,0.07219658274209641,1.3832599849409337
1765470129.5534542,2.215559959411621,-0.0135685320844,0.0125852072449,-0.0323424873934,-0.0177725148635,0.0230096361291,-0.00103235798872,0.00253967995814,0.0122753488012,-0.00233263954962,0.043680369251152644,0.07219658274209641,1.3832599849409337
1765470129.5728922,2.2349979877471924,-0.0139561349252,0.0130566334477,-0.033892439516,-0.018019425067,0.0233103099593,-0.004637211415,-0.000743327430925,0.0128632346902,-0.00154732852548,0.04428017138528733,0.07200530951917987,1.3835579926669137
1765470129.5938015,2.2559072971343994,-0.0143436423302,0.0135329036589,-0.035224228378,-0.0182783167496,0.0236129380935,-0.00754526170364,-0.0034299879784,0.0133443331579,-0.000849865502806,0.04428017138528733,0.07200530951917987,1.3835579926669137
1765470129.6137822,2.275887966156006,-0.0147324877659,0.0140146313065,-0.0363655731852,-0.018547003401,0.0239173566273,-0.00985646673735,-0.00562877600155,0.0137380686262,-0.000232101695327,0.04428017138528733,0.07200530951917987,1.3835579926669137
1765470129.6351092,2.297214984893799,-0.0151235976857,0.0145019994045,-0.037340808714,-0.0188237327612,0.02422326089,-0.011657838803,-0.00742836791399,0.0140603203198,0.000313622603757,0.04428017138528733,0.07200530951917987,1.3835579926669137
1765470129.6547177,2.3168234825134277,-0.0155177337679,0.0149951621949,-0.0381713108658,-0.0191070719964,0.0245304034102,-0.0130250998668,-0.00890128371092,0.0143240743447,0.00079444783453,0.04428017138528733,0.07200530951917987,1.3835579926669137
1765470129.6743526,2.336458444595337,-0.0159154677355,0.0154941795118,-0.0357590284316,-0.0193958218535,0.0248385421227,-0.00661706886189,-0.0101068212344,0.0145399491249,0.00180381073676,0.04428017138528733,0.07200530951917987,1.3835579926669137
1765470129.6943588,2.3564646244049072,-0.0163203495338,0.016003039621,-0.0336719134173,-0.0196906779952,0.0251497744135,-0.00127961084493,-0.011094640395,0.0147168372268,0.0025456409309,0.04428017138528733,0.07200530951917987,1.3835579926669137
1765470129.7152278,2.377333641052246,-0.0167276028687,0.0165151814374,-0.0318706531935,-0.0199880889089,0.0254600741104,0.00312516486025,-0.0119028808823,0.0148615682983,0.0030784132797,0.04428017138528733,0.07200530951917987,1.3835579926669137
1765470129.735306,2.397411823272705,-0.0171385936456,0.0170319950836,-0.0303206887368,-0.0202878259587,0.0257701074496,0.0067251419052,-0.0125639320115,0.0149799422722,0.00345019787922,0.04428017138528733,0.07200530951917987,1.3835579926669137
1765470129.7555401,2.4176459312438965,-0.0175543783122,0.0175545307602,-0.0289900455134,-0.020589783656,0.0260803684731,0.00963436386403,-0.0131046658081,0.0150767711035,0.00369944873043,0.04428017138528733,0.07200530951917987,1.3835579926669137
1765470129.7744377,2.4365434646606445,-0.0179899207775,0.0181020019846,-0.0278504046923,-0.0210338237559,0.0265734305681,0.0119468255213,-0.0150874699381,0.0171619718707,0.00378391391046,0.044145906454455305,0.07217551880234957,1.3835947442899568
1765470129.7952273,2.4573330879211426,-0.0184316156572,0.0186564912914,-0.0268769425997,-0.0214851583407,0.027074170338,0.0137542617389,-0.0167100890245,0.0188683867972,0.00381296773298,0.044145906454455305,0.07217551880234957,1.3835947442899568
1765470129.8140376,2.4761433601379395,-0.0188791906124,0.0192175171643,-0.0289818450893,-0.021941736551,0.0275803748039,0.00816340053725,-0.0180376083163,0.0202644622864,0.00325010983367,0.044145906454455305,0.07217551880234957,1.3835947442899568
1765470129.8380613,2.50016713142395,-0.0193376333483,0.0197912305254,-0.0308023143333,-0.0224061336158,0.0280950119163,0.00350913447532,-0.0191251834219,0.0214082023111,0.00286346002154,0.044145906454455305,0.07217551880234957,1.3835947442899568
1765470129.856025,2.5181307792663574,-0.0198005845096,0.0203695545075,-0.032373178815,-0.0228718219041,0.0286108185443,-0.00032980408926,-0.0200147438417,0.0223437017089,0.00261206520534,0.044145906454455305,0.07217551880234957,1.3835947442899568
1765470129.8759058,2.5380115509033203,-0.0202720836232,0.0209574865115,-0.0337254263904,-0.023341139531,0.0291304684984,-0.00346747221974,-0.0207426175568,0.0231091645231,0.00246207374207,0.044145906454455305,0.07217551880234957,1.3835947442899568
1765470129.8961754,2.558281183242798,-0.0207515134836,0.0215541955106,-0.0348866717562,-0.0238126998359,0.0296524519319,-0.00600248604683,-0.0213381489265,0.0237354505239,0.00238720793028,0.044145906454455305,0.07217551880234957,1.3835947442899568
1765470129.9162924,2.5783982276916504,-0.0212398117437,0.0221608031304,-0.0358815361008,-0.0242866372863,0.0301769485522,-0.00802141572214,-0.0218254981244,0.0242479675728,0.00236689834462,0.044145906454455305,0.07217551880234957,1.3835947442899568
1765470129.93647,2.5985758304595947,-0.0217369941545,0.0227772889448,-0.0367313997642,-0.0247623951743,0.0307033624012,-0.0095994282467,-0.0222243401324,0.0246674067139,0.0023852561674,0.044145906454455305,0.07217551880234957,1.3835947442899568
1765470129.957164,2.619269847869873,-0.0222467728698,0.0234082153591,-0.0343369425391,-0.0252428062328,0.031234854405,-0.00339157515975,-0.0225510982601,0.0250110393946,0.00301848134741,0.044145906454455305,0.07217551880234957,1.3835947442899568
1765470129.9769933,2.63909912109375,-0.0227399334575,0.0240423459853,-0.0322747586351,-0.0254996259803,0.0317370983624,0.00162673499169,-0.0203768743985,0.0249934669017,0.00199542995381,0.043671227118473106,0.07215939835537617,1.3836771691256946
1765470129.997672,2.659777879714966,-0.0232410068519,0.0246860664571,-0.0304996117066,-0.0257482220424,0.0322388496402,0.00571628684692,-0.018598319116,0.0249790922779,0.0010852336022,0.043671227118473106,0.07215939835537617,1.3836771691256946
1765470130.0171733,2.679279088973999,-0.0237498363054,0.0253400943323,-0.0289750244437,-0.0259904950837,0.0327406918855,0.00900903274832,-0.0171430934465,0.0249673308658,0.000277619207252,0.043671227118473106,0.07215939835537617,1.3836771691256946
1765470130.0374615,2.6995673179626465,-0.0242655096009,0.0260040370648,-0.0276692150175,-0.0262273899119,0.0332423367525,0.0116194094232,-0.0159523506407,0.0249577070548,-0.000437052855137,0.043671227118473106,0.07215939835537617,1.3836771691256946
1765470130.0577164,2.7198221683502197,-0.0247876548181,0.0266780422391,-0.0265541312959,-0.0264599493281,0.0337439110619,0.0136472448109,-0.0149779405537,0.0249498316862,-0.00106783617368,0.043671227118473106,0.07215939835537617,1.3836771691256946
1765470130.0777867,2.7398924827575684,-0.0253157908111,0.0273620064621,-0.0256052182904,-0.0266889137904,0.0342453497627,0.0151793724577,-0.0141805305837,0.0249433868663,-0.00162313092094,0.043671227118473106,0.07215939835537617,1.3836771691256946
1765470130.0977013,2.7598071098327637,-0.0258499501947,0.0280563928137,-0.0255337241504,-0.0269151157686,0.0347469970026,0.0145498842777,-0.0135278826962,0.0249381120413,-0.0022488497213,0.043671227118473106,0.07215939835537617,1.3836771691256946
1765470130.117613,2.7797188758850098,-0.0263893579013,0.0287605491933,-0.0254852129552,-0.0271388153869,0.0352483872322,0.0138920512095,-0.0129937518346,0.0249337950936,-0.00276296556868,0.043671227118473106,0.07215939835537617,1.3836771691256946
1765470130.1378355,2.799941301345825,-0.0269339363865,0.0294746555057,-0.0254560168037,-0.0273605240184,0.0357496607365,0.013216471683,-0.0125566107338,0.0249302620357,-0.00318494849791,0.043671227118473106,0.07215939835537617,1.3836771691256946
1765470130.158258,2.820363759994507,-0.0274930591083,0.0302112637929,-0.0254399437632,-0.0275848631421,0.0362594561064,0.0125274029132,-0.0121979277989,0.0249273630916,-0.0035320227778,0.043671227118473106,0.07215939835537617,1.3836771691256946
1765470130.1785562,2.8406620025634766,-0.0280351208872,0.030936474335,-0.0254383617744,-0.0276736942555,0.0366631680837,0.011902297849,-0.0104717322419,0.0238462105338,-0.00302371057213,0.04425162562735305,0.07213925819963245,1.3840568027390854
1765470130.1988494,2.860955238342285,-0.028581832482,0.0316718400454,-0.025447444663,-0.0277564260647,0.0370632660222,0.0112847929092,-0.00905996555395,0.0229619913853,-0.00260756562557,0.04425162562735305,0.07213925819963245,1.3840568027390854
1765470130.2200582,2.8821640014648438,-0.0291412091454,0.0324285778011,-0.0254628952519,-0.0278366998781,0.0374673681148,0.0106752383511,-0.00790236533806,0.0222369620401,-0.00226580281482,0.04425162562735305,0.07213925819963245,1.3840568027390854
1765470130.2419515,2.904057264328003,-0.029700285487,0.0331897300932,-0.0254872489853,-0.0279113331429,0.0378656993456,0.0100802099706,-0.00695517093947,0.0216437142805,-0.0019851639103,0.04425162562735305,0.07213925819963245,1.3840568027390854
1765470130.2592895,2.9213953018188477,-0.0302564805246,0.0339519472214,-0.02570254623,-0.0279810060538,0.0382573544346,0.00906779841776,-0.00618150347493,0.0211591500869,-0.0017892754281,0.04425162562735305,0.07213925819963245,1.3840568027390854
1765470130.2803133,2.9424190521240234,-0.0308157454681,0.0347234901265,-0.02589556608,-0.0280480526558,0.0386476902232,0.0081575378687,-0.00554905847601,0.0207630364916,-0.00162110519973,0.04425162562735305,0.07213925819963245,1.3840568027390854
1765470130.2999492,2.962054967880249,-0.031383016266,0.035511429856,-0.0260680461821,-0.0281138953799,0.0390407919055,0.00733651623202,-0.00503108820547,0.0204386208247,-0.00147632025002,0.04425162562735305,0.07213925819963245,1.3840568027390854
1765470130.3202686,2.982374429702759,-0.0319481884377,0.0363019761019,-0.0262240753427,-0.0281770298094,0.0394296254028,0.00659803743261,-0.00460758075709,0.0201733692087,-0.00135145088378,0.04425162562735305,0.07213925819963245,1.3840568027390854
1765470130.3409438,3.003049612045288,-0.0325133185548,0.0370980337803,-0.0263645175547,-0.0282383220862,0.0398161180797,0.00593397262505,-0.00426140798286,0.0199565539245,-0.00124352401563,0.04425162562735305,0.07213925819963245,1.3840568027390854
1765470130.3648818,3.0269875526428223,-0.0330806714182,0.0379028735786,-0.0264905700366,-0.0282984533358,0.0402021762194,0.0053362522907,-0.00397829239749,0.0197792326829,-0.00115002311652,0.04425162562735305,0.07213925819963245,1.3840568027390854
1765470130.3805213,3.0426270961761475,-0.0336494041387,0.0387324092922,-0.0266026590023,-0.0283532639049,0.0407499374186,0.00482334216822,-0.00369908010466,0.0214179227854,-0.000753222320757,0.04455964517455593,0.07208135941305845,1.3842785108998346
1765470130.4007516,3.0628573894500732,-0.0342187576059,0.039569282835,-0.0279875114158,-0.0284069542057,0.0413029161614,0.00131552455902,-0.00347069330044,0.0227583193409,-0.000666720323607,0.04455964517455593,0.07208135941305845,1.3842785108998346
1765470130.4206781,3.0827839374542236,-0.0347930017968,0.0404204255654,-0.0291825669048,-0.0284602355925,0.0418635594262,-0.00157385919086,-0.00328367329233,0.0238559351841,-0.000546737851597,0.04455964517455593,0.07208135941305845,1.3842785108998346
1765470130.4411502,3.1032559871673584,-0.0353652669172,0.0412763630078,-0.0302106201737,-0.0285124430015,0.042425467438,-0.00392736587671,-0.00313071409941,0.024753648938,-0.000406059278109,0.04455964517455593,0.07208135941305845,1.3842785108998346
1765470130.4612508,3.123356580734253,-0.0359394480658,0.0421432580546,-0.0310931525815,-0.0285641699655,0.0429911617209,-0.0058216892261,-0.00300556229142,0.0254881618312,-0.000254514846086,0.04455964517455593,0.07208135941305845,1.3842785108998346
1765470130.4823303,3.1444361209869385,-0.0365196109069,0.0430277154561,-0.0318503340415,-0.0286159308583,0.0435638237458,-0.00732430258826,-0.00290303034761,0.0260899192961,-9.9254611783e-05,0.04455964517455593,0.07208135941305845,1.3842785108998346
1765470130.501728,3.1638338565826416,-0.0370951856536,0.0439140229118,-0.0324951218347,-0.0286667213178,0.0441334719829,-0.00848992083016,-0.00281920779347,0.0265818718117,5.44028112623e-05,0.04455964517455593,0.07208135941305845,1.3842785108998346
1765470130.5218654,3.1839711666107178,-0.0376723574811,0.0448117716737,-0.0330434883118,-0.0287172568825,0.0447052948327,-0.0093695336751,-0.00275064538621,0.0269842628992,0.00020275202917,0.04455964517455593,0.07208135941305845,1.3842785108998346
1765470130.5420282,3.204133987426758,-0.0382505377948,0.0457202711691,-0.034241623675,-0.0287675354765,0.0452784613182,-0.0117494944136,-0.00269455516483,0.0273134550336,0.00020493766541,0.04455964517455593,0.07208135941305845,1.3842785108998346
1765470130.562086,3.224191904067993,-0.03882959275,0.0466394769001,-0.0352639271008,-0.028817591736,0.0458526036413,-0.0135983207443,-0.00264866394627,0.0275827894704,0.0002488961155,0.04455964517455593,0.07208135941305845,1.3842785108998346
1765470130.5823524,3.2444581985473633,-0.0394281173151,0.0475511375965,-0.0361396333308,-0.0290389208212,0.0462260972167,-0.0151172747079,-0.00449691336243,0.0255725893684,-0.00119474761055,0.04411559635229884,0.07209375975688413,1.3843164609453682
1765470130.6024184,3.264524221420288,-0.0400275906723,0.0484719814869,-0.0368823262015,-0.0292668621757,0.0465915566139,-0.0162582165467,-0.00600930729044,0.0239276736975,-0.00234553379308,0.04411559635229884,0.07209375975688413,1.3843164609453682
1765470130.6224642,3.2845699787139893,-0.0406294660346,0.0494026383647,-0.0375101337793,-0.0295002904136,0.0469510773983,-0.0170793761052,-0.00724696957338,0.0225815627097,-0.00326148275536,0.04411559635229884,0.07209375975688413,1.3843164609453682
1765470130.6436448,3.305750608444214,-0.041235419926,0.0503444009369,-0.0380391232645,-0.0297385292247,0.0473065862851,-0.017631169588,-0.00826014815887,0.0214796055398,-0.00398957777223,0.04411559635229884,0.07209375975688413,1.3843164609453682
1765470130.662922,3.3250277042388916,-0.0418445355682,0.0512946850161,-0.0384819715749,-0.0299804568952,0.0476579160297,-0.0179570078889,-0.00908941380665,0.020577676463,-0.0045673104844,0.04411559635229884,0.07209375975688413,1.3843164609453682
1765470130.6830602,3.345165967941284,-0.0424560508286,0.0522513590958,-0.0368330218805,-0.0302250339692,0.0480050859191,-0.0133036368511,-0.00976789436611,0.0198397448408,-0.00464471799126,0.04411559635229884,0.07209375975688413,1.3843164609453682
1765470130.7031972,3.3653030395507812,-0.043071560842,0.0532162054443,-0.0354030378792,-0.0304720884471,0.0483496266926,-0.00939331944059,-0.0103230853801,0.0192359058658,-0.00476699618186,0.04411559635229884,0.07209375975688413,1.3843164609453682
1765470130.723324,3.385429859161377,-0.0436913268579,0.0541890221696,-0.0341648414232,-0.0307211900018,0.0486920354366,-0.00612630705598,-0.0107774348595,0.0187417445466,-0.00491806214677,0.04411559635229884,0.07209375975688413,1.3843164609453682
1765470130.7435358,3.405641555786133,-0.0443157093728,0.0551698764884,-0.0330945360807,-0.0309720384017,0.0490328057407,-0.00341528713092,-0.011149296635,0.0183372988194,-0.00508575767742,0.04411559635229884,0.07209375975688413,1.3843164609453682
1765470130.7636487,3.4257545471191406,-0.0449442659807,0.0561576560661,-0.032171200174,-0.0312241227208,0.0493719049913,-0.00118426189265,-0.0114536194143,0.0180063101138,-0.00526101926045,0.04411559635229884,0.07209375975688413,1.3843164609453682
1765470130.7857141,3.447819948196411,-0.0455623282619,0.0571698970347,-0.0313552069216,-0.0313289954197,0.0498822718203,0.00109142235805,-0.0100698726473,0.0196359372921,0.000273903171338,0.04404948753942683,0.07202646500508919,1.3845622707139824
1765470130.8042238,3.466329574584961,-0.0461920443321,0.0582020749355,-0.0306492152372,-0.0314310667577,0.0504034693434,0.00303387111342,-0.00893539872575,0.0209719978919,0.00478323323649,0.04404948753942683,0.07202646500508919,1.3845622707139824
1765470130.824421,3.4865267276763916,-0.0468189161254,0.059232336626,-0.0316923949004,-0.0315269167447,0.0509254383194,0.000759015822865,-0.00800759332158,0.0220646666799,0.00813460121669,0.04404948753942683,0.07202646500508919,1.3845622707139824
1765470130.8458133,3.5079190731048584,-0.0474490554164,0.0602714835243,-0.0325874997998,-0.031619384784,0.0514513676604,-0.00103267136638,-0.00724864741161,0.0229584710314,0.0109131726735,0.04404948753942683,0.07202646500508919,1.3845622707139824
1765470130.864705,3.526810884475708,-0.0480862527367,0.0613266144627,-0.0333537474125,-0.0317099689976,0.0519835704421,-0.00241196084709,-0.00662714804947,0.0236904057148,0.0132201691645,0.04404948753942683,0.07202646500508919,1.3845622707139824
1765470130.8847702,3.5468759536743164,-0.0487213465156,0.0623834764872,-0.0340059277105,-0.0317972230133,0.0525148969019,-0.00344094621734,-0.00611899022027,0.0242888590077,0.0151335688575,0.04404948753942683,0.07202646500508919,1.3845622707139824
1765470130.9047647,3.5668704509735107,-0.0493629945333,0.0634568984993,-0.0345596352692,-0.0318833937792,0.0530515014078,-0.00417107874073,-0.00570297553188,0.0247787960821,0.0167229099198,0.04404948753942683,0.07202646500508919,1.3845622707139824
1765470130.9253263,3.5874321460723877,-0.050002642205,0.0645331832252,-0.035026194844,-0.0319672496106,0.0535865445383,-0.00465186573697,-0.00536283673738,0.0251793747408,0.0180417744882,0.04404948753942683,0.07202646500508919,1.3845622707139824
1765470130.9469008,3.609006643295288,-0.0506496504278,0.065628382646,-0.0354184403603,-0.0320507246697,0.0541271197129,-0.00491974095113,-0.0050843044851,0.0255073998818,0.0191379732558,0.04404948753942683,0.07202646500508919,1.3845622707139824
1765470130.9683948,3.630500555038452,-0.0512934787078,0.0667250903468,-0.0357444932968,-0.0321323297501,0.054664723426,-0.0050149909363,-0.00485659126452,0.0257755758675,0.0200477265944,0.04404948753942683,0.07202646500508919,1.3845622707139824
1765470130.9865932,3.6486990451812744,-0.0519646373607,0.0677507155847,-0.0356642861506,-0.0324601715957,0.0543890087378,-0.0044635709511,-0.0073879909437,0.017031523421,0.0162628975103,0.0445564077693558,0.07195563324247149,1.384829785245481
1765470131.0064447,3.668550491333008,-0.0526388564323,0.0687838966563,-0.0355874839228,-0.0327971661795,0.0540819015209,-0.0039716877698,-0.00945904379827,0.0098776176475,0.013162968561,0.0445564077693558,0.07195563324247149,1.384829785245481
1765470131.026124,3.68822979927063,-0.0533171828167,0.0698219533288,-0.0355147937101,-0.0331417592048,0.0537490040191,-0.0035335676272,-0.0111537991549,0.00402353231921,0.0106231034704,0.0445564077693558,0.07195563324247149,1.384829785245481
1765470131.0461812,3.708287000656128,-0.053999708067,0.0708614525212,-0.0354465955128,-0.03349241857,0.05339481716,-0.00314422086912,-0.0125405959883,-0.000766791525921,0.00854180617134,0.0445564077693558,0.07195563324247149,1.384829785245481
1765470131.0662634,3.7283692359924316,-0.054686870475,0.071900211762,-0.0353831220382,-0.0338479554265,0.0530232851866,-0.00279881056298,-0.0136753594123,-0.00468653244054,0.00683602144606,0.0445564077693558,0.07195563324247149,1.384829785245481
1765470131.0864363,3.748542070388794,-0.0553803026209,0.0729384256282,-0.0353244962576,-0.0342079219866,0.0526374157494,-0.00249253748295,-0.014604127274,-0.0078947160238,0.00543738052996,0.0445564077693558,0.07195563324247149,1.384829785245481
1765470131.1066082,3.76871395111084,-0.0560794001412,0.0739732060636,-0.0352705909358,-0.0345711821506,0.0522398853655,-0.00222159238079,-0.0153642298911,-0.0105202900109,0.00429043423174,0.0445564077693558,0.07195563324247149,1.384829785245481
1765470131.1252267,3.787332534790039,-0.0567839047547,0.0750026311939,-0.0341214217196,-0.0349368532182,0.0518330532271,0.000630236213761,-0.0159861941446,-0.0126687014596,0.00355710728821,0.0445564077693558,0.07195563324247149,1.384829785245481
1765470131.1528277,3.8149335384368896,-0.0574963470526,0.0760291853099,-0.0331305300447,-0.0353054637313,0.0514178632216,0.00296495787538,-0.0164953319091,-0.0144273835641,0.00291601429242,0.0445564077693558,0.07195563324247149,1.384829785245481
1765470131.168289,3.830394744873047,-0.0582140247352,0.0770478556723,-0.0322785334323,-0.0356752643742,0.0509968274249,0.0048537983489,-0.0169119400113,-0.0158664463583,0.00235628864168,0.0445564077693558,0.07195563324247149,1.384829785245481
1765470131.1898072,3.8519129753112793,-0.0589175891149,0.078132725124,-0.0315173327872,-0.0358345411487,0.0512829230067,0.00701533278272,-0.0149154595188,-0.00919726729649,0.0100315054651,0.044634034753942405,0.07199012950096642,1.3849064842848753
1765470131.207273,3.8693788051605225,-0.0596264810793,0.0792124645521,-0.0308609665863,-0.0359862326042,0.0515934562762,0.00887598346198,-0.0132817560455,-0.0037399332339,0.0162854787457,0.044634034753942405,0.07199012950096642,1.3849064842848753
1765470131.2295344,3.8916401863098145,-0.0603413400966,0.0802912215185,-0.0302945751483,-0.0361321936833,0.0519237225497,0.0104757090294,-0.011944637351,0.000726668886336,0.0213811518347,0.044634034753942405,0.07199012950096642,1.3849064842848753
1765470131.2478745,3.909980297088623,-0.061065538619,0.0813764985852,-0.0298044685999,-0.0362746577993,0.0522706490815,0.0118515263618,-0.0108492654026,0.00438572375345,0.0255357103556,0.044634034753942405,0.07199012950096642,1.3849064842848753
1765470131.2679439,3.9300496578216553,-0.0617894383828,0.082456586814,-0.0321334709406,-0.0364116049031,0.0526306775428,0.00649299656258,-0.00995324450256,0.00737885283625,0.0283986145579,0.044634034753942405,0.07199012950096642,1.3849064842848753
1765470131.2879057,3.9500114917755127,-0.0625178408771,0.0835401704336,-0.0341344751484,-0.0365454270815,0.0530016290332,0.00218904831263,-0.00922008135493,0.00982796081975,0.0308237772666,0.044634034753942405,0.07199012950096642,1.3849064842848753
1765470131.3078892,3.9699950218200684,-0.0632496072548,0.0846270569835,-0.0358488172878,-0.0366764871561,0.0533813616719,-0.00121215209559,-0.00862017191542,0.0118319390645,0.0328789210562,0.044634034753942405,0.07199012950096642,1.3849064842848753
1765470131.3281822,3.990288019180298,-0.0639852128834,0.0857191285922,-0.037313022178,-0.0368054463899,0.0537684704959,-0.00384254555096,-0.00812921464582,0.0134719660795,0.0346211951033,0.044634034753942405,0.07199012950096642,1.3849064842848753
1765470131.3483167,4.010422468185425,-0.0647242377388,0.086816751797,-0.0385591438779,-0.0369326408521,0.0541615907183,-0.00581730792988,-0.00772740053796,0.0148142132213,0.036098489677,0.044634034753942405,0.07199012950096642,1.3849064842848753
1765470131.3688471,4.0309529304504395,-0.0654975847896,0.0879832212067,-0.0396500473067,-0.0369999110984,0.0546466623976,-0.00770807532116,-0.00666774722724,0.0167050088164,0.0311931081414,0.044303216051094926,0.07200962883357284,1.3851192708559725
1765470131.3896463,4.051752090454102,-0.0662358235422,0.0891007949783,-0.0405666505132,-0.0370556177539,0.0551230373789,-0.00917564506352,-0.00580409362521,0.0182460717374,0.0272334221961,0.044303216051094926,0.07200962883357284,1.3851192708559725
1765470131.40979,4.0718958377838135,-0.0669761782187,0.0902252542373,-0.0383947451,-0.0371082916868,0.0556046055872,-0.00326706449627,-0.00509924600797,0.0195037687185,0.0245902991632,0.044303216051094926,0.07200962883357284,1.3851192708559725
1765470131.4317756,4.093881368637085,-0.0677218236269,0.0913623599328,-0.0365160355053,-0.0371589160525,0.0560922859298,0.00164828371399,-0.00452308632791,0.0205318409889,0.0223516113656,0.044303216051094926,0.07200962883357284,1.3851192708559725
1765470131.4499185,4.112024307250977,-0.0684663217351,0.0925032249537,-0.0348943256188,-0.0372071117122,0.0565819813465,0.00570152707851,-0.00405226084494,0.0213719598658,0.0204546740399,0.044303216051094926,0.07200962883357284,1.3851192708559725
1765470131.4701338,4.132239580154419,-0.0692133897451,0.0936540960581,-0.0334966597176,-0.03725374128,0.0570751668023,0.00901699130846,-0.00366724034269,0.0220589723653,0.0188454635105,0.044303216051094926,0.07200962883357284,1.3851192708559725
1765470131.4904847,4.15259051322937,-0.0699696034905,0.094825684784,-0.0322915563893,-0.0372997018317,0.0575754038811,0.0117050865779,-0.00335183220042,0.0226217718394,0.0174775617102,0.044303216051094926,0.07200962883357284,1.3851192708559725
1765470131.5101788,4.1722846031188965,-0.0707184772489,0.0959930548153,-0.031260539527,-0.0373436996214,0.058072453392,0.0138433328618,-0.00309406570674,0.0230817182633,0.0163167430811,0.044303216051094926,0.07200962883357284,1.3851192708559725
1765470131.5313435,4.193449258804321,-0.0714691333961,0.0971705585416,-0.0303789644389,-0.0373868291632,0.0585714476885,0.0155167893456,-0.00288327832832,0.0234578373605,0.0153309285507,0.044303216051094926,0.07200962883357284,1.3851192708559725
1765470131.5509653,4.21307110786438,-0.0722208789436,0.0983574159101,-0.0327468077637,-0.0374292005197,0.0590717266613,0.00938781135809,-0.00271086205191,0.0237654888656,0.0139048700173,0.044303216051094926,0.07200962883357284,1.3851192708559725
1765470131.5703132,4.232419013977051,-0.0729873420605,0.0995389850575,-0.0347971687948,-0.037602252957,0.0594202809086,0.0041540068215,-0.00401353510804,0.022333989978,0.0108380582262,0.044109425308710426,0.071860217174041,1.3853491016580464
1765470131.591464,4.253569841384888,-0.0737547206332,0.100728637081,-0.0365642341093,-0.0377799166705,0.0597633023797,-0.000177474315917,-0.00507932462778,0.0211628008566,0.00840174242812,0.044109425308710426,0.071860217174041,1.3853491016580464
1765470131.6112013,4.2733070850372314,-0.074524733731,0.101927901883,-0.0380846305103,-0.0379614987211,0.0601024579853,-0.00373244402032,-0.00595153012866,0.0202043399454,0.0064705058627,0.044109425308710426,0.071860217174041,1.3853491016580464
1765470131.631202,4.293307781219482,-0.0752964704376,0.10313436612,-0.0393899477551,-0.0381461296342,0.0604378041173,-0.00661985695093,-0.00666523949186,0.0194200494017,0.00494394283364,0.044109425308710426,0.071860217174041,1.3853491016580464
1765470131.651661,4.313766717910767,-0.0760711408616,0.104349150019,-0.0405081695486,-0.0383333824823,0.0607704539368,-0.00893502331025,-0.00724933425687,0.0187781914908,0.00374060655691,0.044109425308710426,0.071860217174041,1.3853491016580464
1765470131.672287,4.334392786026001,-0.0768495882255,0.105572941069,-0.0414638759772,-0.0385229210416,0.0611011913822,-0.0107610096242,-0.00772744635666,0.0182527972364,0.00279488737171,0.044109425308710426,0.071860217174041,1.3853491016580464
1765470131.692407,4.354512691497803,-0.0776497159287,0.10683362525,-0.0398923732828,-0.0387180393699,0.0614386201374,-0.00648985454444,-0.00812016104107,0.0178212456423,0.00250396407187,0.044109425308710426,0.071860217174041,1.3853491016580464
1765470131.7131317,4.375237464904785,-0.0784339927982,0.108071226709,-0.0385300959143,-0.0389107104887,0.0617654625113,-0.00293612967063,-0.00844091413148,0.0174687721725,0.00220946746146,0.044109425308710426,0.071860217174041,1.3853491016580464
1765470131.7326968,4.394802570343018,-0.0792210712598,0.109314966768,-0.0373548563083,-0.0391043876185,0.0620907849222,1.29393671544e-06,-0.00870304041447,0.0171807233173,0.00191994067248,0.044109425308710426,0.071860217174041,1.3853491016580464
1765470131.7528665,4.414972305297852,-0.0800118204366,0.110565929855,-0.0363426384107,-0.0392990304434,0.0624151545353,0.00240932206811,-0.00891737314228,0.0169451944868,0.00164127290177,0.044109425308710426,0.071860217174041,1.3853491016580464
1765470131.7722921,4.43439793586731,-0.0808211793667,0.111844093608,-0.035460729023,-0.0396345823717,0.0629265676195,0.00461361393294,-0.0106322456819,0.0188153404879,0.00449578802576,0.04472244754094384,0.0717668650554553,1.3855906503689166
1765470131.7959137,4.458019495010376,-0.0816586007544,0.113167623936,-0.0346968195851,-0.0399832263061,0.0634565618195,0.00644764575971,-0.0120414827542,0.0203521772,0.00681073396363,0.04472244754094384,0.0717668650554553,1.3855906503689166
1765470131.8158073,4.47791314125061,-0.0824762269269,0.114460266151,-0.0340446966166,-0.0403301529968,0.0639802040056,0.00794783471674,-0.013191601794,0.0216064339878,0.00867286950433,0.04472244754094384,0.0717668650554553,1.3855906503689166
1765470131.8339636,4.496069431304932,-0.0832996001312,0.11576233036,-0.0334864377814,-0.0406812511837,0.0645084780276,0.00916561312968,-0.0141312253982,0.0226311359907,0.0101710883873,0.04472244754094384,0.0717668650554553,1.3855906503689166
1765470131.8541787,4.516284465789795,-0.0841286867012,0.117073567161,-0.0353969623876,-0.0410356764883,0.0650403855863,0.00447320669111,-0.0148993392677,0.0234687988772,0.0109254342511,0.04472244754094384,0.0717668650554553,1.3855906503689166
1765470131.8743231,4.536428928375244,-0.0849674493469,0.118400096167,-0.0370421617097,-0.0413941878335,0.0655773895462,0.000640046612061,-0.0155279078849,0.0241542813598,0.011610684466,0.04472244754094384,0.0717668650554553,1.3855906503689166
1765470131.8945456,4.55665135383606,-0.0858082317214,0.119729656564,-0.0384549171799,-0.041753378149,0.0661143885546,-0.00245368799013,-0.0160418424595,0.0247147502386,0.0122295737059,0.04472244754094384,0.0717668650554553,1.3855906503689166
1765470131.9145687,4.576674461364746,-0.0866555250403,0.121069260584,-0.0396649395208,-0.0421144070815,0.0666533995438,-0.00491427978893,-0.0164622015658,0.0251731708405,0.0127858619415,0.04472244754094384,0.0717668650554553,1.3855906503689166
1765470131.9345822,4.5966880321502686,-0.0875093839576,0.122418908533,-0.0406984666319,-0.0424769030765,0.0671939966591,-0.00683468424024,-0.0168060988378,0.0255482063567,0.0132836813127,0.04472244754094384,0.0717668650554553,1.3855906503689166
1765470131.954846,4.6169517040252686,-0.0883703784321,0.123779431592,-0.0415785292353,-0.0428407672012,0.0677361443119,-0.00829543855416,-0.017087505588,0.0258550931348,0.0137273678228,0.04472244754094384,0.0717668650554553,1.3855906503689166
1765470131.97418,4.636285781860352,-0.0892083050832,0.125133491992,-0.0423394085335,-0.0429044400836,0.0681048615319,-0.00967208109588,-0.0140013233833,0.0241825929177,0.0103113497863,0.04478515666223679,0.07180314230292924,1.3857786695418761
1765470131.9949453,4.657051086425781,-0.0900520387776,0.126497430238,-0.0407850702928,-0.0429569261246,0.068467516247,-0.00550627322977,-0.0114755240872,0.0228137820081,0.00795676037768,0.04478515666223679,0.07180314230292924,1.3857786695418761
1765470132.0151606,4.677266359329224,-0.0909054760193,0.127878589366,-0.0394385458488,-0.0430014018012,0.0688277369318,-0.00204690523297,-0.00940659078952,0.0216925613024,0.00597269715023,0.04478515666223679,0.07180314230292924,1.3857786695418761
1765470132.0354838,4.697589635848999,-0.0917573479972,0.129259869526,-0.0382752792099,-0.0430369833278,0.0691810248145,0.000795955243706,-0.00771426168401,0.0207754343771,0.00430159433693,0.04478515666223679,0.07180314230292924,1.3857786695418761
1765470132.0555003,4.717606067657471,-0.0926121825163,0.130649224423,-0.0372731011319,-0.0430664315165,0.0695308978467,0.00310915167035,-0.00632975311808,0.0200251251849,0.00289299243415,0.04478515666223679,0.07180314230292924,1.3857786695418761
1765470132.0759635,4.738069295883179,-0.0934788587807,0.132061666059,-0.0364099833764,-0.0430920826439,0.0698822621254,0.00497083201752,-0.00519510547863,0.0194102235694,0.00170317689792,0.04478515666223679,0.07180314230292924,1.3857786695418761
1765470132.0962124,4.758318185806274,-0.0943385535967,0.133467242284,-0.0356713880831,-0.0431123395744,0.0702271818182,0.00644079497807,-0.00426738705036,0.0189074634698,0.000699705297648,0.04478515666223679,0.07180314230292924,1.3857786695418761
1765470132.1180236,4.780129432678223,-0.0952005117455,0.134881305203,-0.0350406353041,-0.0431293158647,0.0705705135406,0.00757749326615,-0.00350852779739,0.0184962135237,-0.00014722023197,0.04478515666223679,0.07180314230292924,1.3857786695418761
1765470132.1362762,4.798382043838501,-0.0960646649955,0.13630410129,-0.03395347205,-0.0431436065837,0.0709126747357,0.00973799425619,-0.00288759630858,0.0181597110164,-0.000758643821244,0.04478515666223679,0.07180314230292924,1.3857786695418761
1765470132.1565013,4.8186070919036865,-0.0969289039501,0.137732450426,-0.0330256494126,-0.0431555718348,0.0712531483821,0.0114131506335,-0.00237959067796,0.0178844066206,-0.00129716985475,0.04478515666223679,0.07180314230292924,1.3857786695418761
1765470132.1759508,4.838056564331055,-0.0978176461781,0.139138055278,-0.0322307532678,-0.0433892603616,0.0712800844651,0.0127896664049,-0.00442434875755,0.0142141358066,-0.000349864621921,0.044343671132528906,0.07181074895679278,1.3858966475781667
1765470132.196739,4.858844757080078,-0.0987072109734,0.140548110249,-0.0315563773973,-0.043630289417,0.0712933902701,0.0138210115855,-0.00609750589988,0.0112108759649,0.000397555858831,0.044343671132528906,0.07181074895679278,1.3858966475781667
1765470132.217614,4.8797197341918945,-0.0996001499823,0.141964411642,-0.0309859607637,-0.0438775314328,0.0712960352802,0.0145603854717,-0.00746693789432,0.00875279237493,0.000985863047687,0.044343671132528906,0.07181074895679278,1.3858966475781667
1765470132.2369661,4.899071931838989,-0.100494953823,0.143382557875,-0.03050619701,-0.044129572101,0.0712895069466,0.0150538244439,-0.0085875347448,0.00674135935725,0.00144755100801,0.044343671132528906,0.07181074895679278,1.3858966475781667
1765470132.2573395,4.919445276260376,-0.101395284656,0.144806882189,-0.0301038928686,-0.044386106621,0.0712759582038,0.0153411361315,-0.00950490576311,0.00509470975715,0.00180898294689,0.044343671132528906,0.07181074895679278,1.3858966475781667
1765470132.277391,4.939496755599976,-0.102297365126,0.146230006579,-0.0306862983638,-0.0446455596353,0.0712561355271,0.0132794781041,-0.0102555448082,0.003747338346,0.00191827310615,0.044343671132528906,0.07181074895679278,1.3858966475781667
1765470132.297294,4.959399700164795,-0.103204564408,0.147656283137,-0.0311982154891,-0.0449079696805,0.0712314963377,0.0114839000023,-0.0108699161535,0.00264456279531,0.00202879282529,0.044343671132528906,0.07181074895679278,1.3858966475781667
1765470132.317528,4.979633808135986,-0.104115603677,0.149082808672,-0.0316481966271,-0.0451724913139,0.0712027975207,0.00992243596292,-0.0113726997762,0.00174208338976,0.00213777518137,0.044343671132528906,0.07181074895679278,1.3858966475781667
1765470132.3383286,5.000434398651123,-0.1050308009,0.150509396724,-0.0320433966181,-0.0454387332674,0.0711707994951,0.00856672104654,-0.0117841479057,0.00100354807047,0.00224324335395,0.044343671132528906,0.07181074895679278,1.3858966475781667
1765470132.3588815,5.020987272262573,-0.10596142245,0.151953026674,-0.0323894566754,-0.0457092727467,0.071136258957,0.00738912745508,-0.0121214528783,0.000398097181826,0.00234377379961,0.044343671132528906,0.07181074895679278,1.3858966475781667
1765470132.378021,5.040126800537109,-0.10688568251,0.153449722023,-0.0326956587194,-0.04596612379,0.0717789294614,0.00634059340175,-0.0122617675644,0.00738626524961,0.00206464615093,0.044497023438236236,0.07178619794049361,1.3860955857115955
1765470132.3981137,5.0602195262908936,-0.107815240256,0.154949642031,-0.0329639584836,-0.0462235702721,0.0724469398351,0.00543030866227,-0.0123765454595,0.013102610734,0.00184738650777,0.044497023438236236,0.07178619794049361,1.3860955857115955
1765470132.4179633,5.080069065093994,-0.10874914048,0.156453591562,-0.0328322057978,-0.0464812525299,0.0731354666877,0.0055125373753,-0.0124704395219,0.0177788674182,0.00174849304311,0.044497023438236236,0.07178619794049361,1.3860955857115955
1765470132.4383843,5.100490093231201,-0.109688124122,0.157964609555,-0.0327226669091,-0.0467392831785,0.0738409131237,0.00553740116504,-0.0125472629635,0.0216049467557,0.00166306296343,0.044497023438236236,0.07178619794049361,1.3860955857115955
1765470132.4597204,5.121826171875,-0.110634890383,0.159488512822,-0.0326320554371,-0.0469983154788,0.0745615808175,0.00551487963866,-0.0126101529314,0.0247370897833,0.0015893895554,0.044497023438236236,0.07178619794049361,1.3860955857115955
1765470132.479288,5.1413938999176025,-0.111584383446,0.161018555551,-0.032558254314,-0.0472569356339,0.0752925031883,0.00545360267169,-0.0126616089389,0.0272997811042,0.0015260682292,0.044497023438236236,0.07178619794049361,1.3860955857115955
1765470132.49886,5.16096568107605,-0.112538760166,0.162559170072,-0.0324986806206,-0.0475156760505,0.0760325794015,0.00536109724262,-0.0127037123877,0.0293966818975,0.00147180157016,0.044497023438236236,0.07178619794049361,1.3860955857115955
1765470132.5190127,5.181118488311768,-0.113498421204,0.164111836738,-0.0324512680213,-0.0477746056218,0.0767803501572,0.00524373097523,-0.0127381669671,0.0311126419182,0.00142544021322,0.044497023438236236,0.07178619794049361,1.3860955857115955
1765470132.5391076,5.201213359832764,-0.114462970789,0.165676607774,-0.0324142862252,-0.0480335874782,0.0775341769664,0.00510695121869,-0.0127663623922,0.0325168738997,0.00138597846505,0.044497023438236236,0.07178619794049361,1.3860955857115955
1765470132.5592706,5.221376419067383,-0.115434730442,0.16725780342,-0.032386011904,-0.0482932111272,0.0782945082911,0.00495530633518,-0.0127894441868,0.033666428976,0.00135250398156,0.044497023438236236,0.07178619794049361,1.3860955857115955
1765470132.581496,5.2436017990112305,-0.116403129173,0.168829360945,-0.0323641805271,-0.048491597472,0.0788658491885,0.00482100380946,-0.0121401210871,0.0324980614594,0.0016757414662,0.0447858058077525,0.07167874771288732,1.3863146307112546
1765470132.600162,5.262267827987671,-0.117377537757,0.170415866692,-0.0323485581618,-0.0486878914854,0.0794336589048,0.00468031566204,-0.0116086837216,0.0315418130904,0.00193967006686,0.0447858058077525,0.07167874771288732,1.3863146307112546
1765470132.6199248,5.2820305824279785,-0.118355522902,0.17201331884,-0.0323382732867,-0.0488819759242,0.0799972413345,0.00453566470704,-0.0111738109515,0.0307593194155,0.00215523696907,0.0447858058077525,0.07167874771288732,1.3863146307112546
1765470132.6398385,5.301944255828857,-0.119337990445,0.173623158569,-0.0323323230545,-0.049074471397,0.0805579519386,0.00438907738143,-0.010817928476,0.0301189579002,0.002331418613,0.0447858058077525,0.07167874771288732,1.3863146307112546
1765470132.6607714,5.3228771686553955,-0.120349039173,0.175285043134,-0.0323284775798,-0.0492708909808,0.0811309533262,0.00424171676756,-0.0105256153941,0.029592980756,0.00247590978655,0.0447858058077525,0.07167874771288732,1.3863146307112546
1765470132.6822903,5.344396114349365,-0.121341568442,0.176921525798,-0.0323294491405,-0.0494612395589,0.0816880802903,0.00409475897589,-0.0102868036271,0.0291632718617,0.0025940222018,0.0447858058077525,0.07167874771288732,1.3863146307112546
1765470132.7010567,5.363162517547607,-0.122337430649,0.178568451065,-0.0323327271292,-0.0496505580402,0.082243170856,0.00395027140681,-0.0100916122109,0.028812051783,0.00269071685316,0.0447858058077525,0.07167874771288732,1.3863146307112546
1765470132.722127,5.384232759475708,-0.123339445822,0.18023048017,-0.0323376945934,-0.0498395913203,0.0827981876637,0.00380904360224,-0.00993195189924,0.0285247650348,0.00277002348111,0.0447858058077525,0.07167874771288732,1.3863146307112546
1765470132.7411351,5.403240919113159,-0.124343205366,0.181900288766,-0.0323442485245,-0.0500275905698,0.0833508536533,0.00367163403788,-0.00980138094152,0.0282898205739,0.00283516413337,0.0447858058077525,0.07167874771288732,1.3863146307112546
1765470132.7612834,5.423389196395874,-0.125351502335,0.183582503746,-0.0323518688876,-0.0502152312419,0.0839029938129,0.00353861840082,-0.00969456059601,0.0280976120696,0.00288877789928,0.0447858058077525,0.07167874771288732,1.3863146307112546
1765470132.7815123,5.443618059158325,-0.126361781462,0.185257634137,-0.0323614492519,-0.0503791719021,0.084264752695,0.00338578012453,-0.0093497032061,0.0258502188402,0.0026272043906,0.04468808444050341,0.07170198379339826,1.3865054462033588
1765470132.8015974,5.463703155517578,-0.127375204881,0.186942231645,-0.0323717243448,-0.050541741755,0.0846180382082,0.00323692046507,-0.0090675273735,0.0240113136166,0.00241358657648,0.04468808444050341,0.07170198379339826,1.3865054462033588
1765470132.8240192,5.4861249923706055,-0.128399688653,0.188648994015,-0.0323821890765,-0.0507045879849,0.0849680228709,0.00309250704785,-0.00883637035112,0.0225048917094,0.00223899486564,0.04468808444050341,0.07170198379339826,1.3865054462033588
1765470132.8447785,5.506884336471558,-0.129426027701,0.190362053959,-0.0323932123972,-0.0508662467142,0.0853114982282,0.00295271496807,-0.00864715668886,0.0212718095256,0.0020965214357,0.04468808444050341,0.07170198379339826,1.3865054462033588
1765470132.8626673,5.524773120880127,-0.130471038075,0.192109253743,-0.0360855421162,-0.0510297279013,0.085656454018,-0.00592480008912,-0.00849197089921,0.0202604828057,0.00128359682629,0.04468808444050341,0.07170198379339826,1.3865054462033588
1765470132.8827949,5.54490065574646,-0.131498624375,0.193829707348,-0.039256660993,-0.051189117541,0.0859891399304,-0.0131431659044,-0.00836524740344,0.0194346413572,0.000752092011404,0.04468808444050341,0.07170198379339826,1.3865054462033588
1765470132.9033391,5.5654449462890625,-0.132529850169,0.195558485281,-0.0419745304979,-0.0513481001905,0.0863190062605,-0.0189436518906,-0.00826168301135,0.0187597249413,0.000430548491282,0.04468808444050341,0.07170198379339826,1.3865054462033588
1765470132.9226542,5.584759950637817,-0.133567805929,0.197300578206,-0.0443006353672,-0.0515072531557,0.086647682451,-0.0235358101397,-0.0081769626117,0.0182076125084,0.000263620757744,0.04468808444050341,0.07170198379339826,1.3865054462033588
1765470132.9432929,5.605398654937744,-0.134606464066,0.199045680611,-0.0462833053363,-0.0516656816695,0.0869734273501,-0.0270963453564,-0.0081076790523,0.0177561000663,0.000209121350141,0.04468808444050341,0.07170198379339826,1.3865054462033588
1765470132.9758244,5.637930154800415,-0.13567487077,0.200842574988,-0.0479843181752,-0.0518279807808,0.0873064893945,-0.0297847191361,-0.00805079235784,0.0173853764694,0.000233904429506,0.04468808444050341,0.07170198379339826,1.3865054462033588
1765470132.983705,5.645810842514038,-0.136720146652,0.202615851022,-0.0494121991404,-0.0519839824091,0.0877620033456,-0.0317502167702,-0.00798250674139,0.0185420496909,9.09202477822e-06,0.04451857839830906,0.07170435567124411,1.386676687461451
1765470133.004272,5.666377782821655,-0.137767883412,0.204395272606,-0.0495118598051,-0.0521396240216,0.0882213060449,-0.0304709206678,-0.00792671684191,0.0194870610434,8.36517645712e-05,0.04451857839830906,0.07170435567124411,1.386676687461451
1765470133.0244098,5.68651556968689,-0.138819085472,0.206182970644,-0.0495730529371,-0.0522951066303,0.0886840352352,-0.0291605426798,-0.00788110773157,0.0202596225188,0.000147061760256,0.04451857839830906,0.07170435567124411,1.386676687461451
1765470133.044456,5.706561803817749,-0.139872635531,0.207977404388,-0.0496016275416,-0.0524502998644,0.0891491733119,-0.0278359766,-0.00784381212271,0.0208913636422,0.000200024044512,0.04451857839830906,0.07170435567124411,1.386676687461451
1765470133.0660307,5.7281365394592285,-0.140929827404,0.209781058167,-0.0496036698059,-0.0526054298108,0.089616739757,-0.0265106491147,-0.00781330304009,0.0214081494707,0.00024338915267,0.04451857839830906,0.07170435567124411,1.386676687461451
1765470133.0851748,5.747280597686768,-0.141989520376,0.21159222652,-0.0495834226226,-0.0527603521167,0.0900858804867,-0.0251961407964,-0.00778834351239,0.0218309327567,0.000277983920738,0.04451857839830906,0.07170435567124411,1.386676687461451
1765470133.105418,5.767523765563965,-0.143053313039,0.213413831039,-0.0495455742071,-0.0529153242658,0.0905569263024,-0.0239012287609,-0.00776791793786,0.022176916528,0.000304713655946,0.04451857839830906,0.07170435567124411,1.386676687461451
1765470133.1250591,5.787164926528931,-0.144121357061,0.215246301061,-0.0494935050016,-0.0530703835651,0.0910296851702,-0.0226330306257,-0.00775119947997,0.0224601063643,0.000324446305116,0.04451857839830906,0.07170435567124411,1.386676687461451
1765470133.145166,5.807271718978882,-0.145190761848,0.217084809591,-0.0492459719257,-0.0532251216398,0.0915027163693,-0.0209628754849,-0.00773751949828,0.0226918282014,0.0003724776026,0.04451857839830906,0.07170435567124411,1.386676687461451
1765470133.168211,5.830316781997681,-0.146263300572,0.218932497216,-0.0490153467335,-0.0533798104109,0.0919765827108,-0.0194123104806,-0.00772632466653,0.0228814546963,0.000402255903664,0.04451857839830906,0.07170435567124411,1.386676687461451
