timestamp_abs,timestamp_rel,x,y,z,vx,vy,vz,ax,ay,az,roll,pitch,yaw
1765456146.7585633,0.9506306648254395,-8.03101599358e-13,4.56451173991e-12,-0.121518958492,-2.59111711584e-07,1.4726884499e-06,3.93460784095e-07,-0.0418000009711,0.237574667157,0.184992949261,-0.09356822578576532,0.03195589825943047,-1.4828924365882696
1765456146.7736557,0.9657230377197266,-1.01426859344e-05,5.7647013851e-05,-0.122119729053,-0.00100673280798,0.00572187096207,0.00321700148414,-0.0504559227807,0.286771501967,0.223298754364,-0.09356822578576532,0.03195589825943047,-1.4828924365882696
1765456146.7971408,0.9892082214355469,-4.47565860226e-05,0.000254378726803,-0.122276165404,-0.00219393023559,0.0124694314205,0.0070832864405,-0.0542889886502,0.3085571318,0.240258829602,-0.09356822578576532,0.03195589825943047,-1.4828924365882696
1765456146.8148155,1.006882905960083,-0.000103261674084,0.000586898499538,-0.122297868229,-0.0033981471307,0.0193137237984,0.0107683576117,-0.0564851688079,0.321039350887,0.249973445381,-0.09356822578576532,0.03195589825943047,-1.4828924365882696
1765456146.835058,1.027125358581543,-0.000186493562149,0.00105995562022,-0.123607590437,-0.00462303769876,0.0262755171537,0.0027878690976,-0.0579244376547,0.329219585559,0.256284838445,-0.09356822578576532,0.03195589825943047,-1.4828924365882696
1765456146.8549724,1.0470397472381592,-0.000294642455816,0.00167463114221,-0.124590223847,-0.00586026534415,0.0333074295752,-0.00125220748299,-0.0589452549001,0.335021506891,0.260769450056,-0.09356822578576532,0.03195589825943047,-1.4828924365882696
1765456146.8753834,1.067450761795044,-0.000427726051712,0.00243102564615,-0.125300630375,-0.00710473659029,0.0403805117575,-0.0019776714706,-0.0597058944499,0.339344681142,0.264121633773,-0.09356822578576532,0.03195589825943047,-1.4828924365882696
1765456146.8982096,1.0902769565582275,-0.000585891172793,0.00332997361562,-0.125780731124,-0.00835479642572,0.0474853572702,-0.000380105111058,-0.0602910234513,0.342670322877,0.266709333638,-0.09356822578576532,0.03195589825943047,-1.4828924365882696
1765456146.9155583,1.1076257228851318,-0.000769017468644,0.00437079102647,-0.126075534647,-0.0096077169539,0.0546064618286,0.00262626880537,-0.0607505575959,0.345282133138,0.268747673431,-0.09356822578576532,0.03195589825943047,-1.4828924365882696
1765456146.935888,1.127955436706543,-0.000977208942627,0.00555406899268,-0.126227731399,-0.010863110287,0.0617416208319,0.00638785585905,-0.0611164521062,0.347361732766,0.270373830813,-0.09356822578576532,0.03195589825943047,-1.4828924365882696
1765456146.956139,1.1482064723968506,-0.00106003985576,0.00598795719604,-0.126393027576,-0.0101388017809,0.0571387613553,0.00650364388418,-0.0384595798089,0.212955398289,0.207337907914,-0.04633622745418018,0.03632905011831437,-1.5085304220863536
1765456146.9764342,1.168501615524292,-0.00114440388019,0.00642473439217,-0.123867044784,-0.00931182050686,0.0519266324765,0.0215339310792,-0.0201425401583,0.104294055911,0.156543322376,-0.04633622745418018,0.03632905011831437,-1.5085304220863536
1765456146.9964006,1.1884679794311523,-0.00122706339502,0.00684522940222,-0.121896712543,-0.00840478418919,0.0462396039448,0.0305152828216,-0.00527415454596,0.0160910072491,0.115265530945,-0.04633622745418018,0.03632905011831437,-1.5085304220863536
1765456147.0162876,1.2083549499511719,-0.00130501103876,0.00723162001462,-0.120365613533,-0.00743501283809,0.0401804913099,0.0354483146336,0.00682708470864,-0.0556966247552,0.0816323837948,-0.04633622745418018,0.03632905011831437,-1.5085304220863536
1765456147.0363061,1.2283735275268555,-0.00137548566395,0.00756753503466,-0.119180075507,-0.00641572746937,0.0338277394961,0.0376810221784,0.0166937491752,-0.114228190236,0.0541794562388,-0.04633622745418018,0.03632905011831437,-1.5085304220863536
1765456147.056756,1.2488234043121338,-0.0014359987982,0.00783821011032,-0.118266445208,-0.00535705746782,0.0272414132306,0.0381190278496,0.0247482484472,-0.162009530441,0.0317440687948,-0.04633622745418018,0.03632905011831437,-1.5085304220863536
1765456147.0769446,1.2690119743347168,-0.00148436587332,0.00803064241553,-0.117567237573,-0.00426659891754,0.0204664258687,0.0373714712879,0.0313292830438,-0.201049903074,0.0133930089792,-0.04633622745418018,0.03632905011831437,-1.5085304220863536
1765456147.0972357,1.2893030643463135,-0.0015186105272,0.00813309403582,-0.117038157287,-0.0031503508333,0.0135383397311,0.0358493301532,0.0367096350168,-0.232967520714,-0.00162602329371,-0.04633622745418018,0.03632905011831437,-1.5085304220863536
1765456147.116903,1.3089704513549805,-0.00153696400564,0.00813518148323,-0.116412456644,-0.00201396168454,0.00649098543743,0.0347098044656,0.0411093946301,-0.259068014835,-0.0138963475945,-0.04633622745418018,0.03632905011831437,-1.5085304220863536
1765456147.1374328,1.3295001983642578,-0.00153803485284,0.00802852993845,-0.115938966151,-0.000860492316687,-0.000657830744095,0.0330068560357,0.0447085394983,-0.280419058468,-0.0239491018744,-0.04633622745418018,0.03632905011831437,-1.5085304220863536
1765456147.1577353,1.3498027324676514,-0.001744445845,0.00904553607229,-0.115371527322,-0.00200966838246,0.00494006697973,0.0365848466119,0.0220438827951,-0.156058276615,0.0458236984708,-0.06166024778119946,0.037408637367583646,-1.5111014378027159
1765456147.177632,1.369699478149414,-0.00194392010838,0.0100102485559,-0.114882127157,-0.00324439980374,0.0110075736113,0.0402891654909,0.00349860556371,-0.0543004954853,0.102899345355,-0.06166024778119946,0.037408637367583646,-1.5111014378027159
1765456147.19769,1.3897573947906494,-0.00214324736362,0.0109598825696,-0.114445326072,-0.0045486132201,0.0174562604141,0.0441049080379,-0.011677030327,0.028968091778,0.149589716055,-0.06166024778119946,0.037408637367583646,-1.5111014378027159
1765456147.2178607,1.4099280834197998,-0.00234807223446,0.0119254491286,-0.114043302629,-0.00590940545702,0.0242155119034,0.048006512019,-0.0240953258805,0.0971071756623,0.187782473506,-0.06166024778119946,0.037408637367583646,-1.5111014378027159
1765456147.2378879,1.429955244064331,-0.00256316048201,0.0129330348525,-0.113663074678,-0.00731647134543,0.0312285075137,0.0519664417163,-0.0342579456543,0.152869385401,0.219023869121,-0.06166024778119946,0.037408637367583646,-1.5111014378027159
1765456147.2606325,1.452699899673462,-0.00279588243252,0.0140192499155,-0.113895812558,-0.00877723016647,0.0385220301491,0.0542208583114,-0.0425992340474,0.198637965081,0.244563184337,-0.06166024778119946,0.037408637367583646,-1.5111014378027159
1765456147.2782316,1.4702990055084229,-0.00304304980043,0.0151740062926,-0.114054772642,-0.0102546211193,0.04592076489,0.0568299201483,-0.0494144992215,0.236033268115,0.265433726551,-0.06166024778119946,0.037408637367583646,-1.5111014378027159
1765456147.2989392,1.49100661277771,-0.00331041056989,0.0164251883261,-0.114131952263,-0.0117572634348,0.0534577105024,0.0597644734658,-0.0549862497153,0.266605416494,0.282497002155,-0.06166024778119946,0.037408637367583646,-1.5111014378027159
1765456147.3188527,1.5109200477600098,-0.00359984860779,0.0177834625541,-0.11414029807,-0.0132790549715,0.0611004307589,0.0629236558813,-0.0595421261744,0.291603472538,0.296447624957,-0.06166024778119946,0.037408637367583646,-1.5111014378027159
1765456147.3400643,1.5321316719055176,-0.00391371542342,0.0192612628578,-0.114088080671,-0.0148186425249,0.0688400611056,0.0662428923174,-0.0632690059136,0.31205283051,0.307855972622,-0.06166024778119946,0.037408637367583646,-1.5111014378027159
1765456147.3598974,1.5519647598266602,-0.00420630342089,0.020321473972,-0.114299713913,-0.0158850645402,0.0711447727246,0.0622912213471,-0.0608278873233,0.26748673687,0.221896419992,-0.04124905713991082,0.03333221366899961,-1.493338286489942
1765456147.381257,1.57332444190979,-0.00452076065737,0.0214779257979,-0.114500713018,-0.016930223891,0.0732273218359,0.0579809460285,-0.0588322427288,0.231053404945,0.15162616181,-0.04124905713991082,0.03333221366899961,-1.493338286489942
1765456147.400814,1.592881441116333,-0.00485887946854,0.0227279434493,-0.114696250625,-0.0179671799095,0.0751745787187,0.0534473605675,-0.0572004415159,0.201262551708,0.0941707450397,-0.04124905713991082,0.03333221366899961,-1.493338286489942
1765456147.4205925,1.6126599311828613,-0.00522087924128,0.0240630255237,-0.116234109105,-0.0190000902165,0.0770206407475,0.0453286095291,-0.0558654386289,0.176890174264,0.0469425637889,-0.04124905713991082,0.03333221366899961,-1.493338286489942
1765456147.4408321,1.632899522781372,-0.00560509439227,0.0254685501818,-0.117586269666,-0.0200265618411,0.0787730732702,0.0378262112427,-0.0547734095029,0.156953628583,0.00835843852868,-0.04124905713991082,0.03333221366899961,-1.493338286489942
1765456147.460495,1.6525623798370361,-0.00601128887078,0.0269373078273,-0.118784164739,-0.0210483230094,0.0804513681177,0.0308699048632,-0.0538800834653,0.140644690541,-0.0231614917128,-0.04124905713991082,0.03333221366899961,-1.493338286489942
1765456147.480701,1.6727683544158936,-0.00643932485128,0.0284635216117,-0.11985342229,-0.0220667755978,0.0820706670597,0.0244007406464,-0.0531491945995,0.127301274221,-0.048910675292,-0.04124905713991082,0.03333221366899961,-1.493338286489942
1765456147.500645,1.6927123069763184,-0.00688913248935,0.0300425386281,-0.120814859411,-0.023083042207,0.0836428222015,0.0183694096231,-0.0525510989374,0.116382186806,-0.0699457582053,-0.04124905713991082,0.03333221366899961,-1.493338286489942
1765456147.5209072,1.7129745483398438,-0.00736017516588,0.031668776773,-0.121685425492,-0.0240969014853,0.0851748469037,0.0127369754652,-0.0520616650132,0.107446874043,-0.0871263769376,-0.04124905713991082,0.03333221366899961,-1.493338286489942
1765456147.5410628,1.7331302165985107,-0.0078525123794,0.0333394761772,-0.122478437009,-0.0251093183729,0.0866751119795,0.00746908129576,-0.0516611133018,0.100134232555,-0.101156742283,-0.04124905713991082,0.03333221366899961,-1.493338286489942
1765456147.5609064,1.7529737949371338,-0.00853863705974,0.0350625248844,-0.121943450077,-0.0278340980308,0.0882635555929,0.00479357548844,-0.07020189296,0.0954153436081,-0.124107797596,-0.05052118120896874,0.03015567626394256,-1.4614312197858117
1765456147.5813856,1.7734529972076416,-0.00925254726682,0.0368243987434,-0.1215397419,-0.0306263553762,0.0898347441606,0.00176768505354,-0.0853756011808,0.0915534216541,-0.142908035504,-0.05052118120896874,0.03015567626394256,-1.4614312197858117
1765456147.601499,1.7935664653778076,-0.00999987076986,0.0386217310541,-0.121250783603,-0.0334720334107,0.0913900676813,-0.00151768840017,-0.0977919979303,0.0883932742135,-0.158304422203,-0.05052118120896874,0.03015567626394256,-1.4614312197858117
1765456147.6213,1.8133673667907715,-0.0107874280902,0.0404578628001,-0.12106140549,-0.0363658969745,0.092936638439,-0.0049959063687,-0.107955351835,0.0858065578354,-0.170915342291,-0.05052118120896874,0.03015567626394256,-1.4614312197858117
1765456147.6418417,1.833909034729004,-0.0116178465745,0.0423274304876,-0.120957823186,-0.0392952146951,0.0944723760326,-0.00859743634212,-0.116272954289,0.0836896111368,-0.181240765598,-0.05052118120896874,0.03015567626394256,-1.4614312197858117
1765456147.662586,1.8546533584594727,-0.0125096839135,0.0442642195537,-0.12093054537,-0.0422966180437,0.0960289294405,-0.0123336811371,-0.123097499555,0.0819526684723,-0.189714128619,-0.05052118120896874,0.03015567626394256,-1.4614312197858117
1765456147.6826346,1.874701976776123,-0.0134392626367,0.0462053805559,-0.12096301435,-0.0452870709343,0.0975534286668,-0.0160444366265,-0.128676553736,0.0805327207897,-0.196640154054,-0.05052118120896874,0.03015567626394256,-1.4614312197858117
1765456147.7038817,1.895949125289917,-0.0144191539031,0.0481755764857,-0.120862607573,-0.0482927677898,0.0990696996886,-0.0192988495336,-0.133237584639,0.0793718743359,-0.202264974435,-0.05052118120896874,0.03015567626394256,-1.4614312197858117
1765456147.722307,1.9143743515014648,-0.0154528597837,0.0501779612415,-0.120831798235,-0.0513147764466,0.10058176511,-0.0226023901484,-0.136967717322,0.0784225031547,-0.20686660082,-0.05052118120896874,0.03015567626394256,-1.4614312197858117
1765456147.742472,1.9345393180847168,-0.0165416948477,0.052211699496,-0.120859171171,-0.0543495506493,0.102090041347,-0.0259175934695,-0.140018972379,0.0776459158682,-0.210629808691,-0.05052118120896874,0.03015567626394256,-1.4614312197858117
1765456147.7627628,1.9548301696777344,-0.0174510527818,0.0545415813749,-0.120744111425,-0.0550561802076,0.10621873255,-0.0250856551584,-0.116773108107,0.10588153366,-0.162138719195,-0.07774369762137927,0.040864255329529586,-1.4221381421144554
1765456147.7832952,1.9753625392913818,-0.0184095360317,0.0569149066617,-0.120661059249,-0.0556804843223,0.110451200364,-0.0240469719861,-0.0977499526037,0.128988033023,-0.122456918799,-0.07774369762137927,0.040864255329529586,-1.4221381421144554
1765456147.8035052,1.995572566986084,-0.019408214796,0.0593392585173,-0.120595936042,-0.056235252783,0.114767184769,-0.0228346704171,-0.0821824964474,0.1478970629,-0.0899840533368,-0.07774369762137927,0.040864255329529586,-1.4221381421144554
1765456147.8250856,2.017153024673462,-0.020442080336,0.0618254614059,-0.120539404839,-0.0567350108574,0.119155362166,-0.0214838654021,-0.0694405436469,0.16337409163,-0.063405501903,-0.07774369762137927,0.040864255329529586,-1.4221381421144554
1765456147.8432724,2.035339832305908,-0.0215035660884,0.0643752060781,-0.121586423739,-0.0571868397365,0.123597090994,-0.0226500151799,-0.0590134125143,0.176039419358,-0.0418628453265,-0.07774369762137927,0.040864255329529586,-1.4221381421144554
1765456147.8635147,2.055582046508789,-0.0225892690567,0.066995602045,-0.122475285606,-0.0576005541909,0.128084524944,-0.0232377488033,-0.050480450364,0.186403992389,-0.024195937894,-0.07774369762137927,0.040864255329529586,-1.4221381421144554
1765456147.8838747,2.075942039489746,-0.0237047332502,0.0697116383501,-0.123226334081,-0.057990241913,0.132639296454,-0.0233436834101,-0.0434894187261,0.194895657616,-0.00968974232481,-0.07774369762137927,0.040864255329529586,-1.4221381421144554
1765456147.9061904,2.0982577800750732,-0.0248309242819,0.0724905576416,-0.123848999149,-0.0583480153517,0.137201707496,-0.0230449522794,-0.0377704564655,0.201842202199,0.00220337154974,-0.07774369762137927,0.040864255329529586,-1.4221381421144554
1765456147.9242518,2.116319179534912,-0.0259728683475,0.0753517505981,-0.124360911416,-0.0586849660472,0.141790119643,-0.0224165946084,-0.033091509011,0.207525491513,0.01195540728,-0.07774369762137927,0.040864255329529586,-1.4221381421144554
1765456147.9461749,2.138242244720459,-0.0271268776911,0.0782932925516,-0.124774947477,-0.0590039630894,0.146393724376,-0.0215216500189,-0.029263973192,0.21217461263,0.0199504841747,-0.07774369762137927,0.040864255329529586,-1.4221381421144554
1765456147.964654,2.156721353530884,-0.028242620389,0.0805211010281,-0.12533570011,-0.0588129643667,0.143095738,-0.0254134505425,-0.02067297112,0.128828040374,-0.0358346119507,-0.07343375422649272,0.026671939065955667,-1.3865476573066366
1765456147.984915,2.1769824028015137,-0.0293677233785,0.0828060096303,-0.123996547803,-0.0585909791282,0.139496362845,-0.0249742657811,-0.0136430425456,0.0606263981249,-0.0811203439891,-0.07343375422649272,0.026671939065955667,-1.3865476573066366
1765456148.005116,2.19718337059021,-0.0304983584305,0.085117501463,-0.122867680625,-0.0583433141109,0.13564819448,-0.0253607542488,-0.00789053198662,0.00481777033782,-0.118226115353,-0.07343375422649272,0.026671939065955667,-1.3865476573066366
1765456148.0253205,2.2173879146575928,-0.0316335284585,0.0874356284203,-0.121929365717,-0.05807478706,0.13159626255,-0.0264325710296,-0.0031824578473,-0.0408581401261,-0.148635526562,-0.07343375422649272,0.026671939065955667,-1.3865476573066366
1765456148.0449345,2.237001895904541,-0.0327689230454,0.0897360506339,-0.121161413446,-0.0577889644549,0.127378075083,-0.0280612062141,0.000670009364503,-0.0782332838101,-0.173551900974,-0.07343375422649272,0.026671939065955667,-1.3865476573066366
1765456148.0653465,2.257413864135742,-0.0339042365844,0.0920062574118,-0.12054566548,-0.0574891127794,0.123023731705,-0.0301411088838,0.00382254824387,-0.108817994103,-0.193968131637,-0.07343375422649272,0.026671939065955667,-1.3865476573066366
1765456148.0854597,2.277527093887329,-0.0350375060108,0.0942321921929,-0.120064278782,-0.0571778297506,0.118559255381,-0.0325766377171,0.00640220600365,-0.133844833821,-0.210695290755,-0.07343375422649272,0.026671939065955667,-1.3865476573066366
1765456148.1062965,2.2983639240264893,-0.0361691899553,0.0964066656814,-0.119701473048,-0.0568570502075,0.114001501688,-0.0352917044321,0.00851347513241,-0.154327548586,-0.224401151295,-0.07343375422649272,0.026671939065955667,-1.3865476573066366
1765456148.1272206,2.3192880153656006,-0.0373018907683,0.098527743911,-0.119443647104,-0.0565277954184,0.109355949026,-0.0382290584558,0.0102423554607,-0.171100475422,-0.23563587056,-0.07343375422649272,0.026671939065955667,-1.3865476573066366
1765456148.1477425,2.3398098945617676,-0.0384289885555,0.100576550836,-0.120375335299,-0.0561923251552,0.104651960417,-0.0439247822074,0.0116573654291,-0.184828353682,-0.245046153068,-0.07343375422649272,0.026671939065955667,-1.3865476573066366
1765456148.1660619,2.3581292629241943,-0.0397037033066,0.103097915825,-0.121182339818,-0.0573941314736,0.105392051639,-0.0482482276818,-0.00415868159309,-0.135687013583,-0.240679995447,-0.09607554201780448,0.030912584096445914,-1.3636660435367847
1765456148.186026,2.3780934810638428,-0.0409791414888,0.105561643602,-0.121918087547,-0.0586532696058,0.106311126348,-0.0521655730863,-0.017097863317,-0.095484254397,-0.237077476145,-0.09607554201780448,0.030912584096445914,-1.3636660435367847
1765456148.206415,2.398482322692871,-0.0422693404802,0.107999939937,-0.122594587103,-0.0599627030461,0.107365744265,-0.0557446624039,-0.0276957394136,-0.0625560623613,-0.23409864086,-0.09607554201780448,0.030912584096445914,-1.3636660435367847
1765456148.2289531,2.4210205078125,-0.0435625501653,0.110397350001,-0.123204337126,-0.061308158941,0.108552021009,-0.0589605123051,-0.0363633098155,-0.0356254377647,-0.231637093716,-0.09607554201780448,0.030912584096445914,-1.3636660435367847
1765456148.2467196,2.4387869834899902,-0.0448706018767,0.112779962718,-0.123759605616,-0.0626852750346,0.109835640258,-0.061877158926,-0.043454075608,-0.0135940330221,-0.229600344626,-0.09607554201780448,0.030912584096445914,-1.3636660435367847
1765456148.267927,2.459994316101074,-0.0461958143866,0.115155821937,-0.124264503218,-0.0640880094481,0.111199353089,-0.0645206570491,-0.0492554338199,0.00443111046215,-0.227913064414,-0.09607554201780448,0.030912584096445914,-1.3636660435367847
1765456148.286866,2.478933334350586,-0.0475413009193,0.117533633459,-0.125274260502,-0.0655122303299,0.112628691784,-0.0682260686373,-0.0540025626602,0.0191807044986,-0.226617129143,-0.09607554201780448,0.030912584096445914,-1.3636660435367847
1765456148.3089867,2.501054048538208,-0.0489079788985,0.11991770183,-0.126164425476,-0.0669532880328,0.114111618936,-0.0714608092808,-0.0578869131991,0.0312495982386,-0.225519991056,-0.09607554201780448,0.030912584096445914,-1.3636660435367847
1765456148.3273382,2.5194056034088135,-0.0502986134853,0.122315008981,-0.126949574227,-0.0684090129773,0.115638807079,-0.0742843004435,-0.0610656773754,0.0411261958019,-0.224589741656,-0.09607554201780448,0.030912584096445914,-1.3636660435367847
1765456148.3471158,2.5391831398010254,-0.0514189085683,0.124135466803,-0.127474136975,-0.0669560416942,0.111329882806,-0.0731515865771,-0.031522117671,-0.0154330013401,-0.179030572747,-0.07906230357848315,0.031024944527312037,-1.3581903180194728
1765456148.3680315,2.560098886489868,-0.052552821551,0.125951300776,-0.127908899875,-0.0653951717888,0.106814755081,-0.0715542036031,-0.00734627198035,-0.0617160639155,-0.141728497513,-0.07906230357848315,0.031024944527312037,-1.3581903180194728
1765456148.3883505,2.5804178714752197,-0.0536906493359,0.127743861881,-0.128258363145,-0.063746176822,0.102130917737,-0.0695805247927,0.0124377640584,-0.0995912964798,-0.111186269357,-0.07906230357848315,0.031024944527312037,-1.3581903180194728
1765456148.4087558,2.600823163986206,-0.0548236075162,0.129496532244,-0.128527679407,-0.0620252346059,0.0973100467551,-0.0673067317387,0.0286270595864,-0.13058463535,-0.086180747997,-0.07906230357848315,0.031024944527312037,-1.3581903180194728
1765456148.4287796,2.62084698677063,-0.0559457617843,0.131197714432,-0.128540755926,-0.060245303198,0.0923760280462,-0.0643652870429,0.0418757533228,-0.155948385975,-0.0656731575295,-0.07906230357848315,0.031024944527312037,-1.3581903180194728
1765456148.4490733,2.6411406993865967,-0.0570511995158,0.132836245313,-0.128513189849,-0.0584172891939,0.0873502655226,-0.0613309477804,0.052717904431,-0.17670496941,-0.0488906435727,-0.07906230357848315,0.031024944527312037,-1.3581903180194728
1765456148.4689546,2.6610219478607178,-0.0581356908505,0.134403934025,-0.128449040255,-0.0565497836261,0.0822488809366,-0.0582423716872,0.0615909489828,-0.193691828173,-0.0351578109552,-0.07906230357848315,0.031024944527312037,-1.3581903180194728
1765456148.4887092,2.680776596069336,-0.0591959748405,0.135894326506,-0.128352680416,-0.0546494211048,0.0770839976565,-0.0551321145335,0.0688530797553,-0.207594698719,-0.0239213816378,-0.07906230357848315,0.031024944527312037,-1.3581903180194728
1765456148.5093071,2.7013745307922363,-0.060228583407,0.137300975994,-0.128227860688,-0.0527225021559,0.0718682738468,-0.052027666831,0.0747966523509,-0.218973276573,-0.0147296124509,-0.07906230357848315,0.031024944527312037,-1.3581903180194728
1765456148.5293245,2.7213919162750244,-0.0612375270729,0.13862766489,-0.128083015336,-0.0507639085208,0.0665822629664,-0.048948221566,0.0796655809026,-0.228294519259,-0.00720497738573,-0.07906230357848315,0.031024944527312037,-1.3581903180194728
1765456148.549018,2.7410852909088135,-0.0629323878439,0.140482145127,-0.128079687187,-0.0559759577038,0.06752027043,-0.049525415635,0.00459601203772,-0.16730259455,-0.0460392520797,-0.07897528478986482,0.014366891674515117,-1.3664880621858873
1765456148.5695047,2.7615721225738525,-0.0646223783341,0.142266195127,-0.12714953886,-0.0614615759442,0.0686808180843,-0.0481339838435,-0.0568212401267,-0.117402795251,-0.0776408700219,-0.07897528478986482,0.014366891674515117,-1.3664880621858873
1765456148.5895114,2.781578779220581,-0.0663329486301,0.144000501512,-0.126347246842,-0.067170861036,0.0700234397784,-0.0473248167811,-0.107073159142,-0.0765745167968,-0.10353236512,-0.07897528478986482,0.014366891674515117,-1.3664880621858873
1765456148.6098871,2.801954507827759,-0.0680938839039,0.14571078771,-0.125665877589,-0.0730796471033,0.0715082615762,-0.0470149943484,-0.148229470104,-0.0431361654457,-0.124766720156,-0.07897528478986482,0.014366891674515117,-1.3664880621858873
1765456148.630176,2.8222434520721436,-0.0699041278024,0.147392725767,-0.125085996774,-0.079122243247,0.0731238340528,-0.047104581056,-0.181888057014,-0.0157895051459,-0.142157933175,-0.07897528478986482,0.014366891674515117,-1.3664880621858873
1765456148.6503031,2.8423705101013184,-0.0717872898033,0.149067613013,-0.124603393935,-0.0852876279203,0.0748381158352,-0.0475372086975,-0.209423026343,0.00658188717138,-0.156406056564,-0.07897528478986482,0.014366891674515117,-1.3664880621858873
1765456148.6708179,2.8628852367401123,-0.0737544040849,0.150744337909,-0.124207525079,-0.0915530034295,0.0766335203813,-0.0482504294493,-0.23195177205,0.0248858628404,-0.168080845977,-0.07897528478986482,0.014366891674515117,-1.3664880621858873
1765456148.6906426,2.8827099800109863,-0.0758161373675,0.152431545819,-0.123889126546,-0.0979036328864,0.0784958905072,-0.0491923431052,-0.250388096512,0.0398648607279,-0.177648649067,-0.07897528478986482,0.014366891674515117,-1.3664880621858873
1765456148.7092388,2.90130615234375,-0.0779740449498,0.15413062629,-0.124370336099,-0.104309410912,0.0804107498615,-0.052049950312,-0.265470239322,0.0521186798543,-0.185624994162,-0.07897528478986482,0.014366891674515117,-1.3664880621858873
1765456148.7297182,2.921785593032837,-0.0802395600841,0.155850913968,-0.124808889219,-0.110771532286,0.0823700996839,-0.0547232180029,-0.277811548204,0.0621456480853,-0.192134255643,-0.07897528478986482,0.014366891674515117,-1.3664880621858873
1765456148.750355,2.942422389984131,-0.0819762235241,0.15729631998,-0.125039837626,-0.110904201794,0.0813756655243,-0.053539815416,-0.217644819011,0.0374101347409,-0.151476936523,-0.052508057507357576,0.02080962242690512,-1.3859927876935185
1765456148.7707365,2.962803840637207,-0.0838030573771,0.158757530689,-0.125230334827,-0.110816222848,0.080290717845,-0.0520440271552,-0.168400960744,0.0171651899078,-0.118190548665,-0.052508057507357576,0.02080962242690512,-1.3859927876935185
1765456148.7916088,2.9836761951446533,-0.0857001411875,0.160226513028,-0.125378917234,-0.110548512468,0.079131854845,-0.0502969174554,-0.128097421466,0.000595754490222,-0.0909393780582,-0.052508057507357576,0.02080962242690512,-1.3859927876935185
1765456148.8113785,3.003445863723755,-0.0876504110996,0.161696141342,-0.125485749053,-0.110133268045,0.0779124871845,-0.0483514914355,-0.0951121386499,-0.0129650275933,-0.0686305075932,-0.052508057507357576,0.02080962242690512,-1.3859927876935185
1765456148.8313484,3.0234158039093018,-0.0896408602735,0.163161265578,-0.125552744248,-0.109597863277,0.0766435582879,-0.0462546950824,-0.0681155471106,-0.0240637620473,-0.0503679429507,-0.052508057507357576,0.02080962242690512,-1.3859927876935185
1765456148.8520691,3.0441365242004395,-0.0916886560875,0.164636853333,-0.126141637103,-0.108977770618,0.0753261452618,-0.0453572986042,-0.0459778079045,-0.0331649438947,-0.0354933224122,-0.052508057507357576,0.02080962242690512,-1.3859927876935185
1765456148.8718724,3.0639398097991943,-0.0937276392294,0.166079493066,-0.126607743937,-0.108260148161,0.0739821423537,-0.0441280140715,-0.0278785467049,-0.0406058422605,-0.0233121786801,-0.052508057507357576,0.02080962242690512,-1.3859927876935185
1765456148.8920002,3.0840675830841064,-0.0957784547502,0.167505802962,-0.126976225464,-0.10747707222,0.0726113421854,-0.0426445241578,-0.0130763093212,-0.0466912809281,-0.0133341480977,-0.052508057507357576,0.02080962242690512,-1.3859927876935185
1765456148.9124434,3.10451078414917,-0.0978347417188,0.168913122475,-0.127259209121,-0.106640425781,0.0712187293555,-0.0409626525066,-0.000968032662247,-0.0516691888665,-0.00515989172837,-0.052508057507357576,0.02080962242690512,-1.3859927876935185
1765456148.9329402,3.1250076293945312,-0.0998954421563,0.170302014894,-0.127468914616,-0.105759777419,0.069806288696,-0.0391293791114,0.00894072639651,-0.0557428396235,0.00153859285631,-0.052508057507357576,0.02080962242690512,-1.3859927876935185
1765456148.952599,3.1446664333343506,-0.102128484464,0.172316794182,-0.127574852174,-0.106388237431,0.0746674867665,-0.0362290056613,1.9309776468e-05,0.0102590225129,0.0188801979229,-0.05865863636727398,0.015086080407485616,-1.4120793826772262
1765456148.973982,3.1660494804382324,-0.10434210091,0.17432053892,-0.12761708167,-0.107050765227,0.0797788480903,-0.0332171385972,-0.00727600104389,0.0642307312128,0.0330636189352,-0.05865863636727398,0.015086080407485616,-1.4120793826772262
1765456148.9928703,3.1849377155303955,-0.106555137598,0.176345788088,-0.127608643192,-0.107739518326,0.0850839128369,-0.0301376842217,-0.0132415883583,0.108364963281,0.044662202867,-0.05865863636727398,0.015086080407485616,-1.4120793826772262
1765456149.0129352,3.205002546310425,-0.108772578733,0.178412596072,-0.125171315133,-0.10844966336,0.0905471686069,-0.0213606057665,-0.01812090693,0.144462830403,0.0545972181794,-0.05865863636727398,0.015086080407485616,-1.4120793826772262
1765456149.0331376,3.2252049446105957,-0.11100947453,0.180547307018,-0.123031698358,-0.109179738099,0.0961590401043,-0.0136321630095,-0.0221159068497,0.174018387011,0.0626442629366,-0.05865863636727398,0.015086080407485616,-1.4120793826772262
1765456149.0532823,3.245349645614624,-0.113241602506,0.182739882889,-0.121151742757,-0.109921814392,0.101858401225,-0.00684910850722,-0.0253828087525,0.198187374761,0.0691473342144,-0.05865863636727398,0.015086080407485616,-1.4120793826772262
1765456149.0739734,3.266040802001953,-0.115489887122,0.185017544747,-0.119500578796,-0.110677075434,0.10765587036,-0.000885733783479,-0.0280561686682,0.217965257592,0.0744011895836,-0.05865863636727398,0.015086080407485616,-1.4120793826772262
1765456149.094122,3.286189317703247,-0.117744164373,0.187377848009,-0.118050124509,-0.111440727902,0.113514921943,0.00434697431196,-0.0302429986714,0.234143725489,0.0786392633911,-0.05865863636727398,0.015086080407485616,-1.4120793826772262
1765456149.1147263,3.306793689727783,-0.120011494159,0.189833341109,-0.116775715509,-0.112212508598,0.119434189103,0.00894022798354,-0.0320322674784,0.247380981202,0.0820545341241,-0.05865863636727398,0.015086080407485616,-1.4120793826772262
1765456149.1341817,3.326249122619629,-0.122292179721,0.192389152231,-0.115655721753,-0.112990897519,0.125402384497,0.0129701188243,-0.0334964208231,0.258212988194,0.084803265491,-0.05865863636727398,0.015086080407485616,-1.4120793826772262
1765456149.153855,3.3459224700927734,-0.12438265766,0.194634608865,-0.116698815719,-0.111745853367,0.127291639055,0.00797485124491,-0.0123604688434,0.221719684659,0.0346473262055,-0.056888782730591385,0.01881574700827642,-1.438704202517239
1765456149.1746755,3.3667428493499756,-0.126475775091,0.196967811784,-0.117611890737,-0.110423619874,0.129041837973,0.00319107401001,0.00493313485504,0.191860574003,-0.00635584076124,-0.056888782730591385,0.01881574700827642,-1.438704202517239
1765456149.1955767,3.387644052505493,-0.128568287983,0.199380792606,-0.118419285758,-0.109038796737,0.130685211824,-0.00138702808077,0.0190851151801,0.167425785633,-0.0398792707039,-0.056888782730591385,0.01881574700827642,-1.438704202517239
1765456149.2153227,3.4073901176452637,-0.130667483194,0.201879660263,-0.119141473926,-0.107599166467,0.132259705873,-0.0057742767658,0.0306777390532,0.147409978341,-0.067312323786,-0.056888782730591385,0.01881574700827642,-1.438704202517239
1765456149.2353954,3.4274628162384033,-0.132740929645,0.204422602353,-0.119792169025,-0.106120098423,0.133740738798,-0.00996063324048,0.0401603502565,0.131037315814,-0.0897268739979,-0.056888782730591385,0.01881574700827642,-1.438704202517239
1765456149.2555616,3.447628974914551,-0.134797436844,0.207017996333,-0.120383679908,-0.104607183767,0.135161325709,-0.0139552343283,0.047917876838,0.117643181853,-0.108040624439,-0.056888782730591385,0.01881574700827642,-1.438704202517239
1765456149.2758548,3.4679222106933594,-0.136835694588,0.209662708326,-0.120925844177,-0.103065842972,0.136534456402,-0.0177645073156,0.0542655806723,0.106683245769,-0.123004810299,-0.056888782730591385,0.01881574700827642,-1.438704202517239
1765456149.2957027,3.4877700805664062,-0.138852450998,0.212351435664,-0.120692852705,-0.101501336677,0.137868067317,-0.0196505539358,0.0594601749652,0.0977142669191,-0.135092683201,-0.056888782730591385,0.01881574700827642,-1.438704202517239
1765456149.316097,3.508164405822754,-0.140845159739,0.215079937924,-0.12052665904,-0.0999180343635,0.13916893841,-0.0216858366946,0.0637112674941,0.0903743368246,-0.144992555529,-0.056888782730591385,0.01881574700827642,-1.438704202517239
1765456149.3359723,3.5280396938323975,-0.142812018447,0.21784509981,-0.120418849458,-0.0983193964482,0.140442948884,-0.0238285521407,0.0671902985946,0.0843674468542,-0.153099473168,-0.056888782730591385,0.01881574700827642,-1.438704202517239
1765456149.3561997,3.548267126083374,-0.144727884543,0.220522334746,-0.120306754985,-0.0964548796897,0.140461320931,-0.0248560026704,0.0728143693273,0.0658494508553,-0.144905973875,-0.07186387902053985,0.014708363021722917,-1.458755808154718
1765456149.3781796,3.570246934890747,-0.146615662349,0.22322887081,-0.120236121727,-0.0945687534702,0.140412621179,-0.0258787352387,0.077417958698,0.0506915245772,-0.138201603789,-0.07186387902053985,0.014708363021722917,-1.458755808154718
1765456149.3964064,3.5884737968444824,-0.148468640123,0.225951264349,-0.120197706516,-0.0926686985053,0.140306547183,-0.026881327501,0.081184867926,0.0382884782203,-0.132716949714,-0.07186387902053985,0.014708363021722917,-1.458755808154718
1765456149.4167423,3.60880970954895,-0.150289971384,0.228691335043,-0.120185841618,-0.0907539907738,0.140155870058,-0.0278631008216,0.0842677299,0.0281377478304,-0.128228460057,-0.07186387902053985,0.014708363021722917,-1.458755808154718
1765456149.437715,3.6297824382781982,-0.152078183953,0.231444673783,-0.119278291725,-0.0888271389195,0.139968412679,-0.0266406072337,0.0867910001877,0.019829547007,-0.124381378835,-0.07186387902053985,0.014708363021722917,-1.458755808154718
1765456149.4592505,3.651317834854126,-0.153834410943,0.234211437055,-0.118515585815,-0.0868878503848,0.13975108073,-0.025796860663,0.0888567408102,0.0130278230602,-0.121262951742,-0.07186387902053985,0.014708363021722917,-1.458755808154718
1765456149.4770844,3.669151782989502,-0.155549282317,0.236975145636,-0.117876088423,-0.0849464320468,0.139507938033,-0.0252619245823,0.0905468604187,0.00746288093261,-0.11873777505,-0.07186387902053985,0.014708363021722917,-1.458755808154718
1765456149.497093,3.6891603469848633,-0.157227026171,0.239741203547,-0.117343762086,-0.082999482585,0.139244616139,-0.0249899191364,0.0919297838321,0.00290942286746,-0.11669338607,-0.07186387902053985,0.014708363021722917,-1.458755808154718
1765456149.5173757,3.7094430923461914,-0.158871146065,0.242514655352,-0.116904190875,-0.0810435087419,0.138964840944,-0.02493982005,0.0930618432885,-0.00081803247244,-0.115037782224,-0.07186387902053985,0.014708363021722917,-1.458755808154718
1765456149.5374305,3.7294979095458984,-0.160475545284,0.245284499428,-0.116542926146,-0.0790856682807,0.138671414999,-0.0250657733978,0.0939882875734,-0.00386847269196,-0.113697669156,-0.07186387902053985,0.014708363021722917,-1.458755808154718
1765456149.5578897,3.7499570846557617,-0.162055841864,0.247926443111,-0.116130330635,-0.0770423041176,0.136759933113,-0.0227129834708,0.0953854640798,-0.0240534312179,-0.0796104510829,-0.09211698608399708,0.009485405821670442,-1.467412280119966
1765456149.5780199,3.770087242126465,-0.163577030831,0.250523561515,-0.117600617669,-0.075018303871,0.134776980209,-0.0247054995663,0.0965277224767,-0.0405555970224,-0.0521019912645,-0.09211698608399708,0.009485405821670442,-1.467412280119966
1765456149.5980434,3.7901108264923096,-0.165059286431,0.253105193775,-0.118853773888,-0.0729900068728,0.132734534795,-0.0259035858407,0.0974619330467,-0.054052103387,-0.0295505614531,-0.09211698608399708,0.009485405821670442,-1.467412280119966
1765456149.6181893,3.8102567195892334,-0.166512224464,0.255684177248,-0.119916903187,-0.0709443219821,0.130634575079,-0.0264363387335,0.0982269790571,-0.065104695467,-0.0110376757805,-0.09211698608399708,0.009485405821670442,-1.467412280119966
1765456149.6385546,3.8306219577789307,-0.167916499253,0.258221175132,-0.120804719273,-0.0689075998001,0.128501078598,-0.026407392173,0.0988526735804,-0.0741440816473,0.0041408366021,-0.09211698608399708,0.009485405821670442,-1.467412280119966
1765456149.6588793,3.8509466648101807,-0.169281482803,0.260730003695,-0.12154071498,-0.0668673538653,0.12633378369,-0.0259167572115,0.0993645533892,-0.0815391907576,0.0165895775384,-0.09211698608399708,0.009485405821670442,-1.467412280119966
1765456149.678804,3.8708713054656982,-0.17060339184,0.263200815959,-0.122141984826,-0.0648293494049,0.12414302459,-0.0250495171625,0.0997832310825,-0.0875878122714,0.0267971765593,-0.09211698608399708,0.009485405821670442,-1.467412280119966
1765456149.6989815,3.8910489082336426,-0.171887229894,0.265640935125,-0.122627040046,-0.062786119176,0.121927127869,-0.0238763926424,0.100125848334,-0.092537591329,0.0351709459041,-0.09211698608399708,0.009485405821670442,-1.467412280119966
1765456149.719806,3.9118733406066895,-0.173160016921,0.26810207234,-0.122834673691,-0.0606926551215,0.119646626427,-0.0219986985686,0.100407231542,-0.096602724377,0.0420996996507,-0.09211698608399708,0.009485405821670442,-1.467412280119966
1765456149.7404754,3.9325428009033203,-0.174360408121,0.270462726463,-0.122968265058,-0.0586486857444,0.117398422769,-0.0200346764863,0.100637013004,-0.0999223688517,0.0477636658623,-0.09211698608399708,0.009485405821670442,-1.467412280119966
1765456149.762992,3.955059289932251,-0.175433906508,0.27245812073,-0.123114844688,-0.0557280054726,0.111876594666,-0.019414418212,0.110417683421,-0.138467255364,0.0347629679966,-0.09183961785646533,0.01259192601689633,-1.4639289985721968
1765456149.7802155,3.972282886505127,-0.176459649425,0.274392276157,-0.12321745897,-0.0527788939542,0.106224966886,-0.0188108331788,0.118411753895,-0.169971285871,0.024140514399,-0.09183961785646533,0.01259192601689633,-1.4639289985721968
1765456149.800181,3.992248296737671,-0.177437745079,0.276258927866,-0.123286415323,-0.0498016074972,0.100461950122,-0.0182265370769,0.124948583866,-0.195732441152,0.0154566320883,-0.09183961785646533,0.01259192601689633,-1.4639289985721968
1765456149.8204978,4.0125651359558105,-0.178369805097,0.278056118399,-0.12333019285,-0.0467893516415,0.0945881420324,-0.0176629982046,0.130299109575,-0.216818460557,0.00835003506397,-0.09183961785646533,0.01259192601689633,-1.4639289985721968
1765456149.8414114,4.033478736877441,-0.179245312849,0.27975834749,-0.123352140863,-0.0437679257832,0.0886545704465,-0.0171263863764,0.134675365126,-0.234064954548,0.00253793802252,-0.09183961785646533,0.01259192601689633,-1.4639289985721968
1765456149.860866,4.05293345451355,-0.180067072489,0.281367775896,-0.123358611413,-0.0407285812185,0.0826551925083,-0.0166166731783,0.138255965794,-0.248175832483,-0.00221753013663,-0.09183961785646533,0.01259192601689633,-1.4639289985721968
1765456149.881923,4.073990345001221,-0.18083271127,0.282876748707,-0.123536495919,-0.037676743215,0.0766055885893,-0.0165703318781,0.141185735212,-0.259721833412,-0.00614372525837,-0.09183961785646533,0.01259192601689633,-1.4639289985721968
1765456149.901,4.093067407608032,-0.181540753072,0.284279938706,-0.123679590329,-0.0346159610207,0.0705172703137,-0.0164701901115,0.143582927855,-0.269168989326,-0.00935054935878,-0.09183961785646533,0.01259192601689633,-1.4639289985721968
1765456149.9210713,4.113138675689697,-0.182190745359,0.285574524393,-0.123793797248,-0.0315462072408,0.0643942323015,-0.0163275581003,0.145544569282,-0.276899670658,-0.0119702051502,-0.09183961785646533,0.01259192601689633,-1.4639289985721968
1765456149.9414046,4.133471965789795,-0.18278179274,0.286757131328,-0.123883860931,-0.0284693463317,0.0582431856273,-0.0161518968057,0.147149881556,-0.283226085592,-0.0141104524529,-0.09183961785646533,0.01259192601689633,-1.4639289985721968
1765456149.9616182,4.153685569763184,-0.183501819038,0.288184746502,-0.123993970366,-0.0272389560949,0.0555996242869,-0.0168067037567,0.128009802689,-0.249417673851,-0.0265226180022,-0.10314291408298067,0.007833486528791721,-1.4521405160069611
1765456149.98169,4.173757314682007,-0.1841676402,0.289506747569,-0.124088141416,-0.0260854807956,0.0530931842942,-0.0174764569131,0.11234978246,-0.221756324311,-0.0366748404299,-0.10314291408298067,0.007833486528791721,-1.4521405160069611
1765456150.0017254,4.193792819976807,-0.184787150323,0.290737468362,-0.124171282241,-0.0249891898566,0.0506878973597,-0.0181557481788,0.0995359981513,-0.199122473172,-0.0449790500589,-0.10314291408298067,0.007833486528791721,-1.4521405160069611
1765456150.022011,4.214078426361084,-0.185368156344,0.291891337873,-0.124798067298,-0.0239301245625,0.0483460920142,-0.0201497207091,0.0890424193152,-0.180586957389,-0.0518806281794,-0.10314291408298067,0.007833486528791721,-1.4521405160069611
1765456150.0421052,4.234172582626343,-0.185915662411,0.292977300564,-0.125344700843,-0.0228986452688,0.0460497298349,-0.0219050406746,0.0804427747134,-0.165396825334,-0.0575144484134,-0.10314291408298067,0.007833486528791721,-1.4521405160069611
1765456150.0623727,4.254440069198608,-0.186425069345,0.293985221116,-0.125815582591,-0.0219169936012,0.0438463267679,-0.0234336819429,0.073411792117,-0.15297752674,-0.0621014691061,-0.10314291408298067,0.007833486528791721,-1.4521405160069611
1765456150.0824761,4.274543523788452,-0.18690405147,0.294929868498,-0.126224570123,-0.0209618204637,0.0416900723506,-0.0247726990227,0.067662091942,-0.142821443672,-0.0658359765727,-0.10314291408298067,0.007833486528791721,-1.4521405160069611
1765456150.10258,4.294647455215454,-0.187356660487,0.295818760307,-0.126581757176,-0.0200231449785,0.0395614586145,-0.0259498878795,0.0629565835661,-0.134509786979,-0.0688777457652,-0.10314291408298067,0.007833486528791721,-1.4521405160069611
1765456150.1229973,4.3150646686553955,-0.187784876991,0.296655345822,-0.126894362934,-0.0190972596674,0.037453675639,-0.0269856654249,0.0591037494496,-0.127704266318,-0.0713555591355,-0.10314291408298067,0.007833486528791721,-1.4521405160069611
1765456150.1430814,4.335148811340332,-0.188186160359,0.297434327624,-0.12716368919,-0.0181939808643,0.0353891023525,-0.0278850458838,0.0559534570717,-0.122139692496,-0.0733706192911,-0.10314291408298067,0.007833486528791721,-1.4521405160069611
1765456150.165258,4.357325315475464,-0.188475824263,0.298131873281,-0.125992691239,-0.0164223613249,0.0330307775744,-0.0194818489446,0.0630576399959,-0.121041900295,0.00715813116695,-0.10370593962693704,-6.041303479459777e-05,-1.4376778202331224
1765456150.1833832,4.375450611114502,-0.18874033663,0.298780522821,-0.124934562742,-0.0146248443365,0.0306757063027,-0.0112115688169,0.0688699000152,-0.120143745815,0.0730033239358,-0.10370593962693704,-6.041303479459777e-05,-1.4376778202331224
1765456150.203582,4.395649433135986,-0.188977492773,0.299381135227,-0.123963300011,-0.0128045977034,0.028320966842,-0.00310054256699,0.0736266532693,-0.119408696243,0.126854757857,-0.10370593962693704,-6.041303479459777e-05,-1.4376778202331224
1765456150.2241738,4.41624116897583,-0.189189493618,0.299943983492,-0.123056158051,-0.0109353306665,0.0259194836502,0.00489338316301,0.0775314513076,-0.118805297248,0.171027334501,-0.10370593962693704,-6.041303479459777e-05,-1.4376778202331224
1765456150.2447627,4.436830043792725,-0.189364997834,0.300447108502,-0.122203128535,-0.00908163037831,0.023568136338,0.0126187787437,0.0807220031998,-0.118312268983,0.207087079266,-0.10370593962693704,-6.041303479459777e-05,-1.4376778202331224
1765456150.2620318,4.454099178314209,-0.189507321139,0.300900673865,-0.121395651977,-0.0072219347844,0.0212264151945,0.0200944651196,0.0833289762585,-0.117909419743,0.236519735133,-0.10370593962693704,-6.041303479459777e-05,-1.4376778202331224
1765456150.2839215,4.475988864898682,-0.189616156339,0.301306774791,-0.120624973411,-0.00535215712529,0.0188848488262,0.0273221676636,0.0854605659673,-0.117580030342,0.260555156249,-0.10370593962693704,-6.041303479459777e-05,-1.4376778202331224
1765456150.3039563,4.496023654937744,-0.189690518986,0.301665303628,-0.120435868283,-0.00347476406018,0.0165443968844,0.0329828537922,0.0872040933891,-0.117310607268,0.28008199408,-0.10370593962693704,-6.041303479459777e-05,-1.4376778202331224
1765456150.3255088,4.517576217651367,-0.189730556413,0.301984176127,-0.120181329598,-0.00154253101896,0.014140295675,0.0387666492705,0.0886363469832,-0.117089284585,0.296112813776,-0.10370593962693704,-6.041303479459777e-05,-1.4376778202331224
1765456150.3466754,4.538742780685425,-0.189732911668,0.302246634851,-0.119902079062,0.000347138192271,0.011800930009,0.0443356583032,0.0898057533387,-0.11690857905,0.309191152979,-0.10370593962693704,-6.041303479459777e-05,-1.4376778202331224
1765456150.365614,4.557681322097778,-0.190058177447,0.302890679919,-0.119897833473,-0.00131519235595,0.0137077132232,0.0431201221263,0.0516544916978,-0.0700718469775,0.236556813711,-0.10404903799912332,-0.00915550049985307,-1.4241771914030747
1765456150.3855278,4.577595233917236,-0.190360703121,0.303504094128,-0.119876535081,-0.00311247449955,0.0157801804749,0.0415223328985,0.0204616680837,-0.0317777025807,0.177165396994,-0.10404903799912332,-0.00915550049985307,-1.4241771914030747
1765456150.405903,4.597970485687256,-0.190654096965,0.304105103936,-0.119850866211,-0.0050201499844,0.0179873270351,0.0396232589796,-0.00507491308343,-0.000427493997136,0.128538979729,-0.10404903799912332,-0.00915550049985307,-1.4241771914030747
1765456150.4279418,4.620009183883667,-0.190951933429,0.304714321383,-0.119824058039,-0.00703227034836,0.0203195723997,0.0374917847816,-0.0260472224977,0.0253193462049,0.0885992714723,-0.10404903799912332,-0.00915550049985307,-1.4241771914030747
1765456150.446513,4.638580322265625,-0.191256187154,0.305321825531,-0.119651280851,-0.00911400599308,0.0227411626045,0.0355302520681,-0.0431616609191,0.0463300371346,0.0560398363592,-0.10404903799912332,-0.00915550049985307,-1.4241771914030747
1765456150.4670851,4.659152507781982,-0.191579023685,0.305951492959,-0.119519985807,-0.0112648819892,0.0252464383086,0.0333417391237,-0.0571598584776,0.0635150475468,0.0294015746064,-0.10404903799912332,-0.00915550049985307,-1.4241771914030747
1765456150.4873066,4.6793739795684814,-0.191922558705,0.306601719336,-0.119439484187,-0.0134562465729,0.0278026614778,0.0309680782271,-0.0685926280437,0.0775505877095,0.00764056058704,-0.10404903799912332,-0.00915550049985307,-1.4241771914030747
1765456150.5073645,4.699431896209717,-0.192293161287,0.307282373771,-0.119401071154,-0.0156868850429,0.0304071614851,0.0284651838946,-0.0779360559056,0.0890211291433,-0.0101463493072,-0.10404903799912332,-0.00915550049985307,-1.4241771914030747
1765456150.527916,4.719983339309692,-0.192700898707,0.308009653043,-0.119395069389,-0.0179784451051,0.0330841968213,0.0258589470657,-0.0855949162147,0.0984235963972,-0.0247278856902,-0.10404903799912332,-0.00915550049985307,-1.4241771914030747
1765456150.5530896,4.74515700340271,-0.193090360168,0.30801967877,-0.119405648893,-0.0195978123939,0.0279283531556,0.0230392000242,-0.0827032499201,0.0179946957484,-0.0376413598614,-0.06988373552628188,-0.012481299761630659,-1.4151557332104312
1765456150.5710466,4.763113975524902,-0.19348505394,0.307988448667,-0.119486400367,-0.0210682244844,0.0223312939608,0.0202415667574,-0.0803531962906,-0.0473697725651,-0.0481330118424,-0.06988373552628188,-0.012481299761630659,-1.4151557332104312
1765456150.5917823,4.783849716186523,-0.193908159947,0.307937114449,-0.119595120585,-0.0225126099676,0.0165223717946,0.0174650894133,-0.0784426980127,-0.10050843399,-0.056657909091,-0.06988373552628188,-0.012481299761630659,-1.4151557332104312
1765456150.610497,4.802564382553101,-0.194368836636,0.307851388055,-0.120277015547,-0.0239688326916,0.0105105156736,0.0133846211204,-0.0768834536388,-0.143877307873,-0.063716082771,-0.06988373552628188,-0.012481299761630659,-1.4151557332104312
1765456150.6322258,4.82429313659668,-0.194855107588,0.307706365754,-0.120900113301,-0.0254002573488,0.00438354410278,0.0096169596903,-0.0756125472687,-0.179226339111,-0.0694429286612,-0.06988373552628188,-0.012481299761630659,-1.4151557332104312
1765456150.651072,4.843139410018921,-0.195377841809,0.307490766693,-0.121468284133,-0.0268435057974,-0.00190265963006,0.00610274979999,-0.0745736045982,-0.208123524439,-0.0741011389622,-0.06988373552628188,-0.012481299761630659,-1.4151557332104312
1765456150.6717741,4.863841533660889,-0.195925434356,0.30719185482,-0.121989779089,-0.02826715525,-0.00824643514103,0.00285562286825,-0.0737255731363,-0.231710699186,-0.0778816752857,-0.06988373552628188,-0.012481299761630659,-1.4151557332104312
1765456150.6923985,4.884465932846069,-0.196508689565,0.306797763492,-0.122468886322,-0.0297020935769,-0.0147169802663,-0.00017661502131,-0.0730317631602,-0.251008352493,-0.0809549962874,-0.06988373552628188,-0.012481299761630659,-1.4151557332104312
1765456150.7118063,4.903873682022095,-0.197116031561,0.306304869873,-0.122909781695,-0.0311202415763,-0.0212072436162,-0.00297774494109,-0.0724650474928,-0.266771000554,-0.0834470474749,-0.06988373552628188,-0.012481299761630659,-1.4151557332104312
1765456150.731937,4.924004316329956,-0.197753071969,0.305704616551,-0.123316076156,-0.0325371392317,-0.0277540499366,-0.00558015771453,-0.072001799412,-0.279655797785,-0.0854673315953,-0.06988373552628188,-0.012481299761630659,-1.4151557332104312
1765456150.751448,4.943515300750732,-0.198448332132,0.306018744244,-0.121440169535,-0.0342361278369,-0.02421343723,0.00177492992344,-0.0747282360932,-0.17900645653,-0.0248268221657,-0.08984060753035981,0.005071758309757828,-1.397736529152441
1765456150.7719193,4.96398663520813,-0.199174558047,0.306254288848,-0.119811020229,-0.0359463736697,-0.0203216884226,0.00859432398124,-0.0769588624306,-0.0966604871591,0.0247220053226,-0.08984060753035981,0.005071758309757828,-1.397736529152441
1765456150.7923522,4.984419584274292,-0.199930149638,0.306447209258,-0.118387933887,-0.0376607986844,-0.0161334799534,0.0149273707586,-0.078783322385,-0.0293085864833,0.0651925161915,-0.08984060753035981,0.005071758309757828,-1.397736529152441
1765456150.8125384,5.004605770111084,-0.20071757649,0.306624580766,-0.117136678648,-0.0393817436323,-0.0117080831245,0.0208179445658,-0.0802759517566,0.0257934314838,0.0982528601284,-0.08984060753035981,0.005071758309757828,-1.397736529152441
1765456150.8325665,5.024633884429932,-0.201538067349,0.306809378539,-0.116029247423,-0.0411092566229,-0.00708644616775,0.0263058841893,-0.0814974396583,0.0708859705847,0.125263843104,-0.08984060753035981,0.005071758309757828,-1.397736529152441
1765456150.8528433,5.044910669326782,-0.202391570677,0.307020697806,-0.115043492667,-0.0428412074479,-0.00230308297436,0.0314225547159,-0.0824970877151,0.107789053313,0.147330120832,-0.08984060753035981,0.005071758309757828,-1.397736529152441
1765456150.875459,5.067526340484619,-0.20328014389,0.307274036585,-0.114160025278,-0.0445798640986,0.00261787058954,0.0362016474817,-0.0833154321257,0.137999117027,0.165359136731,-0.08984060753035981,0.005071758309757828,-1.397736529152441
1765456150.8930488,5.085116147994995,-0.204200999367,0.307582000333,-0.114099557874,-0.0463186394116,0.0076440619279,0.0389150340792,-0.0839850952143,0.16272044989,0.179942493355,-0.08984060753035981,0.005071758309757828,-1.397736529152441
1765456150.9138176,5.105885028839111,-0.20515579582,0.307954803507,-0.114012533596,-0.0480596745599,0.0127592806939,0.041658988703,-0.0845331094671,0.182950985198,0.191873975663,-0.08984060753035981,0.005071758309757828,-1.397736529152441
1765456150.9332778,5.125345230102539,-0.206145369138,0.308401071151,-0.113901467207,-0.0498035832403,0.0179497615041,0.0444094925768,-0.0849816261891,0.199508462188,0.20163530502,-0.08984060753035981,0.005071758309757828,-1.397736529152441
1765456150.952711,5.144778490066528,-0.207034364648,0.308347675348,-0.114063196933,-0.0502134318531,0.01746147351,0.0408240838753,-0.0706480606115,0.14989215729,0.13085385562,-0.04032994615226483,0.012711234593434578,-1.3839227125781999
1765456150.973528,5.165595293045044,-0.207951671556,0.308356881172,-0.114219643745,-0.050569893853,0.0167901907537,0.0369481532139,-0.0589189261062,0.109291211863,0.0729359804732,-0.04032994615226483,0.012711234593434578,-1.3839227125781999
1765456150.9938047,5.1858720779418945,-0.208909298453,0.308417282346,-0.114375195349,-0.0509003085925,0.0159991793803,0.0328594798225,-0.0492981526405,0.0759884563807,0.0254318160555,-0.04032994615226483,0.012711234593434578,-1.3839227125781999
1765456151.0155666,5.207633972167969,-0.2098756766,0.30850611732,-0.11455349358,-0.0511815773213,0.0150600511461,0.0285968133248,-0.041429863516,0.0487520070752,-0.0134144130548,-0.04032994615226483,0.012711234593434578,-1.3839227125781999
1765456151.034816,5.226883411407471,-0.210856187996,0.308615040083,-0.115853190204,-0.0514316546523,0.014018617144,0.0216187321949,-0.0349968370147,0.0264837861939,-0.0453764438255,-0.04032994615226483,0.012711234593434578,-1.3839227125781999
1765456151.0543995,5.246466875076294,-0.21185037359,0.30873548577,-0.117017970707,-0.0516580817152,0.012896806162,0.015083607492,-0.0297361412469,0.00827364275305,-0.0714674132071,-0.04032994615226483,0.012711234593434578,-1.3839227125781999
1765456151.0744765,5.266543865203857,-0.212857078767,0.308860146514,-0.118067845763,-0.051865758471,0.011709661316,0.00895966792441,-0.0254327661452,-0.00662269061062,-0.0927685629601,-0.04032994615226483,0.012711234593434578,-1.3839227125781999
1765456151.0950482,5.287115573883057,-0.213873819525,0.308982664083,-0.119019406206,-0.052057721423,0.0104689574429,0.00322104504731,-0.0219121247619,-0.0188095547489,-0.110157218868,-0.04032994615226483,0.012711234593434578,-1.3839227125781999
1765456151.1147451,5.306812524795532,-0.214899787047,0.309098120319,-0.119886064876,-0.0522370834073,0.00918427363612,-0.0021579890342,-0.0190313300699,-0.0287815597611,-0.124350896434,-0.04032994615226483,0.012711234593434578,-1.3839227125781999
1765456151.1348245,5.326891899108887,-0.215933512078,0.309202317783,-0.12067886429,-0.0524060071468,0.00786359277036,-0.00719902108195,-0.0166739179313,-0.0369418516858,-0.135934011974,-0.04032994615226483,0.012711234593434578,-1.3839227125781999
1765456151.1543093,5.346376657485962,-0.217050738937,0.309446691884,-0.121350749513,-0.0533160118326,0.00804481624015,-0.0107107971695,-0.0229936901695,-0.0267525827053,-0.130244530284,-0.034504614162852755,0.012259032961231025,-1.3754907450928455
1765456151.1753771,5.3674445152282715,-0.218176163733,0.309679676384,-0.120129829032,-0.0542486556091,0.00826359033488,-0.0095180973788,-0.0281655318416,-0.0184141040488,-0.125217514442,-0.034504614162852755,0.012259032961231025,-1.3754907450928455
1765456151.1954658,5.387533187866211,-0.219312373644,0.309904795969,-0.11911067957,-0.0551998397512,0.00851274371413,-0.00882736189627,-0.0323978996441,-0.0115903242766,-0.121145360407,-0.034504614162852755,0.012259032961231025,-1.3754907450928455
1765456151.2155697,5.407637119293213,-0.220461892218,0.310124998485,-0.118264942826,-0.0561665875096,0.0087865792057,-0.00855495900974,-0.0358618234218,-0.00600549467053,-0.117847141288,-0.034504614162852755,0.012259032961231025,-1.3754907450928455
1765456151.235617,5.427684307098389,-0.221625778687,0.31034254116,-0.117567967688,-0.0571459188187,0.00908073339132,-0.00862684398747,-0.0386968545406,-0.00143461876728,-0.115176226804,-0.034504614162852755,0.012259032961231025,-1.3754907450928455
1765456151.2556162,5.447683572769165,-0.222805151014,0.310559308737,-0.116998447281,-0.0581355126249,0.00939152494149,-0.00898005799293,-0.0410171734676,0.00230639479731,-0.113013513222,-0.034504614162852755,0.012259032961231025,-1.3754907450928455
1765456151.2760262,5.468093633651733,-0.224001924525,0.310777006592,-0.116537990592,-0.0591341792574,0.00971600100884,-0.00956226517186,-0.0429164611385,0.00536858631639,-0.111262040589,-0.034504614162852755,0.012259032961231025,-1.3754907450928455
1765456151.2958617,5.487929105758667,-0.225215008829,0.310996596323,-0.116170437444,-0.0601390482767,0.0100515727143,-0.0103241424306,-0.0444708388395,0.00787468493767,-0.109843665787,-0.034504614162852755,0.012259032961231025,-1.3754907450928455
1765456151.3162389,5.508306264877319,-0.226446876638,0.3112194183,-0.115698887891,-0.0611501898359,0.0103963901648,-0.010794102769,-0.0457431150022,0.00992595570356,-0.10865995614,-0.034504614162852755,0.012259032961231025,-1.3754907450928455
1765456151.3361707,5.52823805809021,-0.22769664346,0.311446084779,-0.115320126001,-0.0621655336983,0.0107486068214,-0.0114533184732,-0.0467843798703,0.0116047706072,-0.107706694369,-0.034504614162852755,0.012259032961231025,-1.3754907450928455
1765456151.3565583,5.548625707626343,-0.22890653849,0.312016048666,-0.114782662832,-0.062591104525,0.0144623817055,-0.00713377227655,-0.041088421533,0.0499389094203,-0.0429457345061,-0.04432147951050798,0.0172957540578975,-1.3711212966923525
1765456151.3763351,5.568402528762817,-0.230135425443,0.312605495042,-0.114302963772,-0.062997023595,0.0183193110756,-0.00272264071829,-0.0364251163772,0.0813232308258,0.0100582860497,-0.04432147951050798,0.0172957540578975,-1.3711212966923525
1765456151.396745,5.588812351226807,-0.231375595397,0.31322576219,-0.113863157821,-0.0633836384524,0.0222870892082,0.00173848636665,-0.0326095737805,0.107002059723,0.0534113387293,-0.04432147951050798,0.0172957540578975,-1.3711212966923525
1765456151.4184773,5.610544681549072,-0.232729010663,0.313929231122,-0.113441099187,-0.0638041746008,0.026537488325,0.00633467688483,-0.0294513410584,0.12825715402,0.0892815276507,-0.04432147951050798,0.0172957540578975,-1.3711212966923525
1765456151.441533,5.633600473403931,-0.234016910982,0.314658246895,-0.113040487098,-0.0641725119286,0.0307378679347,0.0108470197966,-0.0268767838631,0.145584077263,0.118507488093,-0.04432147951050798,0.0172957540578975,-1.3711212966923525
1765456151.459309,5.651376485824585,-0.235294336305,0.315435996736,-0.112656404671,-0.0645224359363,0.0349519549856,0.0152687886986,-0.0247815286554,0.159685269586,0.142277923902,-0.04432147951050798,0.0172957540578975,-1.3711212966923525
1765456151.480513,5.6725804805755615,-0.236584881071,0.316279299586,-0.113202738732,-0.0648664337918,0.0392207920051,0.0174305131754,-0.0230725426838,0.171186846948,0.161477308381,-0.04432147951050798,0.0172957540578975,-1.3711212966923525
1765456151.4994092,5.691476583480835,-0.237882005927,0.317189708795,-0.113624099919,-0.0652035534676,0.0435214421505,0.0199056925348,-0.0216775595421,0.180575166565,0.177167943366,-0.04432147951050798,0.0172957540578975,-1.3711212966923525
1765456151.519327,5.711394309997559,-0.23918785906,0.318172641446,-0.113935918574,-0.0655358565775,0.0478538853865,0.0226245613547,-0.0205378711605,0.188245337244,0.19000105279,-0.04432147951050798,0.0172957540578975,-1.3711212966923525
1765456151.5395517,5.731619119644165,-0.240502981567,0.319232096961,-0.11415249685,-0.0658644886085,0.0522154718345,0.0255252924544,-0.0196060916787,0.194516268645,0.200502878737,-0.04432147951050798,0.0172957540578975,-1.3711212966923525
1765456151.5603883,5.752455711364746,-0.241926981859,0.319747191412,-0.11461332827,-0.0671873873971,0.0504397212922,0.0215271178801,-0.029797794039,0.132010392029,0.121733179102,-0.022577360098877862,-0.004400302057989145,-1.378228741009556
1765456151.583564,5.775631427764893,-0.243363160867,0.320319223466,-0.115016651652,-0.0685466046608,0.0484439305643,0.0173351044227,-0.0381357403578,0.0808736314168,0.0573029737354,-0.022577360098877862,-0.004400302057989145,-1.378228741009556
1765456151.6000423,5.792109727859497,-0.244813229315,0.320925628974,-0.11538387577,-0.0699348235178,0.0462648693652,0.0130009796593,-0.0449570942631,0.039038156784,0.00460351753708,-0.022577360098877862,-0.004400302057989145,-1.378228741009556
1765456151.6199853,5.8120527267456055,-0.246281914585,0.321550290687,-0.116646495131,-0.071347819347,0.0439370775191,0.00639709606739,-0.0505389871222,0.00480431694048,-0.0386820568764,-0.022577360098877862,-0.004400302057989145,-1.378228741009556
1765456151.640338,5.83240532875061,-0.247770526059,0.322178277965,-0.11776954188,-0.0727806195646,0.04148647423,0.000151939596897,-0.0551067666531,-0.0232099493394,-0.0740596440275,-0.022577360098877862,-0.004400302057989145,-1.378228741009556
1765456151.660613,5.852680444717407,-0.249282238086,0.322798642051,-0.118776389742,-0.0742305972955,0.0389346484361,-0.00575589452927,-0.0588452556999,-0.0461381635695,-0.102974843491,-0.022577360098877862,-0.004400302057989145,-1.378228741009556
1765456151.6806645,5.872731924057007,-0.250816100931,0.323400511392,-0.119685405782,-0.0756928577607,0.0363009635346,-0.0113403341049,-0.0619045016513,-0.06490056883,-0.126600610478,-0.022577360098877862,-0.004400302057989145,-1.378228741009556
