timestamp,sim_time,iteration,true_pos_x,true_pos_y,true_pos_z,imu_valid,imu_roll,imu_pitch,imu_yaw,imu_acc_x,imu_acc_y,imu_acc_z,usbl_valid,usbl_pos_x,usbl_pos_y,usbl_pos_z,usbl_fix_used,depth_valid,depth_measurement,kf_pos_x,kf_pos_y,kf_pos_z,kf_vel_x,kf_vel_y,kf_vel_z,kf_acc_x,kf_acc_y,kf_acc_z,error_norm
14:37:46.221,0.000,0,10.168406,0.000000,-4.647959,1,0.000000,0.000000,1.574868,-0.017355,0.225251,0.034847,0,0.000000,0.000000,0.000000,0,1,4.651950,10.168125,-0.000023,-4.651940,-0.011249,-0.000913,0.001540,-0.017339,0.225048,0.034816,0.003991
14:37:46.271,0.050,1,10.168125,0.074999,-4.647969,1,0.000000,0.000000,1.584380,-0.030307,0.221681,-0.025137,0,0.000000,0.000000,0.000000,0,1,4.597450,10.167290,-0.000126,-4.651932,-0.022314,-0.002579,0.000286,-0.023820,0.223366,0.004853,0.075235
14:37:46.321,0.100,2,10.167281,0.149994,-4.647998,1,0.000000,0.000000,1.555259,0.034776,0.216579,-0.016581,0,0.000000,0.000000,0.000000,0,1,4.675347,10.165919,-0.000061,-4.651983,-0.033163,-0.000667,-0.000542,-0.004294,0.221104,-0.002290,0.150114
14:37:46.371,0.150,3,10.165876,0.224981,-4.648048,1,0.000000,0.000000,1.564689,-0.000266,0.199721,0.008119,0,0.000000,0.000000,0.000000,0,1,4.623306,10.164091,-0.000078,-4.625913,-0.043150,-0.000614,0.156080,-0.003287,0.215760,0.000316,0.226151
14:37:46.421,0.200,4,10.163909,0.299955,-4.648116,1,0.000000,0.000000,1.627099,0.001790,0.247485,-0.016536,0,0.000000,0.000000,0.000000,0,1,4.692919,10.161466,-0.000097,-4.618135,-0.055500,-0.001148,0.155598,-0.002272,0.222103,-0.003054,0.301556
14:37:46.471,0.250,5,10.161380,0.374912,-4.648205,1,0.000000,0.000000,1.599955,-0.009272,0.215965,0.016559,0,0.000000,0.000000,0.000000,0,1,4.684529,10.158460,-0.000217,-4.610305,-0.066285,-0.001931,0.156092,-0.003438,0.221080,0.000215,0.377050
14:37:46.521,0.300,6,10.158289,0.449848,-4.648312,1,0.000000,0.000000,1.572969,0.032670,0.244838,-0.074250,0,0.000000,0.000000,0.000000,0,1,4.579907,10.154659,-0.000004,-4.584327,-0.078548,-0.000337,0.225726,0.001719,0.224474,-0.010416,0.454395
14:37:46.572,0.350,7,10.154636,0.524759,-4.648440,1,0.000000,0.000000,1.615500,0.009227,0.269141,-0.024743,0,0.000000,0.000000,0.000000,0,1,4.624997,10.150004,0.000039,-4.573080,-0.092002,-0.000413,0.224828,0.002658,0.230057,-0.012206,0.530124
14:37:46.622,0.400,8,10.150422,0.599640,-4.648587,1,0.000000,0.000000,1.616781,0.021444,0.256557,0.012666,0,0.000000,0.000000,0.000000,0,1,4.671641,10.144816,0.000217,-4.561781,-0.104842,0.000104,0.224938,0.004745,0.233001,-0.009443,0.605702
14:37:46.672,0.450,9,10.145647,0.674488,-4.648754,1,0.000000,0.000000,1.649987,0.006523,0.234111,-0.024470,0,0.000000,0.000000,0.000000,0,1,4.647161,10.139269,0.000227,-4.617270,-0.116532,-0.000494,0.034615,0.004923,0.233112,-0.010989,0.675026
14:37:46.722,0.500,10,10.140311,0.749297,-4.648940,1,0.000000,0.000000,1.618368,0.009240,0.217192,-0.003808,0,0.000000,0.000000,0.000000,0,1,4.663509,10.133369,0.000257,-4.615537,-0.127396,-0.000565,0.034248,0.005315,0.231665,-0.010337,0.749817
14:37:46.772,0.550,11,10.134415,0.824064,-4.649146,1,0.000000,0.000000,1.624788,-0.012847,0.205114,0.074902,0,0.000000,0.000000,0.000000,0,1,4.606711,10.127113,-0.000045,-4.613548,-0.137624,-0.001792,0.036081,0.003802,0.229452,-0.003234,0.824911
14:37:46.822,0.600,12,10.127958,0.898785,-4.649372,1,0.000000,0.000000,1.664148,0.008469,0.186139,-0.008405,0,0.000000,0.000000,0.000000,0,1,4.656006,10.120647,-0.000067,-4.638161,-0.146909,-0.002365,-0.023098,0.004161,0.226121,-0.003661,0.898952
14:37:46.872,0.650,13,10.120941,0.973456,-4.649617,1,0.000000,0.000000,1.620188,0.036809,0.253079,0.012474,0,0.000000,0.000000,0.000000,0,1,4.681176,10.112535,0.000366,-4.639275,-0.159616,-0.001133,-0.022875,0.006493,0.228046,-0.002508,0.973181
14:37:46.922,0.700,14,10.113365,1.048072,-4.649881,1,0.000000,0.000000,1.678064,0.008560,0.213925,-0.091311,0,0.000000,0.000000,0.000000,0,1,4.641427,10.104534,0.000332,-4.640770,-0.170287,-0.001899,-0.025386,0.006630,0.227105,-0.008428,1.047816
14:37:46.972,0.750,15,10.105230,1.122628,-4.650165,1,0.000000,0.000000,1.682302,0.031958,0.231912,-0.028602,0,0.000000,0.000000,0.000000,0,1,4.703658,10.095627,0.000718,-4.674375,-0.181905,-0.001580,-0.085895,0.008213,0.227405,-0.009741,1.122213
14:37:47.022,0.800,16,10.096536,1.197122,-4.650469,1,0.000000,0.000000,1.683249,0.050814,0.211798,-0.002004,0,0.000000,0.000000,0.000000,0,1,4.621417,10.086554,0.001531,-4.678656,-0.192574,-0.000284,-0.086188,0.010719,0.226487,-0.009286,1.195965
14:37:47.072,0.850,17,10.087284,1.271548,-4.650792,1,0.000000,0.000000,1.681108,-0.007240,0.229428,-0.053429,0,0.000000,0.000000,0.000000,0,1,4.564319,10.076589,0.001093,-4.683175,-0.203989,-0.001902,-0.087818,0.009721,0.226651,-0.011738,1.270913
14:37:47.122,0.900,18,10.077474,1.345903,-4.651135,1,0.000000,0.000000,1.676421,-0.001597,0.205237,0.006704,0,0.000000,0.000000,0.000000,0,1,4.644257,10.066623,0.000729,-4.667271,-0.214210,-0.003119,-0.055740,0.009126,0.225524,-0.010722,1.345315
14:37:47.172,0.950,19,10.067108,1.420182,-4.651497,1,0.000000,0.000000,1.698608,0.048964,0.201208,-0.004840,0,0.000000,0.000000,0.000000,0,1,4.649721,10.056203,0.001564,-4.670048,-0.224357,-0.002046,-0.056130,0.011118,0.224308,-0.010428,1.418781
14:37:47.222,1.000,20,10.056185,1.494381,-4.651878,1,0.000000,0.000000,1.700718,-0.001699,0.264243,-0.019471,0,0.000000,0.000000,0.000000,0,1,4.593081,10.043671,0.001064,-4.672913,-0.237501,-0.003710,-0.056887,0.010507,0.226210,-0.010858,1.493518
14:37:47.272,1.050,21,10.044706,1.568496,-4.652279,1,0.000000,0.000000,1.743321,-0.040894,0.238451,-0.037942,0,0.000000,0.000000,0.000000,0,1,4.674735,10.031236,-0.000582,-4.675428,-0.249171,-0.007736,-0.057443,0.008171,0.226766,-0.012088,1.569307
14:37:47.323,1.100,22,10.032672,1.642523,-4.652699,1,0.000000,0.000000,1.760108,0.043952,0.221357,-0.005320,0,0.000000,0.000000,0.000000,0,1,4.624503,10.018609,0.000021,-4.678284,-0.260244,-0.007667,-0.057881,0.009727,0.226531,-0.011793,1.642761
14:37:47.373,1.150,23,10.020083,1.716458,-4.653139,1,0.000000,0.000000,1.763153,0.020294,0.194915,-0.000374,0,0.000000,0.000000,0.000000,0,1,4.634770,10.006248,-0.000045,-4.681129,-0.269922,-0.008708,-0.058178,0.010167,0.225213,-0.011318,1.716787
14:37:47.423,1.200,24,10.006941,1.790296,-4.653598,1,0.000000,0.000000,1.716244,0.013245,0.239985,-0.027653,0,0.000000,0.000000,0.000000,0,1,4.589134,9.992007,-0.000435,-4.647196,-0.281885,-0.009743,-0.011250,0.010290,0.225804,-0.011832,1.790804
14:37:47.473,1.250,25,9.993246,1.864033,-4.654076,1,0.000000,0.000000,1.753979,0.013213,0.256701,-0.016253,0,0.000000,0.000000,0.000000,0,1,4.703509,9.976626,-0.000917,-4.647796,-0.294628,-0.011277,-0.011949,0.010402,0.226993,-0.012002,1.865034
14:37:47.523,1.300,26,9.978998,1.937665,-4.654573,1,0.000000,0.000000,1.745765,0.059480,0.174917,-0.024877,0,0.000000,0.000000,0.000000,0,1,4.575219,9.963278,0.000228,-4.648487,-0.303520,-0.010074,-0.012875,0.012220,0.225064,-0.012478,1.937511
14:37:47.573,1.350,27,9.964199,2.011189,-4.655090,1,0.000000,0.000000,1.767371,0.034138,0.258777,-0.053194,0,0.000000,0.000000,0.000000,0,1,4.622337,9.946604,0.000384,-4.639625,-0.316451,-0.010737,-0.002628,0.013003,0.226268,-0.013887,2.010941
14:37:47.623,1.400,28,9.948849,2.084599,-4.655626,1,0.000000,0.000000,1.773693,-0.035159,0.184537,-0.015312,0,0.000000,0.000000,0.000000,0,1,4.598246,9.932111,-0.001847,-4.639781,-0.325363,-0.014574,-0.003356,0.011342,0.224829,-0.013936,2.086573
14:37:47.673,1.450,29,9.932949,2.157892,-4.656181,1,0.000000,0.000000,1.754449,0.004105,0.212837,-0.028200,0,0.000000,0.000000,0.000000,0,1,4.623610,9.916028,-0.002856,-4.640060,-0.335888,-0.016370,-0.004406,0.011101,0.224429,-0.014412,2.160874
14:37:47.723,1.500,30,9.916500,2.231064,-4.656756,1,0.000000,0.000000,1.823125,-0.009847,0.209556,-0.010560,0,0.000000,0.000000,0.000000,0,1,4.709501,9.899584,-0.004503,-4.663895,-0.346047,-0.019597,-0.032558,0.010425,0.223949,-0.014412,2.235642
14:37:47.773,1.550,31,9.899504,2.304110,-4.657349,1,0.000000,0.000000,1.783828,0.022096,0.218141,-0.019802,0,0.000000,0.000000,0.000000,0,1,4.718469,9.882206,-0.005049,-4.665573,-0.356876,-0.020846,-0.033405,0.010790,0.223768,-0.014580,2.309239
14:37:47.823,1.600,32,9.881960,2.377026,-4.657962,1,0.000000,0.000000,1.828508,-0.028689,0.243595,-0.024124,0,0.000000,0.000000,0.000000,0,1,4.619013,9.863385,-0.007827,-4.667328,-0.368596,-0.025241,-0.034366,0.009594,0.224369,-0.014869,2.384944
14:37:47.873,1.650,33,9.863870,2.449809,-4.658594,1,0.000000,0.000000,1.830043,-0.002021,0.163829,0.012155,0,0.000000,0.000000,0.000000,0,1,4.622413,9.847277,-0.009459,-4.653738,-0.376499,-0.027881,-0.017278,0.009252,0.222588,-0.013985,2.459329
14:37:47.923,1.700,34,9.845236,2.522454,-4.659245,1,0.000000,0.000000,1.812804,-0.054111,0.175372,-0.035823,0,0.000000,0.000000,0.000000,0,1,4.646745,9.830439,-0.013515,-4.654758,-0.384703,-0.032955,-0.018476,0.007442,0.221239,-0.014608,2.536017
14:37:47.973,1.750,35,9.826057,2.594957,-4.659914,1,0.000000,0.000000,1.847185,0.031279,0.242341,-0.039534,0,0.000000,0.000000,0.000000,0,1,4.664721,9.809909,-0.014235,-4.655882,-0.396636,-0.034566,-0.019794,0.008104,0.221825,-0.015300,2.609245
14:37:48.024,1.800,36,9.806335,2.667314,-4.660603,1,0.000000,0.000000,1.824678,0.029603,0.251692,0.006069,0,0.000000,0.000000,0.000000,0,1,4.648916,9.788354,-0.015142,-4.654268,-0.409085,-0.036086,-0.017300,0.008685,0.222633,-0.014707,2.682525
14:37:48.074,1.850,37,9.786072,2.739521,-4.661311,1,0.000000,0.000000,1.861159,0.037414,0.232679,-0.012173,0,0.000000,0.000000,0.000000,0,1,4.643877,9.767045,-0.015698,-4.655135,-0.420559,-0.037503,-0.017979,0.009441,0.222897,-0.014640,2.755292
14:37:48.124,1.900,38,9.765268,2.811575,-4.662037,1,0.000000,0.000000,1.826437,-0.016714,0.215807,-0.017645,0,0.000000,0.000000,0.000000,0,1,4.620395,9.746195,-0.018871,-4.656075,-0.430936,-0.041108,-0.018780,0.008770,0.222715,-0.014717,2.830516
14:37:48.174,1.950,39,9.743925,2.883469,-4.662782,1,0.000000,0.000000,1.857081,0.005730,0.208008,-0.002095,0,0.000000,0.000000,0.000000,0,1,4.618876,9.725121,-0.021082,-4.645314,-0.440996,-0.043881,-0.006272,0.008694,0.222347,-0.014321,2.904664
14:37:48.224,2.000,40,9.722043,2.955202,-4.663547,1,0.000000,0.000000,1.876894,-0.010072,0.257080,-0.008715,0,0.000000,0.000000,0.000000,0,1,4.650644,9.701121,-0.024462,-4.645608,-0.453307,-0.047987,-0.006869,0.008237,0.223195,-0.014185,2.979792
14:37:48.274,2.050,41,9.699624,3.026769,-4.664329,1,0.000000,0.000000,1.898471,-0.038143,0.268598,-0.009922,0,0.000000,0.000000,0.000000,0,1,4.664956,9.676044,-0.029577,-4.645936,-0.465903,-0.053802,-0.007484,0.007132,0.224276,-0.014084,3.056491
14:37:48.324,2.100,42,9.676669,3.098165,-4.665131,1,0.000000,0.000000,1.863295,-0.005503,0.234197,0.052810,0,0.000000,0.000000,0.000000,0,1,4.592198,9.652013,-0.033063,-4.629726,-0.477137,-0.057390,0.011206,0.006838,0.224506,-0.012415,3.131525
14:37:48.374,2.150,43,9.653180,3.169387,-4.665951,1,0.000000,0.000000,1.869848,-0.001278,0.247396,-0.015213,0,0.000000,0.000000,0.000000,0,1,4.582183,9.626680,-0.036571,-4.629200,-0.489029,-0.060943,0.010528,0.006654,0.225027,-0.012478,3.206278
14:37:48.424,2.200,44,9.629158,3.240430,-4.666790,1,0.000000,0.000000,1.891401,0.009248,0.184812,0.013437,0,0.000000,0.000000,0.000000,0,1,4.614664,9.604187,-0.039331,-4.628487,-0.497856,-0.063733,0.010452,0.006712,0.224133,-0.011904,3.280080
14:37:48.474,2.250,45,9.604604,3.311292,-4.667648,1,0.000000,0.000000,1.892131,-0.033392,0.166427,-0.050821,0,0.000000,0.000000,0.000000,0,1,4.689616,9.582548,-0.044546,-4.646417,-0.505443,-0.068463,-0.011245,0.005840,0.222878,-0.012883,3.355978
14:37:48.524,2.300,46,9.579519,3.381967,-4.668524,1,0.000000,0.000000,1.908293,-0.031541,0.216270,-0.024742,0,0.000000,0.000000,0.000000,0,1,4.628483,9.557624,-0.050190,-4.647077,-0.515427,-0.073657,-0.012121,0.005045,0.222738,-0.013134,3.432294
14:37:48.574,2.350,47,9.553906,3.452452,-4.669418,1,0.000000,0.000000,1.897111,-0.058843,0.217961,-0.008212,0,0.000000,0.000000,0.000000,0,1,4.650014,9.532279,-0.057722,-4.647661,-0.525291,-0.080080,-0.012678,0.003714,0.222638,-0.013032,3.510308
14:37:48.624,2.400,48,9.527764,3.522742,-4.670331,1,0.000000,0.000000,1.922011,-0.052123,0.241164,-0.010944,0,0.000000,0.000000,0.000000,0,1,4.668998,9.505001,-0.065326,-4.654355,-0.536241,-0.086627,-0.020095,0.002574,0.223016,-0.013035,3.588176
14:37:48.675,2.450,49,9.501097,3.592835,-4.671262,1,0.000000,0.000000,1.913928,-0.031484,0.207378,-0.025431,0,0.000000,0.000000,0.000000,0,1,4.717115,9.479130,-0.071746,-4.655461,-0.545725,-0.091789,-0.020977,0.001893,0.222704,-0.013282,3.664680
14:37:48.725,2.500,50,9.473905,3.662725,-4.672212,1,0.000000,0.000000,1.918343,-0.031792,0.226586,0.007317,0,0.000000,0.000000,0.000000,0,1,4.642323,9.451581,-0.078580,-4.656368,-0.556119,-0.097174,-0.021246,0.001232,0.222780,-0.012880,3.741405
14:37:48.775,2.550,51,9.446190,3.732410,-4.673179,1,0.000000,0.000000,1.944029,0.040474,0.234876,-0.039574,0,0.000000,0.000000,0.000000,0,1,4.650710,9.422441,-0.081108,-4.655646,-0.567458,-0.099370,-0.020132,0.001987,0.223012,-0.013376,3.813632
14:37:48.825,2.600,52,9.417954,3.801884,-4.674166,1,0.000000,0.000000,1.943578,0.001142,0.230564,-0.033067,0,0.000000,0.000000,0.000000,0,1,4.683108,9.393320,-0.086291,-4.656802,-0.578240,-0.103449,-0.021147,0.001971,0.223155,-0.013745,3.888292
14:37:48.875,2.650,53,9.389197,3.871145,-4.675170,1,0.000000,0.000000,1.991763,0.003143,0.294443,-0.005036,0,0.000000,0.000000,0.000000,0,1,4.708265,9.359390,-0.092081,-4.657811,-0.591950,-0.108530,-0.021676,0.001993,0.224475,-0.013585,3.963375
14:37:48.925,2.700,54,9.359923,3.940188,-4.676192,1,0.000000,0.000000,1.961315,0.031854,0.267181,-0.015310,0,0.000000,0.000000,0.000000,0,1,4.641432,9.326380,-0.095948,-4.653846,-0.604732,-0.111665,-0.016644,0.002536,0.225251,-0.013579,4.036337
14:37:48.975,2.750,55,9.330131,4.009009,-4.677232,1,0.000000,0.000000,1.975150,0.034057,0.196902,0.013589,0,0.000000,0.000000,0.000000,0,1,4.629808,9.297563,-0.099212,-4.654516,-0.614064,-0.114169,-0.016871,0.003099,0.224745,-0.013097,4.108412
14:37:49.025,2.800,56,9.299825,4.077605,-4.678291,1,0.000000,0.000000,1.970171,0.011522,0.224088,0.016000,0,0.000000,0.000000,0.000000,0,1,4.659314,9.266568,-0.104428,-4.655162,-0.624529,-0.117980,-0.017024,0.003246,0.224734,-0.012589,4.182229
14:37:49.075,2.850,57,9.269005,4.145971,-4.679367,1,0.000000,0.000000,1.995231,-0.014739,0.264273,0.030510,0,0.000000,0.000000,0.000000,0,1,4.628292,9.232429,-0.112100,-4.647739,-0.636574,-0.123732,-0.007890,0.002936,0.225415,-0.011794,4.258346
14:37:49.125,2.900,58,9.237673,4.214104,-4.680461,1,0.000000,0.000000,2.014840,-0.043875,0.219883,0.000256,0,0.000000,0.000000,0.000000,0,1,4.685496,9.201208,-0.121751,-4.648072,-0.646064,-0.130655,-0.008290,0.002143,0.225322,-0.011591,4.336130
14:37:49.175,2.950,59,9.205832,4.282000,-4.681573,1,0.000000,0.000000,2.025876,-0.041381,0.250406,-0.047711,0,0.000000,0.000000,0.000000,0,1,4.680566,9.167242,-0.131876,-4.648757,-0.656990,-0.137882,-0.009459,0.001417,0.225740,-0.012189,4.414166
14:37:49.225,3.000,60,9.173483,4.349655,-4.682703,1,0.000000,0.000000,2.022575,-0.004420,0.234907,-0.012177,0,0.000000,0.000000,0.000000,0,1,4.802633,9.133511,-0.139426,-4.693690,-0.667557,-0.143126,-0.060469,0.001322,0.225890,-0.012495,4.489273
14:37:49.275,3.050,61,9.140628,4.417066,-4.683850,1,0.000000,0.000000,1.992921,0.010697,0.240657,-0.017734,0,0.000000,0.000000,0.000000,0,1,4.694657,9.098647,-0.146143,-4.696761,-0.678702,-0.147399,-0.061172,0.001473,0.226128,-0.012579,4.563420
14:37:49.325,3.100,62,9.107268,4.484228,-4.685015,1,0.000000,0.000000,2.022850,0.051226,0.234844,0.008509,0,0.000000,0.000000,0.000000,0,1,4.696792,9.063221,-0.149882,-4.699692,-0.689873,-0.149965,-0.061476,0.002263,0.226267,-0.012246,4.634342
14:37:49.376,3.150,63,9.073406,4.551138,-4.686197,1,0.000000,0.000000,2.036108,-0.033243,0.234866,0.053130,0,0.000000,0.000000,0.000000,0,1,4.664437,9.028211,-0.160395,-4.691325,-0.700052,-0.156749,-0.048604,0.001708,0.226401,-0.011159,4.711753
14:37:49.426,3.200,64,9.039043,4.617792,-4.687397,1,0.000000,0.000000,2.035979,0.000245,0.216494,-0.045898,0,0.000000,0.000000,0.000000,0,1,4.748240,8.993763,-0.168355,-4.693976,-0.709714,-0.161709,-0.049650,0.001685,0.226248,-0.011690,4.786366
14:37:49.476,3.250,65,9.004182,4.684186,-4.688615,1,0.000000,0.000000,2.068949,0.020668,0.265638,0.004798,0,0.000000,0.000000,0.000000,0,1,4.693048,8.954602,-0.175527,-4.696365,-0.721806,-0.166581,-0.049994,0.001973,0.226845,-0.011442,4.859972
14:37:49.526,3.300,66,8.968824,4.750317,-4.689849,1,0.000000,0.000000,2.075100,0.005643,0.194686,-0.057087,0,0.000000,0.000000,0.000000,0,1,4.729258,8.920857,-0.183277,-4.707911,-0.730282,-0.171422,-0.061132,0.002028,0.226365,-0.012173,4.933860
14:37:49.576,3.350,67,8.932971,4.816180,-4.691101,1,0.000000,0.000000,2.065932,0.040837,0.219874,0.043695,0,0.000000,0.000000,0.000000,0,1,4.756517,8.884121,-0.188661,-4.710665,-0.740440,-0.174771,-0.060998,0.002599,0.226270,-0.011358,5.005117
14:37:49.626,3.400,68,8.896626,4.881772,-4.692371,1,0.000000,0.000000,2.058554,-0.038738,0.266976,0.005777,0,0.000000,0.000000,0.000000,0,1,4.704097,8.843971,-0.201576,-4.713622,-0.751947,-0.182431,-0.061330,0.001999,0.226860,-0.011112,5.083666
14:37:49.676,3.450,69,8.859790,4.947090,-4.693657,1,0.000000,0.000000,2.071188,-0.041582,0.280897,-0.016374,0,0.000000,0.000000,0.000000,0,1,4.685710,8.802106,-0.215323,-4.707752,-0.764000,-0.190534,-0.051765,0.001377,0.227632,-0.011132,5.162755
14:37:49.726,3.500,70,8.822466,5.012130,-4.694960,1,0.000000,0.000000,2.107614,-0.029115,0.162317,-0.009172,0,0.000000,0.000000,0.000000,0,1,4.808266,8.769773,-0.226698,-4.710344,-0.770315,-0.196941,-0.052297,0.000947,0.226712,-0.011105,5.239115
14:37:49.776,3.550,71,8.784655,5.076888,-4.696281,1,0.000000,0.000000,2.098720,-0.052716,0.227506,-0.020074,0,0.000000,0.000000,0.000000,0,1,4.632621,8.731740,-0.241420,-4.713027,-0.779492,-0.205182,-0.052970,0.000202,0.226723,-0.011228,5.318598
14:37:49.826,3.600,72,8.746359,5.141360,-4.697618,1,0.000000,0.000000,2.120657,0.005162,0.195063,-0.029730,0,0.000000,0.000000,0.000000,0,1,4.594773,8.695270,-0.250901,-4.680761,-0.787717,-0.210455,-0.014028,0.000270,0.226289,-0.011276,5.392529
14:37:49.876,3.650,73,8.707582,5.205543,-4.698972,1,0.000000,0.000000,2.106769,0.015363,0.182398,0.026964,0,0.000000,0.000000,0.000000,0,1,4.675010,8.659368,-0.259514,-4.681278,-0.795557,-0.214934,-0.014134,0.000474,0.225696,-0.010764,5.465298
14:37:49.927,3.700,74,8.668325,5.269433,-4.700343,1,0.000000,0.000000,2.106303,0.034857,0.224392,-0.003585,0,0.000000,0.000000,0.000000,0,1,4.712772,8.618911,-0.267238,-4.681957,-0.805664,-0.219020,-0.014583,0.000932,0.225679,-0.010669,5.536922
14:37:49.977,3.750,75,8.628589,5.333027,-4.701731,1,0.000000,0.000000,2.141351,0.026967,0.226269,0.021822,0,0.000000,0.000000,0.000000,0,1,4.755147,8.577902,-0.275939,-4.703530,-0.815561,-0.223847,-0.038547,0.001275,0.225686,-0.010362,5.609195
14:37:50.027,3.800,76,8.588379,5.396320,-4.703135,1,0.000000,0.000000,2.111512,-0.083147,0.231610,0.045240,0,0.000000,0.000000,0.000000,0,1,4.700293,8.537766,-0.295294,-4.705195,-0.824411,-0.233684,-0.038431,0.000179,0.225763,-0.009647,5.691840
14:37:50.077,3.850,77,8.547695,5.459311,-4.704556,1,0.000000,0.000000,2.112956,0.043994,0.214758,0.000353,0,0.000000,0.000000,0.000000,0,1,4.748985,8.496581,-0.302771,-4.707073,-0.834161,-0.237276,-0.038795,0.000740,0.225622,-0.009520,5.762309
14:37:50.127,3.900,78,8.506540,5.521994,-4.705993,1,0.000000,0.000000,2.136985,0.011077,0.194125,-0.006074,0,0.000000,0.000000,0.000000,0,1,4.696911,8.457475,-0.313226,-4.705503,-0.842355,-0.242372,-0.035260,0.000871,0.225224,-0.009458,5.835426
14:37:50.177,3.950,79,8.464916,5.584366,-4.707446,1,0.000000,0.000000,2.148427,-0.005267,0.242394,-0.037555,0,0.000000,0.000000,0.000000,0,1,4.693767,8.413565,-0.326411,-4.707412,-0.852538,-0.249015,-0.036038,0.000794,0.225438,-0.009806,5.911000
14:37:50.227,4.000,80,8.422826,5.646425,-4.708916,1,0.000000,0.000000,2.190351,-0.009223,0.222256,-0.062595,0,0.000000,0.000000,0.000000,0,1,4.735266,8.371210,-0.339949,-4.709503,-0.861446,-0.255955,-0.037128,0.000671,0.225399,-0.010451,5.986597
14:37:50.277,4.050,81,8.380272,5.708166,-4.710402,1,0.000000,0.000000,2.181109,0.008329,0.189540,0.008240,0,0.000000,0.000000,0.000000,0,1,4.772805,8.331327,-0.351451,-4.729076,-0.869123,-0.261512,-0.057617,0.000764,0.224962,-0.010316,6.059843
14:37:50.327,4.100,82,8.337256,5.769585,-4.711904,1,0.000000,0.000000,2.163103,-0.003823,0.302045,0.051612,0,0.000000,0.000000,0.000000,0,1,4.774772,8.279969,-0.366676,-4.731689,-0.882033,-0.269093,-0.057487,0.000709,0.225890,-0.009578,6.136560
14:37:50.377,4.150,83,8.293782,5.830680,-4.713422,1,0.000000,0.000000,2.200713,-0.026127,0.255231,-0.008354,0,0.000000,0.000000,0.000000,0,1,4.681422,8.233198,-0.383625,-4.734569,-0.892163,-0.277408,-0.057953,0.000389,0.226240,-0.009563,6.214637
14:37:50.427,4.200,84,8.249850,5.891448,-4.714957,1,0.000000,0.000000,2.191114,0.032720,0.230634,-0.047245,0,0.000000,0.000000,0.000000,0,1,4.650992,8.187233,-0.394424,-4.712598,-0.902065,-0.282518,-0.030431,0.000770,0.226291,-0.009880,6.286184
14:37:50.478,4.250,85,8.205465,5.951883,-4.716507,1,0.000000,0.000000,2.219285,-0.083334,0.210106,-0.014214,0,0.000000,0.000000,0.000000,0,1,4.681436,8.145384,-0.417126,-4.714151,-0.909085,-0.293011,-0.030968,-0.000208,0.226103,-0.009930,6.369293
14:37:50.528,4.300,86,8.160627,6.011984,-4.718072,1,0.000000,0.000000,2.190307,-0.025604,0.203800,0.017009,0,0.000000,0.000000,0.000000,0,1,4.689671,8.102601,-0.434124,-4.715582,-0.916856,-0.300431,-0.031183,-0.000500,0.225847,-0.009623,6.446370
14:37:50.578,4.350,87,8.115341,6.071747,-4.719654,1,0.000000,0.000000,2.188929,-0.005631,0.213198,-0.044289,0,0.000000,0.000000,0.000000,0,1,4.620565,8.057988,-0.449572,-4.689337,-0.925376,-0.307041,-0.000319,-0.000558,0.225703,-0.009882,6.521642
14:37:50.628,4.400,88,8.069607,6.131169,-4.721251,1,0.000000,0.000000,2.233408,-0.022959,0.211021,-0.024538,0,0.000000,0.000000,0.000000,0,1,4.725252,8.013587,-0.467169,-4.689427,-0.933225,-0.314820,-0.000954,-0.000810,0.225538,-0.010045,6.598652
14:37:50.678,4.450,89,8.023430,6.190245,-4.722863,1,0.000000,0.000000,2.216798,0.033972,0.218286,-0.052619,0,0.000000,0.000000,0.000000,0,1,4.817288,7.966674,-0.479135,-4.689684,-0.942413,-0.319911,-0.001885,-0.000424,0.225457,-0.010513,6.669704
14:37:50.728,4.500,90,7.976811,6.248973,-4.724491,1,0.000000,0.000000,2.273300,-0.014802,0.227701,-0.067660,0,0.000000,0.000000,0.000000,0,1,4.681032,7.919437,-0.496944,-4.687464,-0.950879,-0.327913,-0.000044,-0.000582,0.225482,-0.011122,6.746263
14:37:50.778,4.550,91,7.929753,6.307350,-4.726135,1,0.000000,0.000000,2.279870,0.032719,0.190913,0.011147,0,0.000000,0.000000,0.000000,0,1,4.673872,7.874694,-0.508989,-4.687391,-0.958351,-0.333180,-0.000394,-0.000220,0.225106,-0.010883,6.816671
14:37:50.828,4.600,92,7.882259,6.365372,-4.727793,1,0.000000,0.000000,2.235789,-0.009327,0.257971,-0.041486,0,0.000000,0.000000,0.000000,0,1,4.625511,7.823106,-0.527662,-4.687560,-0.968573,-0.341087,-0.001235,-0.000318,0.225460,-0.011208,6.893405
14:37:50.878,4.650,93,7.834332,6.423036,-4.729467,1,0.000000,0.000000,2.305644,-0.023781,0.217846,-0.009414,0,0.000000,0.000000,0.000000,0,1,4.806967,7.775929,-0.547363,-4.722148,-0.976190,-0.349614,-0.040880,-0.000567,0.225379,-0.011339,6.970647
14:37:50.928,4.700,94,7.785973,6.480338,-4.731156,1,0.000000,0.000000,2.293379,-0.008773,0.247903,-0.036175,0,0.000000,0.000000,0.000000,0,1,4.721282,7.724552,-0.566554,-4.724303,-0.985525,-0.357839,-0.041669,-0.000654,0.225616,-0.011598,7.047164
14:37:50.978,4.750,95,7.737187,6.537276,-4.732859,1,0.000000,0.000000,2.313047,-0.029240,0.167150,-0.007315,0,0.000000,0.000000,0.000000,0,1,4.772092,7.682566,-0.586372,-4.726382,-0.990652,-0.365823,-0.042209,-0.000951,0.225007,-0.011553,7.123861
14:37:51.028,4.800,96,7.687975,6.593847,-4.734578,1,0.000000,0.000000,2.289744,0.023733,0.179218,-0.040100,0,0.000000,0.000000,0.000000,0,1,4.769719,7.637475,-0.600732,-4.740523,-0.997405,-0.371362,-0.056523,-0.000697,0.224535,-0.011894,7.194759
14:37:51.078,4.850,97,7.638340,6.650046,-4.736311,1,0.000000,0.000000,2.314214,0.012635,0.225714,-0.072638,0,0.000000,0.000000,0.000000,0,1,4.748664,7.586890,-0.617959,-4.743592,-1.005928,-0.378396,-0.057643,-0.000561,0.224547,-0.012507,7.268191
14:37:51.128,4.900,98,7.588286,6.705872,-4.738059,1,0.000000,0.000000,2.311967,0.005822,0.237525,-0.016949,0,0.000000,0.000000,0.000000,0,1,4.738427,7.534668,-0.636681,-4.746508,-1.014894,-0.385929,-0.058309,-0.000496,0.224678,-0.012551,7.342753
14:37:51.179,4.950,99,7.537815,6.761320,-4.739821,1,0.000000,0.000000,2.335856,-0.000237,0.224621,-0.036797,0,0.000000,0.000000,0.000000,0,1,4.721544,7.483721,-0.656139,-4.741450,-1.022982,-0.393715,-0.049992,-0.000494,0.224677,-0.012758,7.417657
14:37:51.229,5.000,100,7.486929,6.816388,-4.741598,1,0.000000,0.000000,2.313473,0.011987,0.187231,-0.006670,0,0.000000,0.000000,0.000000,0,1,4.664366,7.436514,-0.673404,-4.743944,-1.029757,-0.400104,-0.050579,-0.000370,0.224307,-0.012699,7.489962
14:37:51.279,5.050,101,7.435632,6.871072,-4.743390,1,0.000000,0.000000,2.308807,-0.003169,0.208396,0.017782,0,0.000000,0.000000,0.000000,0,1,4.781075,7.386840,-0.693460,-4.746366,-1.037270,-0.407508,-0.050946,-0.000398,0.224151,-0.012403,7.564690
14:37:51.329,5.100,102,7.383927,6.925370,-4.745195,1,0.000000,0.000000,2.349625,0.015762,0.239002,-0.012582,0,0.000000,0.000000,0.000000,0,1,4.715439,7.332458,-0.712504,-4.739245,-1.046195,-0.414929,-0.040599,-0.000241,0.224295,-0.012367,7.638050
14:37:51.379,5.150,103,7.331816,6.979278,-4.747015,1,0.000000,0.000000,2.336803,-0.013652,0.231437,-0.057889,0,0.000000,0.000000,0.000000,0,1,4.770530,7.279481,-0.735330,-4.741450,-1.054350,-0.423448,-0.041588,-0.000370,0.224363,-0.012800,7.714788
14:37:51.429,5.200,104,7.279302,7.032794,-4.748849,1,0.000000,0.000000,2.325012,0.034011,0.228646,-0.018594,0,0.000000,0.000000,0.000000,0,1,4.783479,7.224928,-0.752537,-4.743568,-1.063333,-0.429669,-0.042277,-0.000042,0.224404,-0.012854,7.785522
14:37:51.479,5.250,105,7.226389,7.085914,-4.750697,1,0.000000,0.000000,2.362226,0.066161,0.236096,-0.029575,0,0.000000,0.000000,0.000000,0,1,4.714678,7.167938,-0.766259,-4.736779,-1.072961,-0.434885,-0.032886,0.000582,0.224515,-0.012976,7.852403
14:37:51.529,5.300,106,7.173079,7.138636,-4.752558,1,0.000000,0.000000,2.360755,-0.003870,0.216963,-0.063011,0,0.000000,0.000000,0.000000,0,1,4.790683,7.115199,-0.788517,-4.738610,-1.080461,-0.442899,-0.033931,0.000541,0.224444,-0.013438,7.927377
14:37:51.579,5.350,107,7.119376,7.190956,-4.754434,1,0.000000,0.000000,2.393913,-0.033661,0.200841,-0.009471,0,0.000000,0.000000,0.000000,0,1,4.764228,7.065163,-0.814452,-4.740308,-1.086413,-0.452201,-0.034570,0.000224,0.224225,-0.013401,8.005604
14:37:51.629,5.400,108,7.065282,7.242872,-4.756323,1,0.000000,0.000000,2.394897,-0.012870,0.231754,0.047821,0,0.000000,0.000000,0.000000,0,1,4.775669,7.010129,-0.839218,-4.751592,-1.094126,-0.461150,-0.045801,0.000104,0.224295,-0.012883,8.082279
14:37:51.679,5.450,109,7.010800,7.294380,-4.758225,1,0.000000,0.000000,2.384798,-0.005901,0.189651,-0.018152,0,0.000000,0.000000,0.000000,0,1,4.824697,6.959952,-0.862048,-4.753916,-1.100168,-0.468908,-0.046486,0.000049,0.223980,-0.012930,8.156588
14:37:51.730,5.500,110,6.955934,7.345478,-4.760141,1,0.000000,0.000000,2.381011,0.018402,0.267296,-0.001088,0,0.000000,0.000000,0.000000,0,1,4.744807,6.898410,-0.884832,-4.756213,-1.110172,-0.477033,-0.047037,0.000215,0.224370,-0.012825,8.230511
14:37:51.780,5.550,111,6.900686,7.396163,-4.762070,1,0.000000,0.000000,2.414031,-0.072208,0.233076,-0.019683,0,0.000000,0.000000,0.000000,0,1,4.852717,6.844192,-0.918790,-4.785820,-1.116626,-0.488792,-0.078552,-0.000432,0.224448,-0.012983,8.315179
14:37:51.830,5.600,112,6.845060,7.446431,-4.764013,1,0.000000,0.000000,2.387633,0.016538,0.236203,-0.012030,0,0.000000,0.000000,0.000000,0,1,4.776242,6.785974,-0.941606,-4.789761,-1.125145,-0.496465,-0.079194,-0.000282,0.224552,-0.012974,8.388285
14:37:51.880,5.650,113,6.789058,7.496281,-4.765969,1,0.000000,0.000000,2.420017,0.022889,0.288004,-0.023963,0,0.000000,0.000000,0.000000,0,1,4.819686,6.720134,-0.965912,-4.793776,-1.135816,-0.505125,-0.079929,-0.000079,0.225108,-0.013069,8.462519
14:37:51.930,5.700,114,6.732685,7.545709,-4.767937,1,0.000000,0.000000,2.427580,0.013930,0.277083,0.004642,0,0.000000,0.000000,0.000000,0,1,4.709300,6.655585,-0.991472,-4.772153,-1.145757,-0.514046,-0.051486,0.000043,0.225560,-0.012828,8.537530
14:37:51.980,5.750,115,6.675943,7.594713,-4.769919,1,0.000000,0.000000,2.461248,0.045843,0.244110,0.043525,0,0.000000,0.000000,0.000000,0,1,4.758355,6.593806,-1.011866,-4.774567,-1.154586,-0.521165,-0.051716,0.000438,0.225720,-0.012348,8.606972
14:37:52.030,5.800,116,6.618835,7.643289,-4.771913,1,0.000000,0.000000,2.435130,-0.012070,0.216141,0.061675,0,0.000000,0.000000,0.000000,0,1,4.757987,6.537705,-1.039479,-4.776911,-1.161256,-0.530092,-0.051767,0.000331,0.225638,-0.011724,8.683149
14:37:52.080,5.850,117,6.561364,7.691436,-4.773920,1,0.000000,0.000000,2.425943,-0.023182,0.219433,-0.009029,0,0.000000,0.000000,0.000000,0,1,4.795989,6.481263,-1.069203,-4.784270,-1.167921,-0.539501,-0.057729,0.000132,0.225586,-0.011717,8.761011
14:37:52.130,5.900,118,6.503535,7.739150,-4.775939,1,0.000000,0.000000,2.422214,0.005047,0.180674,0.003469,0,0.000000,0.000000,0.000000,0,1,4.726855,6.428745,-1.093866,-4.787125,-1.173493,-0.546848,-0.058207,0.000173,0.225208,-0.011591,8.833340
14:37:52.180,5.950,119,6.445349,7.786428,-4.777971,1,0.000000,0.000000,2.433748,0.005930,0.249719,0.007675,0,0.000000,0.000000,0.000000,0,1,4.876124,6.366204,-1.121633,-4.789985,-1.182010,-0.555651,-0.058643,0.000221,0.225412,-0.011433,8.908421
14:37:52.230,6.000,120,6.386810,7.833269,-4.780015,1,0.000000,0.000000,2.454209,-0.023352,0.192326,0.001165,0,0.000000,0.000000,0.000000,0,1,4.724177,6.312604,-1.151570,-4.773019,-1.187239,-0.564696,-0.036622,0.000026,0.225139,-0.011264,8.985149
14:37:52.281,6.050,121,6.327923,7.879669,-4.782072,1,0.000000,0.000000,2.453275,0.007407,0.241434,0.008605,0,0.000000,0.000000,0.000000,0,1,4.744043,6.250423,-1.179671,-4.774805,-1.195254,-0.573408,-0.037048,0.000087,0.225273,-0.011103,9.059674
14:37:52.331,6.100,122,6.268689,7.925626,-4.784140,1,0.000000,0.000000,2.493171,-0.006322,0.244594,-0.022714,0,0.000000,0.000000,0.000000,0,1,4.851384,6.187997,-1.210329,-4.776710,-1.202763,-0.583068,-0.037687,0.000035,0.225430,-0.011197,9.136315
14:37:52.381,6.150,123,6.209112,7.971137,-4.786221,1,0.000000,0.000000,2.452254,0.039459,0.238587,-0.025465,0,0.000000,0.000000,0.000000,0,1,4.794685,6.124028,-1.234585,-4.783293,-1.211338,-0.590337,-0.043602,0.000353,0.225536,-0.011325,9.206116
14:37:52.431,6.200,124,6.149195,8.016199,-4.788313,1,0.000000,0.000000,2.475537,0.019978,0.181823,-0.043945,0,0.000000,0.000000,0.000000,0,1,4.815653,6.068764,-1.259497,-4.785582,-1.216850,-0.597413,-0.044389,0.000510,0.225186,-0.011583,9.276046
14:37:52.481,6.250,125,6.088943,8.060811,-4.790417,1,0.000000,0.000000,2.489213,-0.040328,0.255276,0.004175,0,0.000000,0.000000,0.000000,0,1,4.758901,6.005211,-1.296953,-4.787765,-1.224125,-0.608750,-0.044856,0.000186,0.225425,-0.011459,9.358139
14:37:52.531,6.300,126,6.028358,8.104969,-4.792533,1,0.000000,0.000000,2.509811,-0.012918,0.279597,0.047533,0,0.000000,0.000000,0.000000,0,1,4.812146,5.936456,-1.332069,-4.796269,-1.232834,-0.619574,-0.052301,0.000082,0.225851,-0.011021,9.437487
14:37:52.581,6.350,127,5.967444,8.148672,-4.794660,1,0.000000,0.000000,2.487046,-0.001843,0.221511,0.008142,0,0.000000,0.000000,0.000000,0,1,4.659158,5.875377,-1.363353,-4.798844,-1.239484,-0.628518,-0.052726,0.000067,0.225817,-0.010873,9.512471
14:37:52.631,6.400,128,5.906204,8.191916,-4.796799,1,0.000000,0.000000,2.520091,0.019859,0.218613,-0.051738,0,0.000000,0.000000,0.000000,0,1,4.819739,5.813367,-1.391704,-4.801622,-1.246186,-0.636692,-0.053553,0.000221,0.225762,-0.011186,9.584071
14:37:52.681,6.450,129,5.844641,8.234699,-4.798948,1,0.000000,0.000000,2.502346,0.019030,0.157414,0.043148,0,0.000000,0.000000,0.000000,0,1,4.732456,5.760258,-1.417609,-4.783405,-1.250428,-0.643435,-0.030257,0.000365,0.225236,-0.010710,9.652690
14:37:52.731,6.500,130,5.782760,8.277019,-4.801109,1,0.000000,0.000000,2.543504,0.037416,0.220142,0.019229,0,0.000000,0.000000,0.000000,0,1,4.800667,5.696519,-1.444151,-4.784849,-1.257390,-0.651042,-0.030599,0.000648,0.225197,-0.010484,9.721566
14:37:52.781,6.550,131,5.720563,8.318873,-4.803281,1,0.000000,0.000000,2.564154,0.028205,0.194360,0.001748,0,0.000000,0.000000,0.000000,0,1,4.742473,5.636814,-1.471193,-4.786354,-1.262870,-0.658600,-0.031041,0.000857,0.224963,-0.010393,9.790439
14:37:52.831,6.600,132,5.658054,8.360260,-4.805464,1,0.000000,0.000000,2.553334,-0.002074,0.250004,-0.020015,0,0.000000,0.000000,0.000000,0,1,4.785575,5.569822,-1.506079,-4.787265,-1.270142,-0.668621,-0.030851,0.000835,0.225152,-0.010462,9.866750
14:37:52.881,6.650,133,5.595236,8.401176,-4.807658,1,0.000000,0.000000,2.559328,0.063565,0.219971,-0.009790,0,0.000000,0.000000,0.000000,0,1,4.826250,5.503722,-1.529796,-4.788818,-1.277568,-0.675234,-0.031369,0.001303,0.225113,-0.010457,9.931411
14:37:52.931,6.700,134,5.532114,8.441620,-4.809862,1,0.000000,0.000000,2.563905,-0.028714,0.225649,0.010229,0,0.000000,0.000000,0.000000,0,1,4.823200,5.441177,-1.568482,-4.790338,-1.283108,-0.685904,-0.031755,0.001081,0.225117,-0.010306,10.010534
14:37:52.982,6.750,135,5.468690,8.481588,-4.812077,1,0.000000,0.000000,2.568538,-0.045113,0.228925,0.009975,0,0.000000,0.000000,0.000000,0,1,4.778829,5.378726,-1.610433,-4.788101,-1.288358,-0.697360,-0.027861,0.000741,0.225145,-0.010147,10.092451
14:37:53.032,6.800,136,5.404969,8.521080,-4.814302,1,0.000000,0.000000,2.585123,0.021298,0.168622,-0.043190,0,0.000000,0.000000,0.000000,0,1,4.787050,5.321937,-1.639263,-4.789594,-1.292442,-0.704735,-0.028572,0.000891,0.224732,-0.010385,10.160713
14:37:53.082,6.850,137,5.340953,8.560093,-4.816538,1,0.000000,0.000000,2.583189,0.042706,0.246669,-0.028294,0,0.000000,0.000000,0.000000,0,1,4.848449,5.251411,-1.669323,-4.791088,-1.300320,-0.713003,-0.029208,0.001194,0.224891,-0.010513,10.229839
14:37:53.132,6.900,138,5.276647,8.598624,-4.818783,1,0.000000,0.000000,2.603377,-0.029537,0.154760,-0.030164,0,0.000000,0.000000,0.000000,0,1,4.826329,5.199109,-1.706218,-4.802369,-1.302496,-0.722271,-0.040898,0.000973,0.224387,-0.010681,10.305146
14:37:53.182,6.950,139,5.212054,8.636671,-4.821039,1,0.000000,0.000000,2.611417,-0.045283,0.200337,0.010564,0,0.000000,0.000000,0.000000,0,1,4.780604,5.140288,-1.748624,-4.804372,-1.306126,-0.733282,-0.041304,0.000643,0.224215,-0.010531,10.385556
14:37:53.232,7.000,140,5.147177,8.674232,-4.823304,1,0.000000,0.000000,2.638031,0.042553,0.252977,-0.007185,0,0.000000,0.000000,0.000000,0,1,4.871434,5.067830,-1.780425,-4.806441,-1.313746,-0.742030,-0.041809,0.000940,0.224419,-0.010508,10.454972
14:37:53.282,7.050,141,5.082021,8.711306,-4.825580,1,0.000000,0.000000,2.607707,-0.038068,0.277907,0.000534,0,0.000000,0.000000,0.000000,0,1,4.847003,4.995592,-1.827169,-4.819637,-1.320779,-0.754547,-0.054859,0.000665,0.224796,-0.010463,10.538831
14:37:53.332,7.100,142,5.016588,8.747889,-4.827865,1,0.000000,0.000000,2.639528,0.018553,0.218035,0.028417,0,0.000000,0.000000,0.000000,0,1,4.878247,4.929471,-1.861835,-4.822294,-1.326366,-0.763486,-0.055152,0.000790,0.224748,-0.010194,10.610084
14:37:53.382,7.150,143,4.950883,8.783981,-4.830159,1,0.000000,0.000000,2.637122,0.005038,0.262344,0.019393,0,0.000000,0.000000,0.000000,0,1,4.908006,4.856609,-1.901789,-4.824981,-1.333478,-0.774034,-0.055477,0.000820,0.225009,-0.009992,10.686186
14:37:53.432,7.200,144,4.884910,8.819578,-4.832463,1,0.000000,0.000000,2.629800,-0.037982,0.206268,-0.040085,0,0.000000,0.000000,0.000000,0,1,4.771766,4.795213,-1.945997,-4.811646,-1.337318,-0.784958,-0.037815,0.000552,0.224880,-0.010152,10.765969
14:37:53.482,7.250,145,4.818672,8.854679,-4.834776,1,0.000000,0.000000,2.681971,-0.038541,0.194943,-0.005812,0,0.000000,0.000000,0.000000,0,1,4.878416,4.735558,-1.990146,-4.813538,-1.340158,-0.795891,-0.038297,0.000284,0.224675,-0.010122,10.845164
14:37:53.532,7.300,146,4.752172,8.889282,-4.837098,1,0.000000,0.000000,2.669015,0.053698,0.155136,-0.076817,0,0.000000,0.000000,0.000000,0,1,4.906965,4.676702,-2.017010,-4.815650,-1.343760,-0.802013,-0.039210,0.000648,0.224202,-0.010570,10.906575
14:37:53.582,7.350,147,4.685415,8.923386,-4.839429,1,0.000000,0.000000,2.668678,-0.017239,0.252801,0.005160,0,0.000000,0.000000,0.000000,0,1,4.948437,4.605718,-2.062141,-4.855404,-1.349616,-0.813407,-0.082463,0.000527,0.224395,-0.010567,10.985827
14:37:53.633,7.400,148,4.618404,8.956987,-4.841770,1,0.000000,0.000000,2.685193,0.036440,0.241407,-0.035399,0,0.000000,0.000000,0.000000,0,1,4.801651,4.532977,-2.098097,-4.859601,-1.356160,-0.822434,-0.083132,0.000768,0.224510,-0.010732,11.055428
14:37:53.683,7.450,149,4.551143,8.990084,-4.844118,1,0.000000,0.000000,2.692314,-0.004355,0.209099,-0.014356,0,0.000000,0.000000,0.000000,0,1,4.840529,4.467982,-2.139350,-4.863780,-1.360321,-0.832353,-0.083690,0.000734,0.224407,-0.010756,11.129762
14:37:53.733,7.500,150,4.483636,9.022676,-4.846476,1,0.000000,0.000000,2.684640,-0.025573,0.249148,-0.001216,0,0.000000,0.000000,0.000000,0,1,4.781607,4.397342,-2.187298,-4.842991,-1.365642,-0.844082,-0.055914,0.000560,0.224571,-0.010627,11.210306
14:37:53.783,7.550,151,4.415887,9.054760,-4.848842,1,0.000000,0.000000,2.702877,-0.020372,0.201761,0.003686,0,0.000000,0.000000,0.000000,0,1,4.957115,4.334215,-2.231833,-4.845766,-1.368997,-0.854501,-0.056365,0.000422,0.224421,-0.010534,11.286889
14:37:53.833,7.600,152,4.347899,9.086335,-4.851216,1,0.000000,0.000000,2.721752,0.014910,0.276277,0.023111,0,0.000000,0.000000,0.000000,0,1,4.845429,4.255778,-2.275778,-4.848508,-1.376028,-0.865470,-0.056695,0.000517,0.224760,-0.010317,11.362486
14:37:53.883,7.650,153,4.279676,9.117399,-4.853598,1,0.000000,0.000000,2.728617,0.042203,0.193917,-0.000354,0,0.000000,0.000000,0.000000,0,1,4.856583,4.189378,-2.310032,-4.852846,-1.380392,-0.873309,-0.058870,0.000787,0.224559,-0.010257,11.427787
14:37:53.933,7.700,154,4.211222,9.147950,-4.855989,1,0.000000,0.000000,2.719322,0.049405,0.278085,0.018218,0,0.000000,0.000000,0.000000,0,1,4.795287,4.107637,-2.349169,-4.855735,-1.388395,-0.882971,-0.059227,0.001101,0.224905,-0.010076,11.497585
14:37:53.983,7.750,155,4.142542,9.177986,-4.858387,1,0.000000,0.000000,2.705668,0.019528,0.246768,0.018390,0,0.000000,0.000000,0.000000,0,1,4.798369,4.033012,-2.391869,-4.858635,-1.394532,-0.892973,-0.059567,0.001219,0.225045,-0.009896,11.570373
14:37:54.033,7.800,156,4.073638,9.207506,-4.860793,1,0.000000,0.000000,2.753133,0.034843,0.231867,0.001209,0,0.000000,0.000000,0.000000,0,1,4.829915,3.959631,-2.431362,-4.852437,-1.399986,-0.902213,-0.049629,0.001433,0.225088,-0.009803,11.639429
14:37:54.083,7.850,157,4.004514,9.236508,-4.863207,1,0.000000,0.000000,2.736240,-0.030836,0.285254,-0.009954,0,0.000000,0.000000,0.000000,0,1,4.750028,3.881207,-2.486670,-4.854931,-1.406020,-0.915355,-0.050120,0.001229,0.225469,-0.009804,11.723830
14:37:54.133,7.900,158,3.935176,9.264991,-4.865628,1,0.000000,0.000000,2.738113,0.003055,0.214089,0.012627,0,0.000000,0.000000,0.000000,0,1,4.843669,3.812677,-2.531559,-4.857392,-1.410104,-0.925331,-0.050484,0.001241,0.225397,-0.009665,11.797188
14:37:54.183,7.950,159,3.865625,9.292952,-4.868057,1,0.000000,0.000000,2.788558,0.030985,0.239361,0.008416,0,0.000000,0.000000,0.000000,0,1,4.861679,3.737435,-2.573812,-4.860398,-1.415383,-0.935088,-0.051450,0.001426,0.225485,-0.009555,11.867459
14:37:54.233,8.000,160,3.795868,9.320391,-4.870493,1,0.000000,0.000000,2.762269,-0.021909,0.202376,0.025450,0,0.000000,0.000000,0.000000,0,1,4.890715,3.672399,-2.623302,-4.862903,-1.418110,-0.945835,-0.051743,0.001281,0.225341,-0.009340,11.944334
14:37:54.284,8.050,161,3.725906,9.347305,-4.872936,1,0.000000,0.000000,2.781907,-0.006023,0.260887,-0.032405,0,0.000000,0.000000,0.000000,0,1,4.885998,3.595555,-2.674805,-4.865560,-1.423322,-0.957581,-0.052338,0.001236,0.225561,-0.009481,12.022819
14:37:54.334,8.100,162,3.655745,9.373694,-4.875386,1,0.000000,0.000000,2.771175,-0.026829,0.175336,0.064604,0,0.000000,0.000000,0.000000,0,1,4.888085,3.535448,-2.724237,-4.873793,-1.424775,-0.967824,-0.058959,0.001064,0.225252,-0.009047,12.098529
14:37:54.384,8.150,163,3.585388,9.399555,-4.877843,1,0.000000,0.000000,2.762451,-0.020405,0.226569,0.033889,0,0.000000,0.000000,0.000000,0,1,4.876036,3.465495,-2.776878,-4.876658,-1.428472,-0.979130,-0.059190,0.000933,0.225260,-0.008789,12.177024
14:37:54.434,8.200,164,3.514839,9.424888,-4.880307,1,0.000000,0.000000,2.800501,-0.020718,0.251226,0.064774,0,0.000000,0.000000,0.000000,0,1,4.843920,3.390914,-2.832033,-4.879447,-1.432701,-0.991256,-0.059229,0.000802,0.225418,-0.008349,12.257547
14:37:54.484,8.250,165,3.444102,9.449691,-4.882777,1,0.000000,0.000000,2.809704,0.006820,0.145276,-0.001580,0,0.000000,0.000000,0.000000,0,1,4.811145,3.333366,-2.874538,-4.861804,-1.433504,-0.999512,-0.036295,0.000838,0.224935,-0.008259,12.324743
14:37:54.534,8.300,166,3.373181,9.473962,-4.885254,1,0.000000,0.000000,2.817503,0.042570,0.220348,0.014581,0,0.000000,0.000000,0.000000,0,1,4.876750,3.259164,-2.916758,-4.863580,-1.438079,-1.008444,-0.036592,0.001088,0.224908,-0.008124,12.391263
14:37:54.584,8.350,167,3.302080,9.497700,-4.887737,1,0.000000,0.000000,2.829339,-0.036093,0.241832,0.018739,0,0.000000,0.000000,0.000000,0,1,4.865080,3.187005,-2.975647,-4.865355,-1.441219,-1.021002,-0.036855,0.000867,0.225008,-0.007967,12.473898
14:37:54.634,8.400,168,3.230804,9.520903,-4.890226,1,0.000000,0.000000,2.820925,0.005756,0.201235,-0.031208,0,0.000000,0.000000,0.000000,0,1,4.884503,3.118865,-3.024149,-4.872251,-1.444039,-1.030831,-0.043021,0.000896,0.224868,-0.008114,12.545565
14:37:54.684,8.450,169,3.159355,9.543572,-4.892721,1,0.000000,0.000000,2.786498,-0.069781,0.239829,-0.009705,0,0.000000,0.000000,0.000000,0,1,4.811390,3.049521,-3.090313,-4.874415,-1.446619,-1.044437,-0.043435,0.000480,0.224956,-0.008123,12.634376
14:37:54.734,8.500,170,3.087739,9.565703,-4.895222,1,0.000000,0.000000,2.850322,-0.007788,0.240564,-0.002370,0,0.000000,0.000000,0.000000,0,1,4.864057,2.974872,-3.145630,-4.876583,-1.450232,-1.055945,-0.043811,0.000432,0.225047,-0.008090,12.711848
14:37:54.784,8.550,171,3.015958,9.587297,-4.897728,1,0.000000,0.000000,2.849248,-0.015657,0.232945,-0.001396,0,0.000000,0.000000,0.000000,0,1,4.948865,2.902133,-3.202370,-4.899027,-1.453347,-1.067535,-0.067112,0.000338,0.225093,-0.008099,12.790173
14:37:54.834,8.600,172,2.944018,9.608351,-4.900240,1,0.000000,0.000000,2.825070,0.009293,0.256475,-0.000466,0,0.000000,0.000000,0.000000,0,1,4.872668,2.822716,-3.256960,-4.902377,-1.458288,-1.078761,-0.067480,0.000390,0.225274,-0.008056,12.865883
14:37:54.884,8.650,173,2.871922,9.628864,-4.902758,1,0.000000,0.000000,2.850785,-0.005283,0.289644,0.018618,0,0.000000,0.000000,0.000000,0,1,4.918447,2.738028,-3.317699,-4.905699,-1.463775,-1.091551,-0.067745,0.000357,0.225644,-0.007904,12.947256
14:37:54.934,8.700,174,2.799674,9.648836,-4.905281,1,0.000000,0.000000,2.829544,-0.007386,0.219963,-0.046680,0,0.000000,0.000000,0.000000,0,1,4.789436,2.666495,-3.373528,-4.874582,-1.466828,-1.102411,-0.029170,0.000313,0.225612,-0.008044,13.023082
14:37:54.984,8.750,175,2.727279,9.668266,-4.907809,1,0.000000,0.000000,2.866503,-0.018418,0.235219,-0.008298,0,0.000000,0.000000,0.000000,0,1,4.954159,2.592867,-3.433324,-4.876051,-1.469736,-1.114226,-0.029574,0.000207,0.225666,-0.008045,13.102317
14:37:55.035,8.800,176,2.654740,9.687151,-4.910342,1,0.000000,0.000000,2.909347,0.017931,0.167190,0.019959,0,0.000000,0.000000,0.000000,0,1,4.876027,2.528957,-3.480798,-4.877475,-1.470689,-1.122902,-0.029834,0.000307,0.225336,-0.007889,13.168591
14:37:55.085,8.850,177,2.582062,9.705492,-4.912880,1,0.000000,0.000000,2.894776,-0.002470,0.266323,0.024681,0,0.000000,0.000000,0.000000,0,1,4.891034,2.447722,-3.541375,-4.882403,-1.474882,-1.135086,-0.034027,0.000291,0.225566,-0.007717,13.247583
14:37:55.135,8.900,178,2.509248,9.723286,-4.915423,1,0.000000,0.000000,2.920036,-0.034962,0.230661,-0.038542,0,0.000000,0.000000,0.000000,0,1,4.972133,2.376084,-3.605661,-4.884176,-1.476559,-1.147519,-0.034558,0.000094,0.225595,-0.007886,13.329649
14:37:55.185,8.950,179,2.436303,9.740534,-4.917970,1,0.000000,0.000000,2.910804,0.020177,0.176063,0.045555,0,0.000000,0.000000,0.000000,0,1,4.882683,2.309971,-3.654949,-4.885793,-1.477913,-1.156353,-0.034687,0.000206,0.225319,-0.007594,13.396118
14:37:55.235,9.000,180,2.363230,9.757234,-4.920522,1,0.000000,0.000000,2.911528,-0.006298,0.250287,0.026428,0,0.000000,0.000000,0.000000,0,1,4.986051,2.231750,-3.716583,-4.915949,-1.481212,-1.168272,-0.067144,0.000170,0.225457,-0.007471,13.474459
14:37:55.285,9.050,181,2.290035,9.773385,-4.923078,1,0.000000,0.000000,2.928747,0.015334,0.181381,0.037985,0,0.000000,0.000000,0.000000,0,1,4.956607,2.164834,-3.768251,-4.919225,-1.482445,-1.177472,-0.067306,0.000253,0.225215,-0.007225,13.542215
14:37:55.335,9.100,182,2.216720,9.788986,-4.925638,1,0.000000,0.000000,2.955134,-0.010020,0.220780,0.025122,0,0.000000,0.000000,0.000000,0,1,4.862663,2.092484,-3.829001,-4.922527,-1.484089,-1.188777,-0.067508,0.000197,0.225191,-0.007051,13.618554
14:37:55.385,9.150,183,2.143291,9.804036,-4.928202,1,0.000000,0.000000,2.960211,-0.026345,0.243340,-0.024569,0,0.000000,0.000000,0.000000,0,1,4.946662,2.017156,-3.895642,-4.931940,-1.486011,-1.201328,-0.074725,0.000053,0.225290,-0.007158,13.700259
14:37:55.435,9.200,184,2.069751,9.818535,-4.930770,1,0.000000,0.000000,2.926596,-0.012203,0.172323,-0.017767,0,0.000000,0.000000,0.000000,0,1,4.972584,1.954411,-3.953372,-4.935706,-1.486169,-1.211229,-0.075131,-0.000013,0.225003,-0.007214,13.772391
14:37:55.485,9.250,185,1.996104,9.832482,-4.933342,1,0.000000,0.000000,2.915392,-0.001759,0.305253,-0.039595,0,0.000000,0.000000,0.000000,0,1,4.975740,1.864313,-4.022250,-4.939542,-1.491495,-1.224598,-0.075648,-0.000023,0.225435,-0.007386,13.855360
14:37:55.535,9.300,186,1.922355,9.845876,-4.935918,1,0.000000,0.000000,2.954868,-0.020853,0.238725,0.021679,0,0.000000,0.000000,0.000000,0,1,5.027085,1.789062,-4.089184,-4.967489,-1.493447,-1.236802,-0.103290,-0.000134,0.225506,-0.007285,13.935733
14:37:55.585,9.350,187,1.848507,9.858716,-4.938496,1,0.000000,0.000000,2.970508,-0.016698,0.247979,-0.008388,0,0.000000,0.000000,0.000000,0,1,4.944270,1.711479,-4.156804,-4.972665,-1.495666,-1.249159,-0.103659,-0.000222,0.225625,-0.007291,14.016231
14:37:55.635,9.400,188,1.774565,9.871001,-4.941079,1,0.000000,0.000000,2.984250,0.015682,0.216390,-0.048861,0,0.000000,0.000000,0.000000,0,1,5.056855,1.636930,-4.215445,-4.977946,-1.497567,-1.259471,-0.104221,-0.000138,0.225577,-0.007507,14.087166
14:37:55.685,9.450,189,1.700534,9.882731,-4.943664,1,0.000000,0.000000,3.003181,-0.022523,0.246411,0.032304,0,0.000000,0.000000,0.000000,0,1,4.888458,1.560060,-4.285271,-4.955727,-1.499182,-1.272044,-0.073449,-0.000256,0.225686,-0.007243,14.168704
14:37:55.735,9.500,190,1.626416,9.893905,-4.946252,1,0.000000,0.000000,2.985759,0.020307,0.223398,-0.048718,0,0.000000,0.000000,0.000000,0,1,4.973884,1.483449,-4.344777,-4.959487,-1.501453,-1.282408,-0.073995,-0.000148,0.225674,-0.007457,14.239406
14:37:55.786,9.550,191,1.552217,9.904523,-4.948843,1,0.000000,0.000000,3.016443,0.022957,0.266930,-0.014521,0,0.000000,0.000000,0.000000,0,1,4.845646,1.397650,-4.408697,-4.963211,-1.504975,-1.294034,-0.074401,-0.000028,0.225889,-0.007493,14.314062
14:37:55.836,9.600,192,1.477940,9.914583,-4.951437,1,0.000000,0.000000,3.011815,0.039338,0.244570,0.001261,0,0.000000,0.000000,0.000000,0,1,5.010372,1.314535,-4.467607,-4.979478,-1.508259,-1.304432,-0.088946,0.000176,0.225986,-0.007475,14.383146
14:37:55.886,9.650,193,1.403590,9.924086,-4.954033,1,0.000000,0.000000,3.010256,-0.035255,0.150760,-0.014284,0,0.000000,0.000000,0.000000,0,1,4.945771,1.258069,-4.532532,-4.983948,-1.506095,-1.314593,-0.089349,-0.000007,0.225598,-0.007509,14.457382
14:37:55.936,9.700,194,1.329171,9.933031,-4.956632,1,0.000000,0.000000,3.031499,0.022292,0.221430,0.018521,0,0.000000,0.000000,0.000000,0,1,4.837648,1.181254,-4.593552,-4.988370,-1.507863,-1.324915,-0.089605,0.000108,0.225577,-0.007378,14.527371
14:37:55.986,9.750,195,1.254687,9.941417,-4.959233,1,0.000000,0.000000,3.032294,-0.029676,0.180683,-0.023062,0,0.000000,0.000000,0.000000,0,1,4.827121,1.118172,-4.661445,-4.944986,-1.506666,-1.335785,-0.035826,-0.000044,0.225348,-0.007359,14.603507
14:37:56.036,9.800,196,1.180142,9.949243,-4.961836,1,0.000000,0.000000,3.051694,-0.039111,0.193122,-0.012588,0,0.000000,0.000000,0.000000,0,1,4.891217,1.053598,-4.733115,-4.946796,-1.505396,-1.347356,-0.036216,-0.000243,0.225184,-0.007385,14.682912
14:37:56.086,9.850,197,1.105540,9.956511,-4.964441,1,0.000000,0.000000,3.055196,-0.018142,0.201420,0.009762,0,0.000000,0.000000,0.000000,0,1,4.977188,0.985129,-4.801902,-4.948581,-1.505007,-1.358456,-0.036508,-0.000333,0.225064,-0.007299,14.758912
14:37:56.136,9.900,198,1.030887,9.963218,-4.967048,1,0.000000,0.000000,3.030810,0.024017,0.255065,-0.005972,0,0.000000,0.000000,0.000000,0,1,4.940832,0.901001,-4.868319,-4.947644,-1.507988,-1.369738,-0.033733,-0.000211,0.225215,-0.007287,14.832118
14:37:56.186,9.950,199,0.956185,9.969364,-4.969657,1,0.000000,0.000000,3.071490,-0.038698,0.182496,0.050922,0,0.000000,0.000000,0.000000,0,1,4.867624,0.838658,-4.940400,-4.949234,-1.506155,-1.380954,-0.033851,-0.000403,0.225001,-0.007001,14.910241
14:37:56.236,10.000,200,0.881439,9.974950,-4.972267,1,0.000000,0.000000,3.064270,0.018177,0.227056,0.034474,0,0.000000,0.000000,0.000000,0,1,4.867806,0.760850,-5.006088,-4.950851,-1.507644,-1.391615,-0.034016,-0.000311,0.225011,-0.006797,14.981538
14:37:56.286,10.050,201,0.806653,9.979975,-4.974879,1,0.000000,0.000000,3.072616,-0.018632,0.201241,-0.025796,0,0.000000,0.000000,0.000000,0,1,4.961203,0.692453,-5.077126,-4.955089,-1.507049,-1.402716,-0.037258,-0.000401,0.224894,-0.006895,15.057547
14:37:56.336,10.100,202,0.731832,9.984438,-4.977492,1,0.000000,0.000000,3.109253,-0.016211,0.232090,0.000339,0,0.000000,0.000000,0.000000,0,1,5.025535,0.617361,-5.151663,-4.956947,-1.507142,-1.414701,-0.037572,-0.000479,0.224929,-0.006860,15.136547
14:37:56.386,10.150,203,0.656979,9.988340,-4.980106,1,0.000000,0.000000,3.081864,0.006742,0.190606,0.010935,0,0.000000,0.000000,0.000000,0,1,4.909189,0.548378,-5.217271,-4.958799,-1.506883,-1.424627,-0.037837,-0.000444,0.224761,-0.006774,15.206013
14:37:56.436,10.200,204,0.582099,9.991679,-4.982720,1,0.000000,0.000000,3.101944,0.058475,0.197254,-0.044357,0,0.000000,0.000000,0.000000,0,1,4.924111,0.472079,-5.273226,-4.950184,-1.508237,-1.433071,-0.026355,-0.000156,0.224627,-0.006934,15.265337
14:37:56.486,10.250,205,0.507196,9.994457,-4.985336,1,0.000000,0.000000,3.084545,0.016892,0.255932,0.012729,0,0.000000,0.000000,0.000000,0,1,4.915993,0.388071,-5.345170,-4.951476,-1.510423,-1.444704,-0.026621,-0.000074,0.224779,-0.006840,15.340127
14:37:56.537,10.300,206,0.432275,9.996673,-4.987952,1,0.000000,0.000000,3.109602,0.029807,0.247251,0.047893,0,0.000000,0.000000,0.000000,0,1,4.991052,0.304303,-5.413970,-4.952708,-1.512443,-1.455670,-0.026726,0.000071,0.224887,-0.006579,15.411215
14:37:56.587,10.350,207,0.357339,9.998326,-4.990569,1,0.000000,0.000000,3.119954,-0.032054,0.254538,0.007040,0,0.000000,0.000000,0.000000,0,1,4.981177,0.226146,-5.497340,-4.961870,-1.512641,-1.468880,-0.035874,-0.000084,0.225030,-0.006530,15.496248
14:37:56.637,10.400,208,0.282393,9.999417,-4.993186,1,0.000000,0.000000,3.116601,0.051835,0.218917,0.003815,0,0.000000,0.000000,0.000000,0,1,4.921916,0.145663,-5.559281,-4.963654,-1.514355,-1.478265,-0.036158,0.000165,0.225001,-0.006481,15.559327
14:37:56.687,10.450,209,0.207441,9.999946,-4.995804,1,0.000000,0.000000,3.110770,-0.039490,0.221221,0.007925,0,0.000000,0.000000,0.000000,0,1,5.004552,0.075478,-5.641495,-4.965442,-1.513338,-1.490661,-0.036421,-0.000024,0.224983,-0.006413,15.642027
14:37:56.737,10.500,210,0.132486,9.999912,-4.998421,1,0.000000,0.000000,3.159382,-0.049294,0.204280,0.006870,0,0.000000,0.000000,0.000000,0,1,4.984324,0.010183,-5.724372,-4.972179,-1.510918,-1.502824,-0.042269,-0.000258,0.224885,-0.006361,15.724781
14:37:56.787,10.550,211,0.057535,9.999315,-5.001039,1,0.000000,0.000000,3.147836,-0.046933,0.191258,-0.007912,0,0.000000,0.000000,0.000000,0,1,4.994446,-0.052471,-5.805737,-4.974303,-1.508287,-1.514482,-0.042593,-0.000478,0.224726,-0.006368,15.805458
14:37:56.837,10.600,212,-0.017410,9.998156,-5.003656,1,0.000000,0.000000,3.156751,0.061215,0.205560,0.043798,0,0.000000,0.000000,0.000000,0,1,4.945205,-0.131306,-5.866109,-4.976345,-1.509450,-1.523159,-0.042700,-0.000188,0.224636,-0.006136,15.864698
14:37:56.887,10.650,213,-0.092345,9.996435,-5.006272,1,0.000000,0.000000,3.171370,0.036926,0.217217,-0.039284,0,0.000000,0.000000,0.000000,0,1,4.996040,-0.209749,-5.933618,-4.983610,-1.510057,-1.532983,-0.048871,-0.000015,0.224601,-0.006298,15.930502
14:37:56.937,10.700,214,-0.167264,9.994151,-5.008889,1,0.000000,0.000000,3.167044,-0.018151,0.263057,-0.009408,0,0.000000,0.000000,0.000000,0,1,4.944332,-0.291313,-6.019260,-4.986067,-1.510393,-1.546006,-0.049198,-0.000099,0.224780,-0.006312,16.013908
14:37:56.987,10.750,215,-0.242164,9.991305,-5.011504,1,0.000000,0.000000,3.175169,0.029146,0.212723,0.039511,0,0.000000,0.000000,0.000000,0,1,5.042564,-0.367875,-6.088981,-4.988448,-1.510573,-1.555942,-0.049324,0.000036,0.224724,-0.006103,16.080794
14:37:57.037,10.800,216,-0.317041,9.987897,-5.014119,1,0.000000,0.000000,3.188368,0.036081,0.247590,0.013893,0,0.000000,0.000000,0.000000,0,1,5.130774,-0.452926,-6.162108,-5.031308,-1.511916,-1.566785,-0.095294,0.000202,0.224830,-0.006087,16.150587
14:37:57.087,10.850,217,-0.391890,9.983928,-5.016733,1,0.000000,0.000000,3.165150,0.029882,0.263374,0.021981,0,0.000000,0.000000,0.000000,0,1,4.949434,-0.540708,-6.239170,-5.036033,-1.513805,-1.578351,-0.095489,0.000339,0.225006,-0.005960,16.223792
14:37:57.137,10.900,218,-0.466707,9.979397,-5.019346,1,0.000000,0.000000,3.212127,0.010825,0.204183,-0.024562,0,0.000000,0.000000,0.000000,0,1,4.847647,-0.613173,-6.313398,-5.040850,-1.512730,-1.588581,-0.095863,0.000386,0.224911,-0.006044,16.293467
14:37:57.188,10.950,219,-0.541489,9.974304,-5.021957,1,0.000000,0.000000,3.194124,0.017354,0.226234,0.080961,0,0.000000,0.000000,0.000000,0,1,5.026627,-0.691284,-6.389560,-5.040026,-1.512748,-1.599337,-0.089629,0.000464,0.224917,-0.005644,16.364560
14:37:57.238,11.000,220,-0.616229,9.968650,-5.024567,1,0.000000,0.000000,3.207214,0.079456,0.203214,0.019273,0,0.000000,0.000000,0.000000,0,1,4.985772,-0.772452,-6.449616,-5.044473,-1.513940,-1.607458,-0.089815,0.000821,0.224819,-0.005533,16.419022
14:37:57.288,11.050,221,-0.690926,9.962436,-5.027175,1,0.000000,0.000000,3.188491,0.020966,0.216060,-0.074148,0,0.000000,0.000000,0.000000,0,1,5.026577,-0.848860,-6.524680,-5.049097,-1.513845,-1.617795,-0.090369,0.000912,0.224780,-0.005838,16.487887
14:37:57.338,11.100,222,-0.765574,9.955661,-5.029782,1,0.000000,0.000000,3.232369,0.028251,0.219552,0.005292,0,0.000000,0.000000,0.000000,0,1,5.011152,-0.927001,-6.599120,-5.041333,-1.513606,-1.628000,-0.076732,0.001034,0.224756,-0.005767,16.555573
14:37:57.388,11.150,223,-0.840168,9.948326,-5.032387,1,0.000000,0.000000,3.228821,0.041325,0.234563,-0.058930,0,0.000000,0.000000,0.000000,0,1,5.031005,-1.010215,-6.673196,-5.045263,-1.514289,-1.638316,-0.077221,0.001214,0.224800,-0.006000,16.622398
14:37:57.438,11.200,224,-0.914706,9.940432,-5.034990,1,0.000000,0.000000,3.257428,0.020798,0.198407,-0.030534,0,0.000000,0.000000,0.000000,0,1,5.021666,-1.082684,-6.747492,-5.049176,-1.512907,-1.648040,-0.077619,0.001301,0.224683,-0.006108,16.688775
14:37:57.488,11.250,225,-0.989183,9.931979,-5.037591,1,0.000000,0.000000,3.260390,0.019755,0.194860,-0.064629,0,0.000000,0.000000,0.000000,0,1,5.033318,-1.154175,-6.822021,-5.047441,-1.511364,-1.657677,-0.071673,0.001383,0.224551,-0.006353,16.754815
14:37:57.538,11.300,226,-1.063594,9.922966,-5.040189,1,0.000000,0.000000,3.247321,0.013784,0.204295,0.025085,0,0.000000,0.000000,0.000000,0,1,5.008285,-1.226900,-6.899650,-5.050983,-1.510060,-1.667818,-0.071873,0.001438,0.224462,-0.006216,16.823412
14:37:57.588,11.350,227,-1.137935,9.913396,-5.042785,1,0.000000,0.000000,3.266703,-0.009144,0.209822,0.007480,0,0.000000,0.000000,0.000000,0,1,5.047110,-1.297643,-6.983663,-5.054560,-1.507953,-1.678789,-0.072130,0.001391,0.224397,-0.006157,16.897818
14:37:57.638,11.400,228,-1.212203,9.903268,-5.045379,1,0.000000,0.000000,3.251236,0.000386,0.233415,0.020371,0,0.000000,0.000000,0.000000,0,1,5.014037,-1.374889,-7.069359,-5.045382,-1.507024,-1.690276,-0.057912,0.001387,0.224437,-0.006021,16.973407
14:37:57.688,11.450,229,-1.286392,9.892583,-5.047970,1,0.000000,0.000000,3.317867,-0.033996,0.217086,-0.040470,0,0.000000,0.000000,0.000000,0,1,5.039984,-1.443592,-7.161054,-5.048340,-1.503739,-1.702117,-0.058340,0.001233,0.224405,-0.006168,17.054361
14:37:57.738,11.500,230,-1.360500,9.881342,-5.050557,1,0.000000,0.000000,3.263130,-0.018669,0.261086,-0.048901,0,0.000000,0.000000,0.000000,0,1,4.995321,-1.524181,-7.256083,-5.051339,-1.502836,-1.715053,-0.058814,0.001147,0.224564,-0.006350,17.138206
14:37:57.788,11.550,231,-1.434521,9.869544,-5.053142,1,0.000000,0.000000,3.281506,-0.010399,0.236002,-0.008983,0,0.000000,0.000000,0.000000,0,1,5.061379,-1.600221,-7.346338,-5.056341,-1.501270,-1.726891,-0.061459,0.001097,0.224613,-0.006365,17.216680
14:37:57.838,11.600,232,-1.508451,9.857192,-5.055724,1,0.000000,0.000000,3.313661,-0.010264,0.267520,0.011650,0,0.000000,0.000000,0.000000,0,1,5.037236,-1.683291,-7.441664,-5.059394,-1.500245,-1.739720,-0.061712,0.001048,0.224797,-0.006289,17.299740
14:37:57.888,11.650,233,-1.582287,9.844285,-5.058302,1,0.000000,0.000000,3.296132,-0.039189,0.237245,0.035655,0,0.000000,0.000000,0.000000,0,1,5.131519,-1.755274,-7.539819,-5.062414,-1.497574,-1.752390,-0.061866,0.000876,0.224850,-0.006112,17.384965
14:37:57.939,11.700,234,-1.656024,9.830824,-5.060877,1,0.000000,0.000000,3.349691,-0.012042,0.255048,-0.015543,0,0.000000,0.000000,0.000000,0,1,5.124702,-1.835060,-7.635026,-5.082631,-1.495713,-1.764774,-0.081558,0.000821,0.224979,-0.006181,17.466781
14:37:57.989,11.750,235,-1.729658,9.816811,-5.063449,1,0.000000,0.000000,3.300672,0.020609,0.249616,-0.025429,0,0.000000,0.000000,0.000000,0,1,4.999699,-1.918288,-7.722655,-5.086747,-1.495325,-1.776159,-0.081936,0.000905,0.225083,-0.006261,17.540496
14:37:58.039,11.800,236,-1.803185,9.802245,-5.066016,1,0.000000,0.000000,3.329523,-0.003145,0.218778,0.054718,0,0.000000,0.000000,0.000000,0,1,5.009655,-1.990973,-7.811732,-5.090747,-1.492956,-1.787125,-0.082019,0.000888,0.225057,-0.006008,17.614995
14:37:58.089,11.850,237,-1.876601,9.787128,-5.068580,1,0.000000,0.000000,3.348984,-0.021671,0.209599,0.011842,0,0.000000,0.000000,0.000000,0,1,5.067428,-2.058694,-7.904209,-5.086905,-1.489494,-1.798250,-0.073291,0.000793,0.224992,-0.005921,17.692283
14:37:58.139,11.900,238,-1.949901,9.771460,-5.071140,1,0.000000,0.000000,3.340590,0.066888,0.251860,0.063987,0,0.000000,0.000000,0.000000,0,1,5.081907,-2.149126,-7.983328,-5.090471,-1.490279,-1.808372,-0.073339,0.001070,0.225104,-0.005633,17.755916
14:37:58.189,11.950,239,-2.023082,9.755242,-5.073695,1,0.000000,0.000000,3.361088,-0.003879,0.248933,-0.063552,0,0.000000,0.000000,0.000000,0,1,5.083381,-2.228284,-8.078740,-5.094243,-1.488366,-1.820310,-0.073837,0.001049,0.225203,-0.005870,17.835175
