timestamp,sim_time,iteration,true_pos_x,true_pos_y,true_pos_z,imu_valid,imu_roll,imu_pitch,imu_yaw,imu_acc_x,imu_acc_y,imu_acc_z,usbl_valid,usbl_pos_x,usbl_pos_y,usbl_pos_z,usbl_fix_used,depth_valid,depth_measurement,kf_pos_x,kf_pos_y,kf_pos_z,kf_vel_x,kf_vel_y,kf_vel_z,kf_acc_x,kf_acc_y,kf_acc_z,error_norm
16:30:04.304,0.000,0,10.168406,0.000000,-4.647959,1,0.000000,0.000000,1.540728,-0.019362,0.256242,-0.007726,0,0.000000,0.000000,0.000000,0,1,4.665745,10.168085,-0.000015,-4.665701,-0.012824,-0.000582,-0.001270,-0.019345,0.256012,-0.007719,0.017744
16:30:04.357,0.050,1,10.168125,0.074999,-4.647969,1,0.000000,0.000000,1.591888,0.005774,0.178534,0.042391,0,0.000000,0.000000,0.000000,0,1,4.691886,10.167319,-0.000015,-4.665680,-0.021725,-0.000581,0.000846,-0.006791,0.217290,0.017325,0.077081
16:30:04.411,0.100,2,10.167281,0.149994,-4.647998,1,0.000000,0.000000,1.582475,-0.038288,0.194883,-0.008850,0,0.000000,0.000000,0.000000,0,1,4.562236,10.166044,-0.000175,-4.665703,-0.031463,-0.002621,0.000405,-0.017287,0.209823,0.008602,0.151214
16:30:04.466,0.150,3,10.165876,0.224981,-4.648048,1,0.000000,0.000000,1.589052,0.012080,0.241598,-0.006337,0,0.000000,0.000000,0.000000,0,1,4.635408,10.164051,-0.000185,-4.638168,-0.043533,-0.002217,0.165441,-0.009947,0.217765,0.004873,0.225390
16:30:04.522,0.200,4,10.163909,0.299955,-4.648116,1,0.000000,0.000000,1.585703,0.021214,0.239485,0.015810,0,0.000000,0.000000,0.000000,0,1,4.602728,10.161467,-0.000118,-4.629872,-0.055509,-0.001327,0.166008,-0.003716,0.222108,0.007060,0.300637
16:30:04.575,0.250,5,10.161380,0.374912,-4.648205,1,0.000000,0.000000,1.602710,0.024298,0.241910,0.032708,0,0.000000,0.000000,0.000000,0,1,4.691352,10.158265,0.000012,-4.621493,-0.067608,-0.000478,0.167206,0.000953,0.225408,0.011334,0.375863
16:30:04.628,0.300,6,10.158289,0.449848,-4.648312,1,0.000000,0.000000,1.630072,0.008940,0.290270,0.026185,0,0.000000,0.000000,0.000000,0,1,4.624530,10.154035,0.000039,-4.622315,-0.082110,-0.000758,0.132083,0.002093,0.234673,0.013452,0.450580
16:30:04.681,0.350,7,10.154636,0.524759,-4.648440,1,0.000000,0.000000,1.641034,-0.037286,0.248098,-0.035909,0,0.000000,0.000000,0.000000,0,1,4.639174,10.149507,-0.000412,-4.615785,-0.094445,-0.003461,0.131456,-0.002828,0.236351,0.007283,0.526210
16:30:04.736,0.400,8,10.150422,0.599640,-4.648587,1,0.000000,0.000000,1.610956,-0.000701,0.189680,-0.074175,0,0.000000,0.000000,0.000000,0,1,4.522392,10.145014,-0.000569,-4.609442,-0.103918,-0.003909,0.129462,-0.002592,0.231166,-0.001767,0.601509
16:30:04.787,0.450,9,10.145647,0.674488,-4.648754,1,0.000000,0.000000,1.637603,0.033693,0.234539,-0.018364,0,0.000000,0.000000,0.000000,0,1,4.600724,10.139480,-0.000335,-4.601440,-0.115666,-0.003002,0.133397,0.001036,0.231503,-0.003426,0.676507
16:30:04.838,0.500,10,10.140311,0.749297,-4.648940,1,0.000000,0.000000,1.635781,0.030342,0.238794,-0.032680,0,0.000000,0.000000,0.000000,0,1,4.690766,10.133301,-0.000101,-4.594842,-0.127633,-0.002251,0.132479,0.003700,0.232166,-0.006085,0.751381
16:30:04.889,0.550,11,10.134415,0.824064,-4.649146,1,0.000000,0.000000,1.633627,-0.040205,0.207107,-0.013944,0,0.000000,0.000000,0.000000,0,1,4.611331,10.127019,-0.000878,-4.588253,-0.137899,-0.004943,0.131958,0.000042,0.230078,-0.006740,0.827220
16:30:04.942,0.600,12,10.127958,0.898785,-4.649372,1,0.000000,0.000000,1.657299,-0.005230,0.240280,0.022571,0,0.000000,0.000000,0.000000,0,1,4.648224,10.119674,-0.001239,-4.621319,-0.149859,-0.006218,0.043726,-0.000364,0.230862,-0.004529,0.900500
16:30:04.997,0.650,13,10.120941,0.973456,-4.649617,1,0.000000,0.000000,1.672152,0.008025,0.243735,-0.033038,0,0.000000,0.000000,0.000000,0,1,4.667999,10.111665,-0.001439,-4.619220,-0.162003,-0.007014,0.042781,0.000235,0.231782,-0.006565,0.975413
16:30:05.052,0.700,14,10.113365,1.048072,-4.649881,1,0.000000,0.000000,1.669254,-0.025319,0.241411,-0.010851,0,0.000000,0.000000,0.000000,0,1,4.619143,10.103110,-0.002302,-4.617106,-0.173956,-0.009440,0.042338,-0.001468,0.232424,-0.006851,1.050935
16:30:05.105,0.750,15,10.105230,1.122628,-4.650165,1,0.000000,0.000000,1.666295,0.012235,0.258553,-0.048074,0,0.000000,0.000000,0.000000,0,1,4.615119,10.093592,-0.002546,-4.615160,-0.186856,-0.010004,0.040911,-0.000612,0.234057,-0.009427,1.125779
16:30:05.157,0.800,16,10.096536,1.197122,-4.650469,1,0.000000,0.000000,1.729644,0.034682,0.201385,-0.023067,0,0.000000,0.000000,0.000000,0,1,4.691652,10.084629,-0.002320,-4.613173,-0.196878,-0.010032,0.040098,0.001464,0.232135,-0.010229,1.200081
16:30:05.211,0.850,17,10.087284,1.271548,-4.650792,1,0.000000,0.000000,1.693239,0.020648,0.211461,0.005464,0,0.000000,0.000000,0.000000,0,1,4.629917,10.074945,-0.002408,-4.611110,-0.207435,-0.010357,0.040001,0.002530,0.230986,-0.009357,1.274633
16:30:05.262,0.900,18,10.077474,1.345903,-4.651135,1,0.000000,0.000000,1.696123,-0.027955,0.239070,-0.011427,0,0.000000,0.000000,0.000000,0,1,4.685650,10.064123,-0.003689,-4.644907,-0.219214,-0.013221,-0.017450,0.000926,0.231412,-0.009548,1.349672
16:30:05.315,0.950,19,10.067108,1.420182,-4.651497,1,0.000000,0.000000,1.697403,-0.016980,0.213299,-0.000746,0,0.000000,0.000000,0.000000,0,1,4.708689,10.053346,-0.004813,-4.645756,-0.229735,-0.015467,-0.017709,0.000030,0.230506,-0.009108,1.425073
16:30:05.370,1.000,20,10.056185,1.494381,-4.651878,1,0.000000,0.000000,1.678584,0.019764,0.273804,0.025837,0,0.000000,0.000000,0.000000,0,1,4.682401,10.040416,-0.005151,-4.646477,-0.243419,-0.015872,-0.017255,0.000970,0.232568,-0.007444,1.499625
16:30:05.434,1.050,21,10.044706,1.568496,-4.652279,1,0.000000,0.000000,1.728811,0.022804,0.168888,0.071284,0,0.000000,0.000000,0.000000,0,1,4.710761,10.029677,-0.005308,-4.673925,-0.251819,-0.016334,-0.053816,0.001962,0.229674,-0.003948,1.574025
16:30:05.494,1.100,22,10.032672,1.642523,-4.652699,1,0.000000,0.000000,1.741945,-0.010034,0.216988,-0.036591,0,0.000000,0.000000,0.000000,0,1,4.703556,10.017184,-0.006497,-4.676769,-0.262474,-0.018741,-0.054817,0.001441,0.229122,-0.005366,1.649269
16:30:06.243,1.150,23,10.020083,1.716458,-4.653139,1,0.000000,0.000000,1.710589,-0.002727,0.181092,0.013842,0,0.000000,0.000000,0.000000,0,1,4.605541,10.005220,-0.007523,-4.679409,-0.271421,-0.020281,-0.054592,0.001267,0.227121,-0.004566,1.724245
16:30:06.299,1.200,24,10.006941,1.790296,-4.653598,1,0.000000,0.000000,1.735976,-0.041687,0.210040,0.026125,0,0.000000,0.000000,0.000000,0,1,4.598112,9.991973,-0.009892,-4.649332,-0.281604,-0.024152,-0.011723,-0.000451,0.226438,-0.003216,1.800255
16:30:06.352,1.250,25,9.993246,1.864033,-4.654076,1,0.000000,0.000000,1.732967,0.014702,0.232822,0.022033,0,0.000000,0.000000,0.000000,0,1,4.611969,9.977379,-0.010667,-4.649794,-0.293157,-0.025276,-0.011270,0.000132,0.226683,-0.002246,1.874772
16:30:06.407,1.300,26,9.978998,1.937665,-4.654573,1,0.000000,0.000000,1.766115,0.000322,0.238601,-0.048169,0,0.000000,0.000000,0.000000,0,1,4.639949,9.962042,-0.012002,-4.650641,-0.304870,-0.027514,-0.012542,0.000139,0.227125,-0.003946,1.949745
16:30:06.464,1.350,27,9.964199,2.011189,-4.655090,1,0.000000,0.000000,1.768716,-0.008517,0.223634,-0.028925,0,0.000000,0.000000,0.000000,0,1,4.607813,9.946660,-0.013728,-4.635651,-0.315792,-0.030154,0.005827,-0.000170,0.227000,-0.004766,2.025086
16:30:06.522,1.400,28,9.948849,2.084599,-4.655626,1,0.000000,0.000000,1.794016,-0.010190,0.216884,-0.023260,0,0.000000,0.000000,0.000000,0,1,4.704771,9.930983,-0.015638,-4.635469,-0.326306,-0.033122,0.005146,-0.000516,0.226651,-0.005403,2.100409
16:30:06.607,1.450,29,9.932949,2.157892,-4.656181,1,0.000000,0.000000,1.777548,0.022868,0.247509,-0.032651,0,0.000000,0.000000,0.000000,0,1,4.626416,9.913553,-0.016530,-4.635397,-0.338547,-0.034420,0.004200,0.000264,0.227346,-0.006311,2.174608
16:30:06.661,1.500,30,9.916500,2.231064,-4.656756,1,0.000000,0.000000,1.777308,-0.022893,0.253562,0.005843,0,0.000000,0.000000,0.000000,0,1,4.633971,9.895397,-0.019272,-4.634716,-0.350854,-0.038025,0.004646,-0.000483,0.228192,-0.005917,2.250543
16:30:06.712,1.550,31,9.899504,2.304110,-4.657349,1,0.000000,0.000000,1.809743,0.010471,0.260937,-0.023702,0,0.000000,0.000000,0.000000,0,1,4.651543,9.876242,-0.020898,-4.634598,-0.363617,-0.040385,0.003933,-0.000141,0.229215,-0.006472,2.325235
16:30:06.766,1.600,32,9.881960,2.377026,-4.657962,1,0.000000,0.000000,1.793903,0.050065,0.228513,0.011207,0,0.000000,0.000000,0.000000,0,1,4.669197,9.857659,-0.020917,-4.634286,-0.375041,-0.040436,0.004038,0.001380,0.229194,-0.005937,2.398183
16:30:06.819,1.650,33,9.863870,2.449809,-4.658594,1,0.000000,0.000000,1.813289,-0.006573,0.221279,-0.002337,0,0.000000,0.000000,0.000000,0,1,4.592039,9.838989,-0.023317,-4.620387,-0.385743,-0.043468,0.019357,0.001146,0.228961,-0.005750,2.473546
16:30:06.873,1.700,34,9.845236,2.522454,-4.659245,1,0.000000,0.000000,1.844188,-0.003050,0.270311,0.008405,0,0.000000,0.000000,0.000000,0,1,4.639719,9.817640,-0.025890,-4.619337,-0.398802,-0.046962,0.019393,0.001027,0.230143,-0.005346,2.548806
16:30:06.928,1.750,35,9.826057,2.594957,-4.659914,1,0.000000,0.000000,1.820487,0.010475,0.224095,0.009156,0,0.000000,0.000000,0.000000,0,1,4.605018,9.797658,-0.027863,-4.618268,-0.409725,-0.049250,0.019468,0.001289,0.229975,-0.004944,2.623304
16:30:06.983,1.800,36,9.806335,2.667314,-4.660603,1,0.000000,0.000000,1.848855,-0.028403,0.241026,0.020841,0,0.000000,0.000000,0.000000,0,1,4.634549,9.776500,-0.031810,-4.622564,-0.421155,-0.053883,0.013712,0.000486,0.230273,-0.004283,2.699558
16:30:07.038,1.850,37,9.786072,2.739521,-4.661311,1,0.000000,0.000000,1.828675,-0.016681,0.241133,0.023529,0,0.000000,0.000000,0.000000,0,1,4.680933,9.754721,-0.035432,-4.621699,-0.432717,-0.057715,0.014114,0.000035,0.230559,-0.003553,2.775413
16:30:07.091,1.900,38,9.765268,2.811575,-4.662037,1,0.000000,0.000000,1.857822,0.035569,0.254981,0.051941,0,0.000000,0.000000,0.000000,0,1,4.677364,9.731473,-0.036782,-4.620579,-0.445221,-0.059389,0.015206,0.000946,0.231185,-0.002133,2.848859
16:30:07.145,1.950,39,9.743925,2.883469,-4.662782,1,0.000000,0.000000,1.851268,0.003945,0.219976,0.000037,0,0.000000,0.000000,0.000000,0,1,4.635332,9.709477,-0.039631,-4.624541,-0.455809,-0.062318,0.009866,0.001021,0.230905,-0.002112,2.923554
16:30:07.196,2.000,40,9.722043,2.955202,-4.663547,1,0.000000,0.000000,1.872188,-0.013589,0.224105,-0.011242,0,0.000000,0.000000,0.000000,0,1,4.620961,9.686826,-0.043543,-4.624113,-0.466410,-0.066368,0.009565,0.000664,0.230739,-0.002334,2.999211
16:30:07.248,2.050,41,9.699624,3.026769,-4.664329,1,0.000000,0.000000,1.866375,-0.070514,0.214673,-0.047628,0,0.000000,0.000000,0.000000,0,1,4.652530,9.664422,-0.050574,-4.623987,-0.476143,-0.073084,0.008451,-0.001030,0.230357,-0.003410,3.077808
16:30:07.301,2.100,42,9.676669,3.098165,-4.665131,1,0.000000,0.000000,1.857901,0.013840,0.211373,0.006299,0,0.000000,0.000000,0.000000,0,1,4.571694,9.641274,-0.053418,-4.607988,-0.486352,-0.075521,0.025790,-0.000684,0.229915,-0.003072,3.152299
16:30:07.356,2.150,43,9.653180,3.169387,-4.665951,1,0.000000,0.000000,1.911330,0.013999,0.245921,-0.002376,1,9.685697,3.398954,-4.770331,1,1,4.670231,9.685433,3.385710,-4.612569,-0.471249,1.219260,0.019039,-0.000655,0.229912,-0.003116,0.225134
16:30:07.411,2.200,44,9.629158,3.240430,-4.666790,1,0.000000,0.000000,1.902398,0.014525,0.233845,0.001984,1,9.685697,3.398954,-4.770331,0,1,4.618397,9.661587,3.446602,-4.611582,-0.482316,1.215915,0.018992,-0.000310,0.230001,-0.003001,0.215886
16:30:07.462,2.250,45,9.604604,3.311292,-4.667648,1,0.000000,0.000000,1.908435,-0.021790,0.235112,-0.008991,1,9.685697,3.398954,-4.770331,0,1,4.746849,9.637197,3.507233,-4.649877,-0.493182,1.211411,-0.025306,-0.000787,0.230115,-0.003434,0.199427
16:30:07.515,2.300,46,9.579519,3.381967,-4.668524,1,0.000000,0.000000,1.922610,-0.029421,0.280782,-0.014860,1,9.685697,3.398954,-4.770331,0,1,4.771389,9.612065,3.567527,-4.651227,-0.505329,1.206208,-0.025705,-0.001410,0.231216,-0.003681,0.189185
16:30:07.570,2.350,47,9.553906,3.452452,-4.669418,1,0.000000,0.000000,1.930079,0.040394,0.235229,-0.037220,1,9.685697,3.398954,-4.770331,0,1,4.526059,9.586453,3.627978,-4.652779,-0.516531,1.203340,-0.026576,-0.000520,0.231301,-0.004392,0.179293
16:30:07.625,2.400,48,9.527764,3.522742,-4.670331,1,0.000000,0.000000,1.919379,-0.005746,0.162901,0.021438,1,9.685697,3.398954,-4.770331,0,1,4.703657,9.560868,3.688112,-4.668214,-0.525223,1.199676,-0.042441,-0.000629,0.229876,-0.003967,0.168664
16:30:07.679,2.450,49,9.501097,3.592835,-4.671262,1,0.000000,0.000000,1.978774,0.018914,0.248944,-0.006867,1,9.685697,3.398954,-4.770331,0,1,4.714731,9.534140,3.748117,-4.670361,-0.536501,1.195565,-0.042694,-0.000230,0.230265,-0.004026,0.158762
16:30:07.734,2.500,50,9.473905,3.662725,-4.672212,1,0.000000,0.000000,1.915386,-0.004457,0.234118,-0.033359,1,9.685697,3.398954,-4.770331,0,1,4.644213,9.507014,3.807747,-4.672729,-0.547425,1.191502,-0.043469,-0.000315,0.230343,-0.004610,0.148754
16:30:07.787,2.550,51,9.446190,3.732410,-4.673179,1,0.000000,0.000000,1.939569,0.009954,0.246071,-0.005677,1,9.685697,3.398954,-4.770331,0,1,4.724900,9.479167,3.867297,-4.689322,-0.558745,1.187546,-0.060063,-0.000113,0.230651,-0.004741,0.139795
16:30:07.842,2.600,52,9.417954,3.801884,-4.674166,1,0.000000,0.000000,1.946906,0.031603,0.267616,0.032652,1,9.685697,3.398954,-4.770331,0,1,4.634297,9.450394,3.926874,-4.692073,-0.570913,1.184043,-0.059629,0.000496,0.231362,-0.004026,0.130366
16:30:07.897,2.650,53,9.389197,3.871145,-4.675170,1,0.000000,0.000000,1.946379,-0.026575,0.230675,-0.060558,1,9.685697,3.398954,-4.770331,0,1,4.638740,9.421675,3.985586,-4.695493,-0.581445,1.178945,-0.060879,-0.000014,0.231349,-0.005087,0.120684
16:30:07.952,2.700,54,9.359923,3.940188,-4.676192,1,0.000000,0.000000,1.987866,0.020953,0.252264,0.022493,1,9.685697,3.398954,-4.770331,0,1,4.763337,9.391937,4.044670,-4.717080,-0.592881,1.174775,-0.081939,0.000374,0.231736,-0.004720,0.116676
16:30:08.006,2.750,55,9.330131,4.009009,-4.677232,1,0.000000,0.000000,1.989554,-0.025988,0.216463,-0.004255,1,9.685697,3.398954,-4.770331,0,1,4.695883,9.362390,4.102903,-4.721179,-0.602746,1.169337,-0.082167,-0.000105,0.231458,-0.004711,0.108573
16:30:08.056,2.800,56,9.299825,4.077605,-4.678291,1,0.000000,0.000000,1.997111,0.001632,0.240352,-0.031185,1,9.685697,3.398954,-4.770331,0,1,4.680559,9.331819,4.161244,-4.725491,-0.613592,1.164528,-0.082867,-0.000074,0.231617,-0.005181,0.101228
16:30:08.110,2.850,57,9.269005,4.145971,-4.679367,1,0.000000,0.000000,1.964627,0.026393,0.194930,0.051131,1,9.685697,3.398954,-4.770331,0,1,4.618571,9.301472,4.220048,-4.697208,-0.623288,1.161293,-0.045748,0.000390,0.230974,-0.003966,0.082824
16:30:08.165,2.900,58,9.237673,4.214104,-4.680461,1,0.000000,0.000000,1.990990,0.002381,0.203287,-0.016183,1,9.685697,3.398954,-4.770331,0,1,4.818801,9.270616,4.278174,-4.699580,-0.632924,1.156917,-0.046142,0.000424,0.230496,-0.004175,0.074537
16:30:08.223,2.950,59,9.205832,4.282000,-4.681573,1,0.000000,0.000000,2.015141,0.013123,0.273887,0.024076,1,9.685697,3.398954,-4.770331,0,1,4.818801,9.237673,4.335949,-4.701689,-0.644929,1.152012,-0.045883,0.000640,0.231232,-0.003700,0.065795
16:30:08.288,3.000,60,9.173483,4.349655,-4.682703,1,0.000000,0.000000,1.994116,-0.038909,0.212435,0.038691,1,9.685697,3.398954,-4.770331,0,1,4.700728,9.205832,4.392604,-4.702805,-0.654468,1.146119,-0.044380,-0.000020,0.230918,-0.002992,0.057403
16:30:08.349,3.050,61,9.140628,4.417066,-4.683850,1,0.000000,0.000000,2.020343,-0.029845,0.206585,-0.057549,1,9.685697,3.398954,-4.770331,0,1,4.692458,9.173637,4.449188,-4.705371,-0.663743,1.140312,-0.045353,-0.000509,0.230520,-0.003880,0.050839
16:30:08.481,3.100,62,9.107268,4.484228,-4.685015,1,0.000000,0.000000,2.002498,-0.007739,0.230511,0.016606,1,9.685697,3.398954,-4.770331,0,1,4.662678,9.140235,4.505892,-4.707501,-0.674130,1.135216,-0.045226,-0.000625,0.230519,-0.003552,0.045407
16:30:08.533,3.150,63,9.073406,4.551138,-4.686197,1,0.000000,0.000000,2.032656,-0.032966,0.245690,0.011171,1,9.685697,3.398954,-4.770331,0,1,4.619380,9.106074,4.561529,-4.683519,-0.684635,1.128779,-0.015466,-0.001138,0.230760,-0.003143,0.034386
16:30:08.585,3.200,64,9.039043,4.617792,-4.687397,1,0.000000,0.000000,2.015497,0.009539,0.234882,0.004744,1,9.685697,3.398954,-4.770331,0,1,4.590938,9.071387,4.618121,-4.684248,-0.695279,1.124094,-0.015511,-0.000972,0.230825,-0.003021,0.032498
16:30:08.637,3.250,65,9.004182,4.684186,-4.688615,1,0.000000,0.000000,2.053913,0.006621,0.162738,-0.025341,1,9.685697,3.398954,-4.770331,0,1,4.629995,9.038362,4.674940,-4.685176,-0.703175,1.119664,-0.015992,-0.000855,0.229777,-0.003362,0.035575
16:30:08.690,3.300,66,8.968824,4.750317,-4.689849,1,0.000000,0.000000,2.078221,-0.006742,0.214704,0.008802,1,9.685697,3.398954,-4.770331,0,1,4.652268,9.003473,4.730719,-4.676154,-0.712604,1.113997,-0.004917,-0.000944,0.229549,-0.003116,0.042098
16:30:08.745,3.350,67,8.932971,4.816180,-4.691101,1,0.000000,0.000000,2.078936,0.035437,0.188446,-0.012473,1,9.685697,3.398954,-4.770331,0,1,4.707960,8.968629,4.787815,-4.676458,-0.721553,1.110098,-0.005198,-0.000401,0.228935,-0.003255,0.047859
16:30:08.799,3.400,68,8.896626,4.881772,-4.692371,1,0.000000,0.000000,2.069283,-0.011483,0.208016,-0.041953,1,9.685697,3.398954,-4.770331,0,1,4.628409,8.933109,4.842992,-4.676968,-0.730736,1.104447,-0.005903,-0.000564,0.228628,-0.003819,0.055428
16:30:08.852,3.450,69,8.859790,4.947090,-4.693657,1,0.000000,0.000000,2.097328,0.045930,0.251120,0.008362,1,9.685697,3.398954,-4.770331,0,1,4.597335,8.895101,4.899499,-4.654058,-0.741924,1.100075,0.020325,0.000110,0.228954,-0.003501,0.071274
16:30:08.903,3.500,70,8.822466,5.012130,-4.694960,1,0.000000,0.000000,2.107887,-0.017846,0.180928,-0.036471,1,9.685697,3.398954,-4.770331,0,1,4.711480,8.859686,4.954168,-4.653228,-0.749849,1.094132,0.019729,-0.000147,0.228268,-0.003968,0.080539
16:30:08.956,3.550,71,8.784655,5.076888,-4.696281,1,0.000000,0.000000,2.085989,0.009461,0.243150,-0.039796,1,9.685697,3.398954,-4.770331,0,1,4.760427,8.821286,5.008945,-4.652464,-0.760420,1.088672,0.019055,-0.000011,0.228477,-0.004468,0.088758
16:30:09.030,3.600,72,8.746359,5.141360,-4.697618,1,0.000000,0.000000,2.129764,-0.028914,0.247240,-0.008665,1,9.685697,3.398954,-4.770331,0,1,4.657284,8.782598,5.061902,-4.653207,-0.770435,1.081358,0.016889,-0.000413,0.228738,-0.004536,0.097976
16:30:09.086,3.650,73,8.707582,5.205543,-4.698972,1,0.000000,0.000000,2.116677,0.014801,0.200568,-0.021460,1,9.685697,3.398954,-4.770331,0,1,4.727299,8.744797,5.116744,-4.652457,-0.779371,1.076287,0.016457,-0.000204,0.228352,-0.004766,0.106929
16:30:09.142,3.700,74,8.668325,5.269433,-4.700343,1,0.000000,0.000000,2.128069,-0.013985,0.219576,0.020082,1,9.685697,3.398954,-4.770331,0,1,4.664900,8.706109,5.169936,-4.651496,-0.788572,1.069851,0.016532,-0.000391,0.228233,-0.004433,0.117104
16:30:09.197,3.750,75,8.628589,5.333027,-4.701731,1,0.000000,0.000000,2.106359,0.010932,0.247572,-0.018839,1,9.685697,3.398954,-4.770331,0,1,4.707347,8.665474,5.223535,-4.667148,-0.799213,1.064179,-0.002450,-0.000240,0.228491,-0.004715,0.120602
16:30:09.250,3.800,76,8.588379,5.396320,-4.703135,1,0.000000,0.000000,2.109963,-0.045908,0.279200,0.005425,1,9.685697,3.398954,-4.770331,0,1,4.661851,8.623607,5.273960,-4.667225,-0.810271,1.056015,-0.002569,-0.000841,0.229158,-0.004583,0.132297
16:30:09.310,3.850,77,8.547695,5.459311,-4.704556,1,0.000000,0.000000,2.135782,0.071474,0.233823,0.010812,1,9.685697,3.398954,-4.770331,0,1,4.728779,8.581709,5.329814,-4.667274,-0.821016,1.052406,-0.002612,0.000099,0.229219,-0.004385,0.138983
16:30:09.365,3.900,78,8.506540,5.521994,-4.705993,1,0.000000,0.000000,2.154613,-0.001732,0.213557,-0.067072,1,8.643560,5.553545,-4.483868,1,1,4.758616,8.639817,5.547330,-4.687269,-0.777103,1.134900,-0.025339,0.000108,0.229209,-0.004493,0.136950
16:30:09.419,3.950,79,8.464916,5.584366,-4.707446,1,0.000000,0.000000,2.179215,-0.052278,0.178782,0.038485,1,8.643560,5.553545,-4.483868,0,1,4.744008,8.600885,5.603830,-4.688339,-0.785532,1.128007,-0.025091,-0.000563,0.228562,-0.003948,0.138678
16:30:09.472,4.000,80,8.422826,5.646425,-4.708916,1,0.000000,0.000000,2.225787,-0.030546,0.197695,0.000996,1,8.643560,5.553545,-4.483868,0,1,4.723087,8.561505,5.660003,-4.689573,-0.793973,1.120836,-0.025232,-0.000943,0.228172,-0.003886,0.140679
16:30:09.525,4.050,81,8.380272,5.708166,-4.710402,1,0.000000,0.000000,2.170437,-0.001175,0.259490,-0.091894,1,8.643560,5.553545,-4.483868,0,1,4.747017,8.521461,5.715837,-4.707106,-0.803785,1.114138,-0.044420,-0.000945,0.228563,-0.005058,0.141436
16:30:09.578,4.100,82,8.337256,5.769585,-4.711904,1,0.000000,0.000000,2.145957,0.020706,0.207422,-0.031228,1,8.643560,5.553545,-4.483868,0,1,4.683411,8.481083,5.771515,-4.709454,-0.813213,1.108333,-0.044950,-0.000678,0.228302,-0.005377,0.143860
16:30:09.632,4.150,83,8.293782,5.830680,-4.713422,1,0.000000,0.000000,2.164475,-0.019521,0.198096,-0.011855,1,8.643560,5.553545,-4.483868,0,1,4.588026,8.440372,5.826744,-4.711741,-0.822088,1.101877,-0.045291,-0.000908,0.227934,-0.005456,0.146653
16:30:09.690,4.200,84,8.249850,5.891448,-4.714957,1,0.000000,0.000000,2.193122,0.022423,0.219443,-0.012065,1,8.643560,5.553545,-4.483868,0,1,4.709685,8.399026,5.881820,-4.712804,-0.831378,1.095600,-0.044221,-0.000627,0.227831,-0.005528,0.149501
16:30:09.740,4.250,85,8.205465,5.951883,-4.716507,1,0.000000,0.000000,2.196533,0.033123,0.280521,0.027327,1,8.643560,5.553545,-4.483868,0,1,4.744413,8.356808,5.936491,-4.714876,-0.841641,1.088982,-0.044162,-0.000225,0.228459,-0.005141,0.152132
16:30:09.795,4.300,86,8.160627,6.011984,-4.718072,1,0.000000,0.000000,2.198684,-0.008791,0.239266,0.020616,1,8.643560,5.553545,-4.483868,0,1,4.698879,8.314448,5.990679,-4.716965,-0.850971,1.082044,-0.044144,-0.000326,0.228586,-0.004841,0.155294
16:30:09.847,4.350,87,8.115341,6.071747,-4.719654,1,0.000000,0.000000,2.211873,-0.009658,0.218286,0.019793,1,8.643560,5.553545,-4.483868,0,1,4.721041,8.271782,6.044577,-4.719618,-0.859884,1.075140,-0.044764,-0.000435,0.228466,-0.004561,0.158783
16:30:09.906,4.400,88,8.069607,6.131169,-4.721251,1,0.000000,0.000000,2.267391,-0.033778,0.236127,-0.000316,1,8.643560,5.553545,-4.483868,0,1,4.605283,8.228638,6.097848,-4.721844,-0.868460,1.067205,-0.044951,-0.000818,0.228554,-0.004513,0.162485
16:30:09.961,4.450,89,8.023430,6.190245,-4.722863,1,0.000000,0.000000,2.220178,0.059356,0.227425,-0.005811,1,8.643560,5.553545,-4.483868,0,1,4.683946,8.184736,6.151573,-4.724103,-0.878060,1.061230,-0.045190,-0.000134,0.228541,-0.004527,0.165882
16:30:10.012,4.500,90,7.976811,6.248973,-4.724491,1,0.000000,0.000000,2.229141,0.015003,0.199912,-0.032698,1,8.643560,5.553545,-4.483868,0,1,4.726711,8.140809,6.204740,-4.726571,-0.886771,1.054743,-0.045782,0.000036,0.228220,-0.004841,0.169871
16:30:10.064,4.550,91,7.929753,6.307350,-4.726135,1,0.000000,0.000000,2.221271,-0.014902,0.171200,0.035237,1,8.643560,5.553545,-4.483868,0,1,4.683411,8.096906,6.257446,-4.728701,-0.894775,1.048128,-0.045645,-0.000130,0.227586,-0.004400,0.174462
16:30:10.115,4.600,92,7.882259,6.365372,-4.727793,1,0.000000,0.000000,2.238349,0.031296,0.173631,0.024719,1,8.643560,5.553545,-4.483868,0,1,4.683963,8.052361,6.310322,-4.730856,-0.903111,1.042126,-0.045577,0.000215,0.226993,-0.004084,0.178814
16:30:10.168,4.650,93,7.834332,6.423036,-4.729467,1,0.000000,0.000000,2.294492,0.007746,0.236874,0.005825,1,8.643560,5.553545,-4.483868,0,1,4.730428,8.006832,6.362270,-4.732322,-0.911866,1.034648,-0.044805,0.000297,0.227101,-0.003974,0.182912
16:30:10.219,4.700,94,7.785973,6.480338,-4.731156,1,0.000000,0.000000,2.288935,-0.011876,0.273093,0.006734,1,8.643560,5.553545,-4.483868,0,1,4.701407,7.960532,6.413368,-4.734525,-0.921090,1.026510,-0.044906,0.000166,0.227595,-0.003860,0.186995
16:30:10.274,4.750,95,7.737187,6.537276,-4.732859,1,0.000000,0.000000,2.235117,-0.034285,0.288981,-0.066199,1,8.643560,5.553545,-4.483868,0,1,4.731690,7.913684,6.463642,-4.737049,-0.930763,1.018263,-0.045695,-0.000200,0.228248,-0.004516,0.191287
16:30:10.330,4.800,96,7.687975,6.593847,-4.734578,1,0.000000,0.000000,2.269874,-0.073016,0.194641,0.002612,1,8.643560,5.553545,-4.483868,0,1,4.832133,7.867929,6.513608,-4.766122,-0.938125,1.009988,-0.076292,-0.000966,0.227894,-0.004556,0.199541
16:30:10.383,4.850,97,7.638340,6.650046,-4.736311,1,0.000000,0.000000,2.298473,0.023275,0.247900,-0.018774,1,8.643560,5.553545,-4.483868,0,1,4.701201,7.820329,6.564115,-4.769997,-0.947222,1.002586,-0.076645,-0.000714,0.228103,-0.004703,0.204056
16:30:10.438,4.900,98,7.588286,6.705872,-4.738059,1,0.000000,0.000000,2.317258,0.002393,0.237089,-0.058311,1,8.643560,5.553545,-4.483868,0,1,4.701008,7.772596,6.614023,-4.774062,-0.955766,0.994771,-0.077376,-0.000682,0.228195,-0.005249,0.209051
16:30:10.491,4.950,99,7.537815,6.761320,-4.739821,1,0.000000,0.000000,2.298301,-0.000377,0.204964,0.025030,1,8.643560,5.553545,-4.483868,0,1,4.709911,7.724966,6.663780,-4.758172,-0.963845,0.987427,-0.055092,-0.000679,0.227958,-0.004862,0.211841
16:30:10.545,5.000,100,7.486929,6.816388,-4.741598,1,0.000000,0.000000,2.277903,0.021457,0.231990,0.013528,1,8.643560,5.553545,-4.483868,0,1,4.762377,7.676286,6.713301,-4.760864,-0.972819,0.980358,-0.055178,-0.000455,0.227999,-0.004679,0.216458
16:30:10.596,5.050,101,7.435632,6.871072,-4.743390,1,0.000000,0.000000,2.320433,0.029662,0.211397,0.014009,1,8.643560,5.553545,-4.483868,0,1,4.769900,7.627436,6.762815,-4.763552,-0.981194,0.973329,-0.055244,-0.000154,0.227833,-0.004494,0.221167
16:30:10.651,5.100,102,7.383927,6.925370,-4.745195,1,0.000000,0.000000,2.334413,-0.040936,0.181455,0.001199,1,8.643560,5.553545,-4.483868,0,1,4.734277,7.579438,6.811010,-4.757036,-0.988058,0.965238,-0.044924,-0.000558,0.227374,-0.004402,0.226811
16:30:10.701,5.150,103,7.331816,6.979278,-4.747015,1,0.000000,0.000000,2.328600,-0.000181,0.192526,0.048745,1,8.643560,5.553545,-4.483868,0,1,4.795402,7.530491,6.859457,-4.759098,-0.995641,0.957837,-0.044704,-0.000554,0.227032,-0.003887,0.232325
16:30:10.756,5.200,104,7.279302,7.032794,-4.748849,1,0.000000,0.000000,2.339413,0.018061,0.244237,-0.054953,1,8.643560,5.553545,-4.483868,0,1,4.762626,7.479954,6.907328,-4.761540,-1.004343,0.950067,-0.045342,-0.000374,0.227199,-0.004377,0.236990
16:30:10.807,5.250,105,7.226389,7.085914,-4.750697,1,0.000000,0.000000,2.352912,0.040287,0.202418,-0.009279,1,8.643560,5.553545,-4.483868,0,1,4.722620,7.429570,6.955760,-4.751916,-1.012427,0.943144,-0.032106,0.000017,0.226961,-0.004377,0.241297
16:30:10.861,5.300,106,7.173079,7.138636,-4.752558,1,0.000000,0.000000,2.362085,0.007574,0.235526,-0.004986,1,8.643560,5.553545,-4.483868,0,1,4.793552,7.378473,7.002772,-4.753529,-1.020668,0.935109,-0.032330,0.000089,0.227043,-0.004383,0.246265
16:30:10.914,5.350,107,7.119376,7.190956,-4.754434,1,0.000000,0.000000,2.370621,0.067460,0.215876,0.083178,1,8.643560,5.553545,-4.483868,0,1,4.795483,7.326627,7.050960,-4.754814,-1.029246,0.928433,-0.031810,0.000725,0.226937,-0.003567,0.250105
16:30:10.969,5.400,108,7.065282,7.242872,-4.756323,1,0.000000,0.000000,2.357748,0.008038,0.182474,-0.012812,1,8.643560,5.553545,-4.483868,0,1,4.852362,7.275886,7.097942,-4.784183,-1.036505,0.921159,-0.063475,0.000793,0.226522,-0.003756,0.257167
16:30:11.020,5.450,109,7.010800,7.294380,-4.758225,1,0.000000,0.000000,2.369221,0.000971,0.256740,-0.020648,1,8.643560,5.553545,-4.483868,0,1,4.795060,7.223144,7.143382,-4.787418,-1.045038,0.912669,-0.063795,0.000795,0.226802,-0.003911,0.262188
16:30:11.075,5.500,110,6.955934,7.345478,-4.760141,1,0.000000,0.000000,2.378694,-0.010737,0.168325,-0.045363,1,8.643560,5.553545,-4.483868,0,1,4.753074,7.172293,7.189373,-4.790768,-1.051577,0.905072,-0.064331,0.000689,0.226265,-0.004286,0.268548
16:30:11.129,5.550,111,6.900686,7.396163,-4.762070,1,0.000000,0.000000,2.416501,-0.001274,0.244458,0.024061,1,8.643560,5.553545,-4.483868,0,1,4.744850,7.119096,7.234093,-4.779699,-1.059444,0.896334,-0.048254,0.000671,0.226431,-0.003980,0.272544
16:30:11.181,5.600,112,6.845060,7.446431,-4.764013,1,0.000000,0.000000,2.403138,-0.016806,0.189513,-0.002173,1,8.643560,5.553545,-4.483868,0,1,4.771514,7.067165,7.278821,-4.782110,-1.066097,0.888154,-0.048439,0.000514,0.226098,-0.003964,0.278839
16:30:11.236,5.650,113,6.789058,7.496281,-4.765969,1,0.000000,0.000000,2.456265,0.004707,0.222055,0.023698,1,8.643560,5.553545,-4.483868,0,1,4.767366,7.013721,7.323188,-4.784437,-1.073250,0.879561,-0.048416,0.000551,0.226062,-0.003720,0.284211
16:30:11.286,5.700,114,6.732685,7.545709,-4.767937,1,0.000000,0.000000,2.426508,-0.007221,0.260371,0.014169,1,8.643560,5.553545,-4.483868,0,1,4.758424,6.959057,7.366166,-4.778589,-1.081269,0.870386,-0.039168,0.000482,0.226366,-0.003535,0.289125
16:30:11.339,5.750,115,6.675943,7.594713,-4.769919,1,0.000000,0.000000,2.416292,0.005267,0.176197,0.033296,1,6.634292,7.567580,-5.022456,1,1,4.768511,6.677167,7.542521,-4.788956,-1.170054,0.909409,-0.048923,0.000541,0.226397,-0.003565,0.055569
16:30:11.394,5.800,116,6.618835,7.643289,-4.771913,1,0.000000,0.000000,2.437257,-0.027021,0.245933,-0.041302,1,6.634292,7.567580,-5.022456,0,1,4.775789,6.618469,7.587572,-4.791537,-1.177372,0.900267,-0.049392,0.000299,0.226568,-0.003892,0.059073
16:30:11.447,5.850,117,6.561364,7.691436,-4.773920,1,0.000000,0.000000,2.431452,-0.030091,0.277198,0.032659,1,6.634292,7.567580,-5.022456,0,1,4.809547,6.559241,7.632012,-4.798292,-1.185092,0.890793,-0.054313,0.000035,0.227008,-0.003593,0.064263
16:30:11.502,5.900,118,6.503535,7.739150,-4.775939,1,0.000000,0.000000,2.423136,0.001117,0.225106,0.029203,1,6.634292,7.567580,-5.022456,0,1,4.772205,6.499807,7.676352,-4.800912,-1.192551,0.882283,-0.054256,0.000045,0.226992,-0.003314,0.067683
16:30:11.554,5.950,119,6.445349,7.786428,-4.777971,1,0.000000,0.000000,2.478228,0.045254,0.181120,0.053442,1,6.634292,7.567580,-5.022456,0,1,4.839282,6.440107,7.720766,-4.803435,-1.199435,0.874409,-0.053991,0.000431,0.226600,-0.002835,0.070622
16:30:11.607,6.000,120,6.386810,7.833269,-4.780015,1,0.000000,0.000000,2.451523,0.021695,0.268163,0.021630,1,6.634292,7.567580,-5.022456,0,1,4.738526,6.379536,7.764211,-4.786849,-1.207435,0.865509,-0.032077,0.000611,0.226952,-0.002565,0.069775
16:30:11.659,6.050,121,6.327923,7.879669,-4.782072,1,0.000000,0.000000,2.477954,0.043504,0.213860,0.023567,1,6.634292,7.567580,-5.022456,0,1,4.841116,6.318851,7.807681,-4.788377,-1.214754,0.857297,-0.032020,0.000971,0.226842,-0.002348,0.072831
16:30:11.715,6.100,122,6.268689,7.925626,-4.784140,1,0.000000,0.000000,2.470828,0.020457,0.220903,-0.005470,1,6.634292,7.567580,-5.022456,0,1,4.781968,6.257867,7.850529,-4.789991,-1.221985,0.848768,-0.032160,0.001133,0.226793,-0.002374,0.076098
16:30:11.791,6.150,123,6.209112,7.971137,-4.786221,1,0.000000,0.000000,2.460272,0.043516,0.224870,0.001830,1,6.634292,7.567580,-5.022456,0,1,4.781968,6.196322,7.893150,-4.788835,-1.229636,0.840587,-0.029112,0.001483,0.226777,-0.002331,0.079072
16:30:11.847,6.200,124,6.149195,8.016199,-4.788313,1,0.000000,0.000000,2.482844,0.007468,0.231425,-0.026606,1,6.634292,7.567580,-5.022456,0,1,4.769542,6.134576,7.934981,-4.790365,-1.236769,0.831692,-0.029396,0.001532,0.226815,-0.002527,0.082549
16:30:12.005,6.250,125,6.088943,8.060811,-4.790417,1,0.000000,0.000000,2.528965,0.020417,0.230692,0.005911,1,6.634292,7.567580,-5.022456,0,1,4.834213,6.072386,7.976501,-4.791810,-1.243633,0.822669,-0.029461,0.001685,0.226846,-0.002459,0.085932
16:30:12.077,6.300,126,6.028358,8.104969,-4.792533,1,0.000000,0.000000,2.494685,-0.015760,0.248869,-0.033967,1,6.634292,7.567580,-5.022456,0,1,4.842091,6.009935,8.017035,-4.807392,-1.250627,0.813158,-0.045747,0.001545,0.227024,-0.002755,0.091064
16:30:12.130,6.350,127,5.967444,8.148672,-4.794660,1,0.000000,0.000000,2.528233,0.018944,0.187213,0.002864,1,6.634292,7.567580,-5.022456,0,1,4.783440,5.947546,8.058016,-4.809666,-1.256887,0.804661,-0.045847,0.001684,0.226706,-0.002711,0.094019
16:30:12.185,6.400,128,5.906204,8.191916,-4.796799,1,0.000000,0.000000,2.534123,0.057765,0.208054,-0.026563,1,6.634292,7.567580,-5.022456,0,1,4.773836,5.884237,8.098877,-4.812039,-1.263878,0.796427,-0.046152,0.002129,0.226558,-0.002898,0.096804
16:30:12.240,6.450,129,5.844641,8.234699,-4.798948,1,0.000000,0.000000,2.528284,-0.014145,0.232437,-0.029262,1,6.634292,7.567580,-5.022456,0,1,4.774257,5.820965,8.138201,-4.802864,-1.270357,0.786918,-0.033331,0.002001,0.226604,-0.003066,0.099437
16:30:12.294,6.500,130,5.782760,8.277019,-4.801109,1,0.000000,0.000000,2.527966,-0.018337,0.188734,0.073043,1,6.634292,7.567580,-5.022456,0,1,4.794219,5.758005,8.177444,-4.804318,-1.276155,0.777921,-0.032981,0.001842,0.226308,-0.002480,0.102656
16:30:12.347,6.550,131,5.720563,8.318873,-4.803281,1,0.000000,0.000000,2.531113,0.038943,0.273113,-0.085548,1,6.634292,7.567580,-5.022456,0,1,4.754083,5.692964,8.216108,-4.806232,-1.283887,0.768609,-0.033681,0.002129,0.226671,-0.003115,0.106447
16:30:12.398,6.600,132,5.658054,8.360260,-4.805464,1,0.000000,0.000000,2.572203,0.012175,0.236629,0.006067,1,6.634292,7.567580,-5.022456,0,1,4.808889,5.628351,8.254332,-4.808177,-1.290368,0.759131,-0.034098,0.002206,0.226747,-0.003046,0.110047
16:30:12.453,6.650,133,5.595236,8.401176,-4.807658,1,0.000000,0.000000,2.567219,-0.032887,0.239045,-0.077316,1,6.634292,7.567580,-5.022456,0,1,4.798352,5.563921,8.291366,-4.810091,-1.296315,0.748992,-0.034731,0.001939,0.226841,-0.003605,0.114214
16:30:12.505,6.700,134,5.532114,8.441620,-4.809862,1,0.000000,0.000000,2.540115,-0.047589,0.202625,0.046865,1,6.634292,7.567580,-5.022456,0,1,4.877017,5.499966,8.328111,-4.811677,-1.301762,0.739307,-0.034568,0.001564,0.226658,-0.003228,0.117988
16:30:12.557,6.750,135,5.468690,8.481588,-4.812077,1,0.000000,0.000000,2.570978,0.018361,0.238494,-0.039847,1,6.634292,7.567580,-5.022456,0,1,4.864321,5.434301,8.364955,-4.828207,-1.308364,0.729892,-0.051628,0.001690,0.226747,-0.003544,0.122663
16:30:12.607,6.800,136,5.404969,8.521080,-4.814302,1,0.000000,0.000000,2.602419,0.036369,0.189924,0.015973,1,6.634292,7.567580,-5.022456,0,1,4.726139,5.368875,8.402320,-4.830740,-1.314211,0.721254,-0.051682,0.001949,0.226472,-0.003400,0.125207
16:30:12.663,6.850,137,5.340953,8.560093,-4.816538,1,0.000000,0.000000,2.585724,-0.037802,0.173839,0.034351,1,6.634292,7.567580,-5.022456,0,1,4.749253,5.304531,8.438217,-4.833215,-1.318900,0.711864,-0.051601,0.001654,0.226083,-0.003125,0.128290
16:30:12.718,6.900,138,5.276647,8.598624,-4.818783,1,0.000000,0.000000,2.582044,-0.024582,0.253442,-0.056537,1,6.634292,7.567580,-5.022456,0,1,4.801865,5.238337,8.472670,-4.826117,-1.324991,0.701526,-0.040958,0.001462,0.226284,-0.003483,0.131855
16:30:12.770,6.950,139,5.212054,8.636671,-4.821039,1,0.000000,0.000000,2.594295,-0.062257,0.219732,0.009754,1,6.634292,7.567580,-5.022456,0,1,4.839973,5.173083,8.506405,-4.828134,-1.329883,0.691038,-0.041050,0.000997,0.226236,-0.003388,0.136156
16:30:12.821,7.000,140,5.147177,8.674232,-4.823304,1,0.000000,0.000000,2.626533,0.004966,0.207923,0.023973,1,6.634292,7.567580,-5.022456,0,1,4.883961,5.106740,8.541093,-4.830110,-1.335281,0.681559,-0.041042,0.001026,0.226103,-0.003192,0.139310
16:30:12.874,7.050,141,5.082021,8.711306,-4.825580,1,0.000000,0.000000,2.615541,0.013817,0.225938,-0.034581,1,6.634292,7.567580,-5.022456,0,1,4.848636,5.039615,8.575189,-4.837000,-1.341197,0.672005,-0.046773,0.001118,0.226102,-0.003428,0.143026
16:30:12.928,7.100,142,5.016588,8.747889,-4.827865,1,0.000000,0.000000,2.609650,-0.022923,0.221493,-0.031947,1,6.634292,7.567580,-5.022456,0,1,4.837945,4.972938,8.608129,-4.839417,-1.346532,0.661995,-0.047117,0.000946,0.226069,-0.003629,0.146873
16:30:12.979,7.150,143,4.950883,8.783981,-4.830159,1,0.000000,0.000000,2.671520,0.011457,0.223433,-0.062684,1,6.634292,7.567580,-5.022456,0,1,4.873036,4.905343,8.641251,-4.841948,-1.351820,0.652142,-0.047674,0.001021,0.226051,-0.004042,0.150282
16:30:13.034,7.200,144,4.884910,8.819578,-4.832463,1,0.000000,0.000000,2.616358,-0.005945,0.221548,0.022782,1,6.634292,7.567580,-5.022456,0,1,4.777861,4.837843,8.673548,-4.825059,-1.357350,0.642353,-0.025972,0.000972,0.226019,-0.003802,0.153606
16:30:13.089,7.250,145,4.818672,8.854679,-4.834776,1,0.000000,0.000000,2.650227,-0.011512,0.232395,0.014970,1,6.634292,7.567580,-5.022456,0,1,4.821006,4.769946,8.705007,-4.826315,-1.362621,0.632115,-0.026051,0.000884,0.226063,-0.003673,0.157631
16:30:13.144,7.300,146,4.752172,8.889282,-4.837098,1,0.000000,0.000000,2.653232,0.019623,0.188645,-0.018005,1,6.634292,7.567580,-5.022456,0,1,4.888889,4.702165,8.737571,-4.827663,-1.367689,0.623061,-0.026324,0.001014,0.225804,-0.003771,0.160019
16:30:13.199,7.350,147,4.685415,8.923386,-4.839429,1,0.000000,0.000000,2.627472,0.017969,0.233110,-0.020356,1,6.634292,7.567580,-5.022456,0,1,4.803819,4.633105,8.768728,-4.821746,-1.373682,0.613399,-0.018370,0.001131,0.225854,-0.003863,0.164219
16:30:13.254,7.400,148,4.618404,8.956987,-4.841770,1,0.000000,0.000000,2.695402,-0.018753,0.239642,-0.016812,1,6.634292,7.567580,-5.022456,0,1,4.882811,4.564397,8.798354,-4.822702,-1.378487,0.602693,-0.018638,0.000995,0.225949,-0.003951,0.168655
16:30:13.307,7.450,149,4.551143,8.990084,-4.844118,1,0.000000,0.000000,2.691115,0.023675,0.199960,0.009371,1,6.634292,7.567580,-5.022456,0,1,4.727898,4.495487,8.829394,-4.823602,-1.383429,0.593342,-0.018755,0.001149,0.225772,-0.003861,0.171289
16:30:13.360,7.500,150,4.483636,9.022676,-4.846476,1,0.000000,0.000000,2.692898,-0.014844,0.225376,0.026489,1,4.539865,9.036628,-4.984782,1,1,4.856378,4.511064,8.991573,-4.838445,-1.360733,0.626485,-0.034681,0.001169,0.225700,-0.003899,0.042239
16:30:13.412,7.550,151,4.415887,9.054760,-4.848842,1,0.000000,0.000000,2.708631,0.014233,0.198434,-0.057727,1,4.539865,9.036628,-4.984782,0,1,4.847715,4.443013,9.022911,-4.840312,-1.365413,0.616714,-0.035180,0.001257,0.225516,-0.004258,0.042696
16:30:13.465,7.600,152,4.347899,9.086335,-4.851216,1,0.000000,0.000000,2.706581,0.024007,0.260307,0.030073,1,4.539865,9.036628,-4.984782,0,1,4.843951,4.374203,9.053415,-4.841986,-1.370833,0.606317,-0.035189,0.001409,0.225749,-0.004031,0.043137
16:30:13.520,7.650,153,4.279676,9.117399,-4.853598,1,0.000000,0.000000,2.735493,0.015838,0.257404,0.004463,1,4.539865,9.036628,-4.984782,0,1,4.807695,4.305189,9.083345,-4.833538,-1.375844,0.595727,-0.023755,0.001505,0.225959,-0.003948,0.047043
16:30:13.575,7.700,154,4.211222,9.147950,-4.855989,1,0.000000,0.000000,2.757425,-0.031879,0.230462,-0.025730,1,4.539865,9.036628,-4.984782,0,1,4.841857,4.236525,9.112556,-4.834782,-1.379775,0.584897,-0.024074,0.001285,0.225989,-0.004090,0.048401
16:30:13.629,7.750,155,4.142542,9.177986,-4.858387,1,0.000000,0.000000,2.735934,-0.015555,0.212260,-0.021254,1,4.539865,9.036628,-4.984782,0,1,4.836264,4.167691,9.141515,-4.836036,-1.383942,0.574548,-0.024379,0.001174,0.225899,-0.004201,0.049621
16:30:13.682,7.800,156,4.073638,9.207506,-4.860793,1,0.000000,0.000000,2.767743,0.021816,0.222372,-0.023029,1,4.539865,9.036628,-4.984782,0,1,4.795354,4.098229,9.170202,-4.825360,-1.388354,0.564305,-0.011091,0.001309,0.225876,-0.004291,0.057025
16:30:13.737,7.850,157,4.004514,9.236508,-4.863207,1,0.000000,0.000000,2.729794,-0.009255,0.145613,0.019651,1,4.539865,9.036628,-4.984782,0,1,4.957052,4.029574,9.198855,-4.825864,-1.391992,0.554932,-0.011175,0.001240,0.225356,-0.004138,0.058653
16:30:13.789,7.900,158,3.935176,9.264991,-4.865628,1,0.000000,0.000000,2.730429,-0.026991,0.177440,-0.034844,1,4.539865,9.036628,-4.984782,0,1,4.901520,3.960639,9.226565,-4.826508,-1.395692,0.544984,-0.011559,0.001059,0.225048,-0.004333,0.060459
16:30:13.840,7.950,159,3.865625,9.292952,-4.868057,1,0.000000,0.000000,2.744852,-0.010517,0.167044,0.041799,1,4.539865,9.036628,-4.984782,0,1,4.869595,3.891482,9.254080,-4.839173,-1.399343,0.535296,-0.025403,0.000985,0.224677,-0.004073,0.054899
16:30:13.891,8.000,160,3.795868,9.320391,-4.870493,1,0.000000,0.000000,2.766467,-0.030993,0.160776,-0.018374,1,4.539865,9.036628,-4.984782,0,1,4.828272,3.822485,9.280985,-4.840482,-1.402413,0.525417,-0.025684,0.000781,0.224271,-0.004163,0.056232
16:30:13.941,8.050,161,3.725906,9.347305,-4.872936,1,0.000000,0.000000,2.793865,0.026583,0.250883,-0.006981,1,4.539865,9.036628,-4.984782,0,1,4.891925,3.751646,9.306957,-4.841778,-1.406904,0.514779,-0.025908,0.000944,0.224439,-0.004180,0.057108
16:30:13.995,8.100,162,3.655745,9.373694,-4.875386,1,0.000000,0.000000,2.763411,0.044620,0.167176,-0.003656,1,4.539865,9.036628,-4.984782,0,1,4.836062,3.681305,9.333695,-4.841060,-1.411123,0.505630,-0.023819,0.001218,0.224079,-0.004172,0.058579
16:30:14.048,8.150,163,3.585388,9.399555,-4.877843,1,0.000000,0.000000,2.809312,0.021437,0.204188,0.020139,1,4.539865,9.036628,-4.984782,0,1,4.834900,3.610625,9.359231,-4.842201,-1.414921,0.495554,-0.023899,0.001344,0.223955,-0.004022,0.059442
16:30:14.100,8.200,164,3.514839,9.424888,-4.880307,1,0.000000,0.000000,2.797258,-0.002496,0.232388,-0.022182,1,4.539865,9.036628,-4.984782,0,1,4.877565,3.539730,9.383577,-4.843447,-1.418796,0.484873,-0.024201,0.001321,0.224008,-0.004133,0.060703
16:30:14.153,8.250,165,3.444102,9.449691,-4.882777,1,0.000000,0.000000,2.790039,-0.000222,0.184352,-0.011313,1,4.539865,9.036628,-4.984782,0,1,4.850914,3.469236,9.408129,-4.846479,-1.422279,0.474952,-0.026491,0.001311,0.223763,-0.004182,0.060636
16:30:14.207,8.300,166,3.373181,9.473962,-4.885254,1,0.000000,0.000000,2.797233,0.012014,0.142919,-0.007258,1,4.539865,9.036628,-4.984782,0,1,4.884422,3.398957,9.433017,-4.847815,-1.425434,0.465767,-0.026716,0.001377,0.223269,-0.004200,0.061176
16:30:14.258,8.350,167,3.302080,9.497700,-4.887737,1,0.000000,0.000000,2.827813,0.026511,0.264019,-0.003341,1,4.539865,9.036628,-4.984782,0,1,4.921773,3.326619,9.455732,-4.849154,-1.429754,0.454814,-0.026921,0.001529,0.223517,-0.004195,0.062065
16:30:14.312,8.400,168,3.230804,9.520903,-4.890226,1,0.000000,0.000000,2.818211,-0.011903,0.200346,-0.000410,1,4.539865,9.036628,-4.984782,0,1,4.879905,3.255602,9.478405,-4.858986,-1.432928,0.444457,-0.036741,0.001448,0.223376,-0.004193,0.058284
16:30:14.367,8.450,169,3.159355,9.543572,-4.892721,1,0.000000,0.000000,2.831086,0.016223,0.244173,0.040896,1,4.539865,9.036628,-4.984782,0,1,4.928530,3.183300,9.500218,-4.860729,-1.436859,0.433676,-0.036721,0.001537,0.223501,-0.003925,0.058961
16:30:14.422,8.500,170,3.087739,9.565703,-4.895222,1,0.000000,0.000000,2.837533,-0.004513,0.222037,-0.011461,1,4.539865,9.036628,-4.984782,0,1,4.937334,3.111504,9.521569,-4.862589,-1.440167,0.422996,-0.036957,0.001501,0.223493,-0.003970,0.059812
16:30:14.474,8.550,171,3.015958,9.587297,-4.897728,1,0.000000,0.000000,2.862462,-0.015862,0.277093,0.005512,1,4.539865,9.036628,-4.984782,0,1,4.953720,3.038901,9.541164,-4.890216,-1.443608,0.411234,-0.066342,0.001398,0.223811,-0.003976,0.052067
16:30:14.529,8.600,172,2.944018,9.608351,-4.900240,1,0.000000,0.000000,2.839503,0.026137,0.227329,-0.027254,1,4.539865,9.036628,-4.984782,0,1,4.870525,2.966093,9.561791,-4.893588,-1.447441,0.400777,-0.066658,0.001544,0.223832,-0.004112,0.051956
16:30:14.580,8.650,173,2.871922,9.628864,-4.902758,1,0.000000,0.000000,2.842133,-0.032533,0.221445,-0.009796,1,4.539865,9.036628,-4.984782,0,1,4.896435,2.894368,9.581045,-4.896940,-1.450234,0.389783,-0.066893,0.001344,0.223818,-0.004145,0.053145
16:30:14.631,8.700,174,2.799674,9.648836,-4.905281,1,0.000000,0.000000,2.876215,0.029162,0.244449,0.004185,1,4.539865,9.036628,-4.984782,0,1,4.871958,2.820845,9.600306,-4.892086,-1.453913,0.378957,-0.057789,0.001506,0.223938,-0.004077,0.054567
16:30:14.682,8.750,175,2.727279,9.668266,-4.907809,1,0.000000,0.000000,2.856680,-0.056721,0.275626,-0.018811,1,4.539865,9.036628,-4.984782,0,1,4.953309,2.748429,9.616845,-4.895012,-1.456711,0.366747,-0.058065,0.001168,0.224238,-0.004162,0.057054
16:30:14.732,8.800,176,2.654740,9.687151,-4.910342,1,0.000000,0.000000,2.869202,-0.013057,0.243257,-0.029052,1,4.539865,9.036628,-4.984782,0,1,4.825712,2.675495,9.634231,-4.897979,-1.459746,0.355491,-0.058402,0.001086,0.224348,-0.004304,0.058173
16:30:14.786,8.850,177,2.582062,9.705492,-4.912880,1,0.000000,0.000000,2.856786,-0.004213,0.254822,0.020177,1,4.539865,9.036628,-4.984782,0,1,4.835472,2.601990,9.650935,-4.881948,-1.463186,0.344164,-0.037097,0.001056,0.224522,-0.004121,0.065806
16:30:14.841,8.900,178,2.509248,9.723286,-4.915423,1,0.000000,0.000000,2.909813,-0.034411,0.246998,0.012318,1,4.539865,9.036628,-4.984782,0,1,5.050001,2.529189,9.666668,-4.883774,-1.465445,0.332482,-0.037224,0.000854,0.224651,-0.004029,0.067860
16:30:14.896,8.950,179,2.436303,9.740534,-4.917970,1,0.000000,0.000000,2.928848,0.031642,0.200797,0.017393,1,4.539865,9.036628,-4.984782,0,1,4.853995,2.455558,9.684195,-4.885590,-1.468139,0.322258,-0.037317,0.001028,0.224515,-0.003909,0.067773
16:30:14.951,9.000,180,2.363230,9.757234,-4.920522,1,0.000000,0.000000,2.910059,0.019516,0.214399,0.004170,1,4.539865,9.036628,-4.984782,0,1,4.966660,2.381816,9.700655,-4.910336,-1.470983,0.311719,-0.063380,0.001132,0.224458,-0.003916,0.060418
16:30:15.006,9.050,181,2.290035,9.773385,-4.923078,1,0.000000,0.000000,2.923442,-0.034032,0.264725,0.025762,1,4.539865,9.036628,-4.984782,0,1,5.010867,2.308313,9.714212,-4.913450,-1.473273,0.299682,-0.063435,0.000935,0.224684,-0.003751,0.062675
16:30:15.060,9.100,182,2.216720,9.788986,-4.925638,1,0.000000,0.000000,2.899304,-0.082073,0.232895,0.027678,1,4.539865,9.036628,-4.984782,0,1,4.931301,2.236639,9.727003,-4.916555,-1.474611,0.287750,-0.063466,0.000473,0.224730,-0.003578,0.065735
16:30:15.111,9.150,183,2.143291,9.804036,-4.928202,1,0.000000,0.000000,2.919607,-0.026177,0.202474,-0.061414,1,4.539865,9.036628,-4.984782,0,1,4.842373,2.164045,9.741173,-4.897479,-1.476386,0.276912,-0.038601,0.000325,0.224606,-0.003845,0.072982
16:30:15.165,9.200,184,2.069751,9.818535,-4.930770,1,0.000000,0.000000,2.989107,0.050848,0.248465,0.021442,1,4.539865,9.036628,-4.984782,0,1,4.957311,2.088243,9.755143,-4.899363,-1.479288,0.265919,-0.038675,0.000603,0.224738,-0.003708,0.073123
16:30:15.220,9.250,185,1.996104,9.832482,-4.933342,1,0.000000,0.000000,2.943748,-0.013586,0.205813,-0.049826,1,4.539865,9.036628,-4.984782,0,1,4.931476,2.015047,9.768406,-4.901404,-1.481062,0.255105,-0.039088,0.000526,0.224634,-0.003957,0.074059
16:30:15.271,9.300,186,1.922355,9.845876,-4.935918,1,0.000000,0.000000,2.950456,-0.010700,0.203388,0.001386,1,4.539865,9.036628,-4.984782,0,1,4.957121,1.941746,9.781271,-4.918889,-1.482785,0.244358,-0.056841,0.000464,0.224518,-0.003962,0.069569
16:30:15.322,9.350,187,1.848507,9.858716,-4.938496,1,0.000000,0.000000,2.935371,-0.004810,0.238389,0.017118,1,4.539865,9.036628,-4.984782,0,1,4.892528,1.867397,9.792670,-4.921695,-1.485156,0.233058,-0.056942,0.000436,0.224594,-0.003850,0.070719
16:30:15.375,9.400,188,1.774565,9.871001,-4.941079,1,0.000000,0.000000,2.960709,0.007183,0.162744,-0.001568,1,2.038361,9.918230,-4.676572,1,1,4.917200,1.973815,9.888182,-4.914938,-1.428770,0.249274,-0.046194,0.000382,0.224496,-0.003829,0.201690
16:30:15.428,9.450,189,1.700534,9.882731,-4.943664,1,0.000000,0.000000,2.981068,-0.030514,0.194820,0.024198,1,2.038361,9.918230,-4.676572,0,1,5.057959,1.902791,9.900436,-4.956736,-1.430064,0.238383,-0.091086,0.000216,0.224336,-0.003765,0.203451
16:30:15.482,9.500,190,1.626416,9.893905,-4.946252,1,0.000000,0.000000,3.007986,0.055952,0.188428,-0.046713,1,2.038361,9.918230,-4.676572,0,1,4.963960,1.830962,9.912778,-4.961377,-1.432046,0.227990,-0.091468,0.000514,0.224144,-0.003993,0.205971
16:30:15.532,9.550,191,1.552217,9.904523,-4.948843,1,0.000000,0.000000,2.999477,-0.005960,0.255205,0.014814,1,2.038361,9.918230,-4.676572,0,1,4.891788,1.759174,9.923548,-4.965915,-1.433744,0.216488,-0.091578,0.000480,0.224310,-0.003894,0.208529
16:30:15.583,9.600,192,1.477940,9.914583,-4.951437,1,0.000000,0.000000,2.989059,0.034171,0.187141,-0.039671,1,2.038361,9.918230,-4.676572,0,1,4.938863,1.687349,9.934721,-4.961591,-1.435691,0.206043,-0.081721,0.000658,0.224113,-0.004062,0.210620
16:30:15.638,9.650,193,1.403590,9.924086,-4.954033,1,0.000000,0.000000,3.040153,0.043680,0.208432,0.000325,1,2.038361,9.918230,-4.676572,0,1,5.039722,1.615173,9.945229,-4.965674,-1.437315,0.195322,-0.081904,0.000884,0.224030,-0.004039,0.212955
16:30:15.692,9.700,194,1.329171,9.933031,-4.956632,1,0.000000,0.000000,3.004315,0.019660,0.233253,0.013581,1,2.038361,9.918230,-4.676572,0,1,5.013497,1.542981,9.954750,-4.969737,-1.439180,0.184214,-0.082024,0.000983,0.224079,-0.003948,0.215310
16:30:15.746,9.750,195,1.254687,9.941417,-4.959233,1,0.000000,0.000000,3.036193,0.015230,0.222192,-0.009623,1,2.038361,9.918230,-4.676572,0,1,4.967252,1.470832,9.963815,-4.971971,-1.440582,0.173177,-0.080102,0.001057,0.224069,-0.003973,0.217675
16:30:15.798,9.800,196,1.180142,9.949243,-4.961836,1,0.000000,0.000000,3.037151,0.056012,0.241059,-0.016285,1,2.038361,9.918230,-4.676572,0,1,4.966130,1.397935,9.972411,-4.976004,-1.442613,0.162108,-0.080355,0.001342,0.224157,-0.004036,0.219479
16:30:15.849,9.850,197,1.105540,9.956511,-4.964441,1,0.000000,0.000000,3.014255,-0.030503,0.231933,0.003609,1,2.038361,9.918230,-4.676572,0,1,4.921667,1.326130,9.979877,-4.980011,-1.443720,0.150727,-0.080522,0.001178,0.224197,-0.003997,0.222370
16:30:15.904,9.900,198,1.030887,9.963218,-4.967048,1,0.000000,0.000000,3.023623,-0.034868,0.239313,-0.004025,1,2.038361,9.918230,-4.676572,0,1,4.987738,1.254288,9.986623,-4.985103,-1.444692,0.139207,-0.081928,0.000993,0.224274,-0.003999,0.225348
16:30:15.959,9.950,199,0.956185,9.969364,-4.969657,1,0.000000,0.000000,3.067503,-0.045755,0.192502,-0.014012,1,2.038361,9.918230,-4.676572,0,1,4.919391,1.182986,9.993367,-4.989223,-1.444764,0.128215,-0.082172,0.000754,0.224112,-0.004050,0.228905
16:30:16.012,10.000,200,0.881439,9.974950,-4.972267,1,0.000000,0.000000,3.056003,-0.002911,0.248544,-0.047489,1,2.038361,9.918230,-4.676572,0,1,5.075902,1.110564,9.999095,-4.993426,-1.445838,0.116696,-0.082573,0.000736,0.224236,-0.004268,0.231363
16:30:16.062,10.050,201,0.806653,9.979975,-4.974879,1,0.000000,0.000000,3.059622,-0.024591,0.291173,0.005634,1,2.038361,9.918230,-4.676572,0,1,5.026605,1.038046,10.003363,-5.005904,-1.446790,0.104451,-0.092248,0.000608,0.224575,-0.004236,0.234633
16:30:16.115,10.100,202,0.731832,9.984438,-4.977492,1,0.000000,0.000000,3.060370,-0.008087,0.252632,-0.045990,1,2.038361,9.918230,-4.676572,0,1,4.948091,0.965568,10.007764,-5.010598,-1.447755,0.092817,-0.092638,0.000564,0.224716,-0.004443,0.237219
16:30:16.169,10.150,203,0.656979,9.988340,-4.980106,1,0.000000,0.000000,3.074688,0.025744,0.224784,-0.018262,1,2.038361,9.918230,-4.676572,0,1,5.040122,0.892730,10.012361,-5.015264,-1.448898,0.081740,-0.092923,0.000690,0.224716,-0.004512,0.239565
16:30:16.224,10.200,204,0.582099,9.991679,-4.982720,1,0.000000,0.000000,3.068110,0.017246,0.187024,-0.012105,1,2.038361,9.918230,-4.676572,0,1,5.049390,0.820334,10.016996,-5.028429,-1.449800,0.071173,-0.102828,0.000772,0.224528,-0.004566,0.243897
16:30:16.279,10.250,205,0.507196,9.994457,-4.985336,1,0.000000,0.000000,3.129279,-0.009574,0.212060,0.025641,1,2.038361,9.918230,-4.676572,0,1,4.975346,0.748152,10.020401,-5.033521,-1.449759,0.060078,-0.102929,0.000721,0.224467,-0.004418,0.247092
16:30:16.329,10.300,206,0.432275,9.996673,-4.987952,1,0.000000,0.000000,3.105731,-0.014793,0.266781,-0.034088,1,2.038361,9.918230,-4.676572,0,1,4.881407,0.675522,10.022164,-5.038733,-1.450187,0.048151,-0.103282,0.000645,0.224675,-0.004563,0.249795
