timestamp,sim_time,iteration,true_pos_x,true_pos_y,true_pos_z,imu_valid,imu_roll,imu_pitch,imu_yaw,imu_acc_x,imu_acc_y,imu_acc_z,usbl_valid,usbl_pos_x,usbl_pos_y,usbl_pos_z,usbl_fix_used,depth_valid,depth_measurement,kf_pos_x,kf_pos_y,kf_pos_z,kf_vel_x,kf_vel_y,kf_vel_z,kf_acc_x,kf_acc_y,kf_acc_z,error_norm
15:45:34.179,0.000,0,10.168406,0.000000,-4.647959,1,0.000000,0.000000,1.545349,0.035499,0.224905,-0.023381,0,0.000000,0.000000,0.000000,0,1,4.654718,10.168126,0.000051,-4.654701,-0.011186,0.002059,-0.001503,0.035467,0.224702,-0.023360,0.006748
15:45:34.229,0.050,1,10.168125,0.074999,-4.647969,1,0.000000,0.000000,1.554201,0.051426,0.218465,-0.017276,0,0.000000,0.000000,0.000000,0,1,4.654576,10.167303,0.000243,-4.654794,-0.022062,0.004809,-0.002367,0.043443,0.221585,-0.020319,0.075072
15:45:34.279,0.100,2,10.167281,0.149994,-4.647998,1,0.000000,0.000000,1.575707,0.008961,0.246127,0.064622,0,0.000000,0.000000,0.000000,0,1,4.656856,10.165828,0.000409,-4.654655,-0.034400,0.005219,0.000861,0.031952,0.229763,0.007986,0.149741
15:45:34.329,0.150,3,10.165876,0.224981,-4.648048,1,0.000000,0.000000,1.594124,-0.027035,0.227247,0.029990,0,0.000000,0.000000,0.000000,0,1,4.693001,10.163829,0.000408,-4.689499,-0.045806,0.003599,-0.207519,0.017209,0.229135,0.013480,0.228376
15:45:34.379,0.200,4,10.163909,0.299955,-4.648116,1,0.000000,0.000000,1.581838,-0.009166,0.241889,0.018746,0,0.000000,0.000000,0.000000,0,1,4.637294,10.161171,0.000442,-4.699850,-0.057910,0.003015,-0.206689,0.011935,0.231685,0.014533,0.303960
15:45:34.429,0.250,5,10.161380,0.374912,-4.648205,1,0.000000,0.000000,1.576615,0.017418,0.230966,0.003322,0,0.000000,0.000000,0.000000,0,1,4.752133,10.157991,0.000647,-4.710197,-0.069462,0.003819,-0.206332,0.012849,0.231565,0.012665,0.379379
15:45:34.479,0.300,6,10.158289,0.449848,-4.648312,1,0.000000,0.000000,1.570189,0.020664,0.219985,0.018656,0,0.000000,0.000000,0.000000,0,1,4.689421,10.154330,0.000922,-4.695417,-0.080461,0.004859,-0.107445,0.013965,0.229911,0.013529,0.451408
15:45:34.529,0.350,7,10.154636,0.524759,-4.648440,1,0.000000,0.000000,1.607513,0.016486,0.273444,-0.077280,0,0.000000,0.000000,0.000000,0,1,4.644668,10.149584,0.001199,-4.700938,-0.094151,0.005250,-0.109158,0.014280,0.235352,0.002179,0.526210
15:45:34.579,0.400,8,10.150422,0.599640,-4.648587,1,0.000000,0.000000,1.641704,0.047958,0.248570,0.021852,0,0.000000,0.000000,0.000000,0,1,4.635119,10.144433,0.001837,-4.706336,-0.106621,0.006803,-0.108480,0.018022,0.236821,0.004365,0.600616
15:45:34.629,0.450,9,10.145647,0.674488,-4.648754,1,0.000000,0.000000,1.633115,0.014020,0.235530,0.011151,0,0.000000,0.000000,0.000000,0,1,4.698863,10.138822,0.002131,-4.702845,-0.118427,0.006767,-0.082819,0.017621,0.236691,0.005049,0.674563
15:45:34.679,0.500,10,10.140311,0.749297,-4.648940,1,0.000000,0.000000,1.621829,-0.022154,0.221294,0.040372,0,0.000000,0.000000,0.000000,0,1,4.615556,10.132818,0.001931,-4.706898,-0.129482,0.005071,-0.081665,0.014006,0.235292,0.008260,0.749648
15:45:34.729,0.550,11,10.134415,0.824064,-4.649146,1,0.000000,0.000000,1.653164,-0.005185,0.228126,0.001480,0,0.000000,0.000000,0.000000,0,1,4.701034,10.126159,0.001891,-4.710994,-0.140881,0.003852,-0.081439,0.012407,0.234695,0.007695,0.824538
15:45:34.779,0.600,12,10.127958,0.898785,-4.649372,1,0.000000,0.000000,1.653543,0.007048,0.216083,-0.016227,0,0.000000,0.000000,0.000000,0,1,4.674221,10.119125,0.001991,-4.690738,-0.151690,0.003260,-0.027268,0.011994,0.233263,0.005882,0.897791
15:45:34.830,0.650,13,10.120941,0.973456,-4.649617,1,0.000000,0.000000,1.635954,-0.009182,0.211690,-0.000920,0,0.000000,0.000000,0.000000,0,1,4.642959,10.111631,0.001785,-4.692113,-0.162256,0.002076,-0.027145,0.010482,0.231722,0.005396,0.972645
15:45:34.880,0.700,14,10.113365,1.048072,-4.649881,1,0.000000,0.000000,1.676072,-0.000373,0.200051,-0.003606,0,0.000000,0.000000,0.000000,0,1,4.612213,10.103825,0.001678,-4.693499,-0.172231,0.000897,-0.027117,0.009758,0.229611,0.004796,1.047346
15:45:34.930,0.750,15,10.105230,1.122628,-4.650165,1,0.000000,0.000000,1.654698,0.011420,0.283773,-0.013945,0,0.000000,0.000000,0.000000,0,1,4.711190,10.093844,0.001723,-4.703455,-0.186419,0.000396,-0.043129,0.009862,0.232996,0.003611,1.122229
15:45:34.980,0.800,16,10.096536,1.197122,-4.650469,1,0.000000,0.000000,1.701565,-0.005232,0.226078,-0.013189,0,0.000000,0.000000,0.000000,0,1,4.730188,10.084386,0.001400,-4.705664,-0.197654,-0.001372,-0.043369,0.008974,0.232589,0.002623,1.197057
15:45:35.030,0.850,17,10.087284,1.271548,-4.650792,1,0.000000,0.000000,1.693967,-0.000611,0.205686,-0.027196,0,0.000000,0.000000,0.000000,0,1,4.570913,10.074824,0.001106,-4.707963,-0.207885,-0.002767,-0.044025,0.008442,0.231094,0.000966,1.271789
15:45:35.080,0.900,18,10.077474,1.345903,-4.651135,1,0.000000,0.000000,1.673716,-0.008104,0.202844,-0.032228,0,0.000000,0.000000,0.000000,0,1,4.671482,10.064822,0.000574,-4.692177,-0.217970,-0.004285,-0.015979,0.007571,0.229608,-0.000739,1.346014
15:45:35.130,0.950,19,10.067108,1.420182,-4.651497,1,0.000000,0.000000,1.697650,-0.011903,0.249046,-0.008663,0,0.000000,0.000000,0.000000,0,1,4.639489,10.053167,-0.000167,-4.693009,-0.230320,-0.006388,-0.016213,0.006597,0.230579,-0.001135,1.421025
15:45:35.180,1.000,20,10.056185,1.494381,-4.651878,1,0.000000,0.000000,1.721955,-0.050243,0.302797,0.038105,0,0.000000,0.000000,0.000000,0,1,4.630969,10.039521,-0.002074,-4.693623,-0.245194,-0.010850,-0.015248,0.003891,0.234018,0.000733,1.497130
15:45:35.230,1.050,21,10.044706,1.568496,-4.652279,1,0.000000,0.000000,1.725696,-0.037233,0.254955,-0.035367,0,0.000000,0.000000,0.000000,0,1,4.713544,10.026436,-0.003806,-4.702626,-0.257694,-0.014580,-0.027551,0.002022,0.234970,-0.000932,1.573214
15:45:35.280,1.100,22,10.032672,1.642523,-4.652699,1,0.000000,0.000000,1.720248,0.038347,0.252790,-0.083529,0,0.000000,0.000000,0.000000,0,1,4.651202,10.012710,-0.003553,-4.704380,-0.270339,-0.014481,-0.029629,0.003601,0.235745,-0.004521,1.647009
15:45:35.330,1.150,23,10.020083,1.716458,-4.653139,1,0.000000,0.000000,1.705702,0.030431,0.241777,0.008487,0,0.000000,0.000000,0.000000,0,1,4.670142,9.998687,-0.003517,-4.705794,-0.282440,-0.014573,-0.029522,0.004719,0.235996,-0.003980,1.720913
15:45:35.380,1.200,24,10.006941,1.790296,-4.653598,1,0.000000,0.000000,1.737872,-0.008939,0.289649,-0.029498,0,0.000000,0.000000,0.000000,0,1,4.574266,9.982618,-0.004787,-4.655639,-0.296733,-0.017185,0.036771,0.004173,0.238142,-0.004805,1.795249
15:45:35.430,1.250,25,9.993246,1.864033,-4.654076,1,0.000000,0.000000,1.736023,0.038630,0.177285,-0.047087,0,0.000000,0.000000,0.000000,0,1,4.664178,9.969409,-0.004482,-4.654021,-0.305620,-0.016984,0.035503,0.005498,0.235801,-0.006430,1.868667
15:45:35.480,1.300,26,9.978998,1.937665,-4.654573,1,0.000000,0.000000,1.727583,0.014548,0.228387,-0.025210,0,0.000000,0.000000,0.000000,0,1,4.645059,9.954071,-0.005054,-4.652369,-0.316977,-0.018073,0.034707,0.005833,0.235527,-0.007126,1.942880
15:45:35.531,1.350,27,9.964199,2.011189,-4.655090,1,0.000000,0.000000,1.784200,0.034962,0.188867,-0.025412,0,0.000000,0.000000,0.000000,0,1,4.717840,9.939510,-0.004913,-4.675056,-0.326353,-0.018633,0.004335,0.006873,0.233860,-0.007888,2.016352
15:45:35.581,1.400,28,9.948849,2.084599,-4.655626,1,0.000000,0.000000,1.752880,-0.005563,0.264683,-0.045877,0,0.000000,0.000000,0.000000,0,1,4.635207,9.921813,-0.006398,-4.675060,-0.339391,-0.021168,0.003031,0.006444,0.234923,-0.009197,2.091262
15:45:35.631,1.450,29,9.932949,2.157892,-4.656181,1,0.000000,0.000000,1.782007,-0.019092,0.192535,0.036087,0,0.000000,0.000000,0.000000,0,1,4.657960,9.906192,-0.008376,-4.674623,-0.348720,-0.024386,0.003694,0.005593,0.233510,-0.007689,2.166512
15:45:35.681,1.500,30,9.916500,2.231064,-4.656756,1,0.000000,0.000000,1.782834,-0.003291,0.259057,0.035810,0,0.000000,0.000000,0.000000,0,1,4.618315,9.887503,-0.010051,-4.655074,-0.361418,-0.027135,0.026614,0.005307,0.234334,-0.006186,2.241303
15:45:35.731,1.550,31,9.899504,2.304110,-4.657349,1,0.000000,0.000000,1.772763,-0.002142,0.249547,0.022118,0,0.000000,0.000000,0.000000,0,1,4.697538,9.868556,-0.011794,-4.653582,-0.373667,-0.029671,0.026968,0.005074,0.234810,-0.005303,2.316113
15:45:35.781,1.600,32,9.881960,2.377026,-4.657962,1,0.000000,0.000000,1.814212,-0.004458,0.243876,-0.027836,0,0.000000,0.000000,0.000000,0,1,4.656497,9.849238,-0.013757,-4.652398,-0.385522,-0.032775,0.026156,0.004785,0.235085,-0.005985,2.391014
15:45:35.831,1.650,33,9.863870,2.449809,-4.658594,1,0.000000,0.000000,1.823707,-0.013302,0.199917,0.016058,0,0.000000,0.000000,0.000000,0,1,4.633376,9.831215,-0.016131,-4.645211,-0.395121,-0.036189,0.032891,0.004253,0.234050,-0.005303,2.466192
15:45:35.881,1.700,34,9.845236,2.522454,-4.659245,1,0.000000,0.000000,1.822312,-0.011408,0.196339,-0.027921,0,0.000000,0.000000,0.000000,0,1,4.694509,9.812864,-0.018577,-4.643717,-0.404552,-0.039458,0.032109,0.003806,0.232973,-0.005949,2.541285
15:45:35.931,1.750,35,9.826057,2.594957,-4.659914,1,0.000000,0.000000,1.836213,0.056195,0.187431,0.004623,0,0.000000,0.000000,0.000000,0,1,4.634095,9.794226,-0.018130,-4.642042,-0.413896,-0.039471,0.032061,0.005261,0.231708,-0.005655,2.613343
15:45:35.981,1.800,36,9.806335,2.667314,-4.660603,1,0.000000,0.000000,1.849016,0.010983,0.246979,-0.012886,0,0.000000,0.000000,0.000000,0,1,4.730386,9.772529,-0.019966,-4.668697,-0.425898,-0.042209,0.000020,0.005415,0.232121,-0.006035,2.687505
15:45:36.031,1.850,37,9.786072,2.739521,-4.661311,1,0.000000,0.000000,1.836770,-0.006330,0.206093,-0.027551,0,0.000000,0.000000,0.000000,0,1,4.678823,9.752224,-0.022607,-4.668845,-0.435807,-0.045416,-0.000758,0.005106,0.231436,-0.006600,2.762346
15:45:36.081,1.900,38,9.765268,2.811575,-4.662037,1,0.000000,0.000000,1.847798,0.010741,0.270696,0.003643,0,0.000000,0.000000,0.000000,0,1,4.664885,9.728230,-0.024828,-4.668814,-0.448983,-0.048310,-0.000854,0.005251,0.232442,-0.006338,2.836652
15:45:36.131,1.950,39,9.743925,2.883469,-4.662782,1,0.000000,0.000000,1.843706,0.047083,0.245304,0.018638,0,0.000000,0.000000,0.000000,0,1,4.593761,9.704690,-0.025289,-4.645799,-0.461157,-0.049210,0.024900,0.006297,0.232764,-0.005555,2.909072
15:45:36.181,2.000,40,9.722043,2.955202,-4.663547,1,0.000000,0.000000,1.858645,-0.033214,0.234664,-0.024377,0,0.000000,0.000000,0.000000,0,1,4.687301,9.681424,-0.029844,-4.644689,-0.472231,-0.054174,0.024220,0.005333,0.232810,-0.006013,2.985382
15:45:36.232,2.050,41,9.699624,3.026769,-4.664329,1,0.000000,0.000000,1.885016,0.031051,0.204542,0.030566,0,0.000000,0.000000,0.000000,0,1,4.722239,9.658891,-0.031168,-4.643204,-0.482171,-0.056053,0.024725,0.005945,0.232137,-0.005144,3.058280
15:45:36.282,2.100,42,9.676669,3.098165,-4.665131,1,0.000000,0.000000,1.905829,0.031811,0.213109,0.023165,0,0.000000,0.000000,0.000000,0,1,4.669929,9.635397,-0.032587,-4.650167,-0.492481,-0.058177,0.015697,0.006547,0.231695,-0.004549,3.131060
15:45:36.332,2.150,43,9.653180,3.169387,-4.665951,1,0.000000,0.000000,1.890882,-0.015888,0.197824,-0.041682,0,0.000000,0.000000,0.000000,0,1,4.608966,9.612458,-0.036634,-4.649645,-0.501748,-0.062364,0.014709,0.006037,0.230925,-0.005390,3.206321
15:45:36.382,2.200,44,9.629158,3.240430,-4.666790,1,0.000000,0.000000,1.858508,-0.009324,0.260420,0.004853,0,0.000000,0.000000,0.000000,0,1,4.658375,9.585527,-0.040840,-4.648836,-0.514239,-0.066329,0.014656,0.005696,0.231580,-0.005163,3.281609
15:45:36.432,2.250,45,9.604604,3.311292,-4.667648,1,0.000000,0.000000,1.871590,0.013101,0.197169,-0.015800,0,0.000000,0.000000,0.000000,0,1,4.686449,9.561457,-0.043622,-4.659495,-0.523749,-0.068858,0.001528,0.005857,0.230832,-0.005478,3.355201
15:45:36.482,2.300,46,9.579519,3.381967,-4.668524,1,0.000000,0.000000,1.916291,-0.031374,0.222800,0.019743,0,0.000000,0.000000,0.000000,0,1,4.639062,9.535680,-0.049277,-4.659250,-0.534018,-0.074255,0.001747,0.005064,0.230661,-0.004943,3.431536
15:45:36.532,2.350,47,9.553906,3.452452,-4.669418,1,0.000000,0.000000,1.969740,0.014443,0.279835,0.036164,0,0.000000,0.000000,0.000000,0,1,4.633965,9.505731,-0.052838,-4.658849,-0.547231,-0.078443,0.002330,0.005260,0.231686,-0.004090,3.505637
15:45:36.582,2.400,48,9.527764,3.522742,-4.670331,1,0.000000,0.000000,1.924463,0.011515,0.225257,-0.030550,0,0.000000,0.000000,0.000000,0,1,4.667100,9.478445,-0.056434,-4.661347,-0.557927,-0.081849,-0.001099,0.005388,0.231555,-0.004646,3.579528
15:45:36.632,2.450,49,9.501097,3.592835,-4.671262,1,0.000000,0.000000,1.949482,-0.021070,0.194066,0.032311,0,0.000000,0.000000,0.000000,0,1,4.653952,9.452773,-0.062014,-4.661153,-0.566723,-0.086853,-0.000645,0.004858,0.230805,-0.003910,3.655182
15:45:36.682,2.500,50,9.473905,3.662725,-4.672212,1,0.000000,0.000000,1.945314,-0.068723,0.215511,0.045910,0,0.000000,0.000000,0.000000,0,1,4.630303,9.425644,-0.070991,-4.660807,-0.576161,-0.094311,0.000116,0.003416,0.230505,-0.002938,3.734046
15:45:36.732,2.550,51,9.446190,3.732410,-4.673179,1,0.000000,0.000000,1.952921,0.018993,0.221882,0.020610,0,0.000000,0.000000,0.000000,0,1,4.653363,9.397008,-0.074746,-4.658496,-0.586637,-0.097613,0.002813,0.003715,0.230339,-0.002471,3.807502
15:45:36.782,2.600,52,9.417954,3.801884,-4.674166,1,0.000000,0.000000,1.946942,-0.037783,0.204050,0.027180,0,0.000000,0.000000,0.000000,0,1,4.661203,9.369443,-0.082247,-4.658157,-0.595756,-0.103455,0.003212,0.002932,0.229843,-0.001915,3.884467
15:45:36.832,2.650,53,9.389197,3.871145,-4.675170,1,0.000000,0.000000,1.943492,-0.029689,0.211265,-0.025499,0,0.000000,0.000000,0.000000,0,1,4.727657,9.340883,-0.089549,-4.658177,-0.605305,-0.108921,0.002686,0.002328,0.229499,-0.002349,3.961025
15:45:36.883,2.700,54,9.359923,3.940188,-4.676192,1,0.000000,0.000000,1.955189,-0.015051,0.203466,0.010051,0,0.000000,0.000000,0.000000,0,1,4.676949,9.312262,-0.096066,-4.663462,-0.614554,-0.113717,-0.003438,0.002012,0.229026,-0.002165,4.036555
15:45:36.933,2.750,55,9.330131,4.009009,-4.677232,1,0.000000,0.000000,1.963159,0.002809,0.229954,-0.042751,0,0.000000,0.000000,0.000000,0,1,4.750563,9.281197,-0.101812,-4.663904,-0.625226,-0.117973,-0.004222,0.002026,0.229042,-0.002886,4.111134
15:45:36.983,2.800,56,9.299825,4.077605,-4.678291,1,0.000000,0.000000,1.988887,0.021447,0.224582,-0.013890,0,0.000000,0.000000,0.000000,0,1,4.734799,9.249814,-0.106420,-4.664200,-0.635707,-0.121542,-0.004556,0.002367,0.228964,-0.003078,4.184347
15:45:37.033,2.850,57,9.269005,4.145971,-4.679367,1,0.000000,0.000000,2.003127,-0.007055,0.253499,-0.002099,0,0.000000,0.000000,0.000000,0,1,4.674163,9.216101,-0.113514,-4.667248,-0.647248,-0.126934,-0.007892,0.002205,0.229387,-0.003081,4.259831
15:45:37.083,2.900,58,9.237673,4.214104,-4.680461,1,0.000000,0.000000,1.978711,0.004770,0.241449,-0.017553,0,0.000000,0.000000,0.000000,0,1,4.730782,9.182573,-0.119901,-4.667739,-0.658431,-0.131381,-0.008273,0.002248,0.229592,-0.003325,4.334374
15:45:37.133,2.950,59,9.205832,4.282000,-4.681573,1,0.000000,0.000000,1.982103,0.047061,0.239097,0.012555,0,0.000000,0.000000,0.000000,0,1,4.701749,9.148241,-0.123366,-4.668044,-0.669922,-0.133794,-0.008181,0.002995,0.229750,-0.003062,4.405763
15:45:37.183,3.000,60,9.173483,4.349655,-4.682703,1,0.000000,0.000000,2.017321,-0.011791,0.230882,-0.042049,0,0.000000,0.000000,0.000000,0,1,4.645624,9.114551,-0.131297,-4.662057,-0.680247,-0.139347,-0.001388,0.002753,0.229769,-0.003651,4.481388
15:45:37.233,3.050,61,9.140628,4.417066,-4.683850,1,0.000000,0.000000,2.028929,0.026456,0.249993,-0.002172,0,0.000000,0.000000,0.000000,0,1,4.716091,9.078485,-0.136796,-4.662122,-0.691844,-0.143376,-0.001549,0.003135,0.230095,-0.003627,4.554338
15:45:37.283,3.100,62,9.107268,4.484228,-4.685015,1,0.000000,0.000000,2.023430,-0.010248,0.244910,-0.052606,0,0.000000,0.000000,0.000000,0,1,4.793651,9.042633,-0.145287,-4.662538,-0.702828,-0.149074,-0.002485,0.002922,0.230330,-0.004399,4.630020
15:45:37.333,3.150,63,9.073406,4.551138,-4.686197,1,0.000000,0.000000,2.040058,0.037558,0.151730,0.006297,0,0.000000,0.000000,0.000000,0,1,4.673024,9.013019,-0.149250,-4.665611,-0.709758,-0.151611,-0.005965,0.003464,0.229102,-0.004253,4.700821
15:45:37.383,3.200,64,9.039043,4.617792,-4.687397,1,0.000000,0.000000,2.053528,0.041064,0.200710,0.019661,0,0.000000,0.000000,0.000000,0,1,4.695489,8.979100,-0.153626,-4.665772,-0.719040,-0.154644,-0.005841,0.004042,0.228665,-0.003888,4.771843
15:45:37.433,3.250,65,9.004182,4.684186,-4.688615,1,0.000000,0.000000,2.030464,0.003097,0.194144,0.014936,0,0.000000,0.000000,0.000000,0,1,4.699684,8.945696,-0.161138,-4.665946,-0.727704,-0.159186,-0.005761,0.004028,0.228142,-0.003605,4.845730
15:45:37.483,3.300,66,8.968824,4.750317,-4.689849,1,0.000000,0.000000,2.055025,-0.011894,0.225730,0.003671,0,0.000000,0.000000,0.000000,0,1,4.708514,8.909454,-0.170504,-4.678446,-0.737592,-0.165055,-0.019743,0.003790,0.228106,-0.003575,4.921191
15:45:37.533,3.350,67,8.932971,4.816180,-4.691101,1,0.000000,0.000000,2.064706,-0.016350,0.249505,-0.022498,0,0.000000,0.000000,0.000000,0,1,4.637082,8.870798,-0.180842,-4.679545,-0.748515,-0.171514,-0.020173,0.003494,0.228421,-0.003851,4.997422
15:45:37.584,3.400,68,8.896626,4.881772,-4.692371,1,0.000000,0.000000,2.069991,-0.040835,0.217420,0.000144,0,0.000000,0.000000,0.000000,0,1,4.732461,8.834640,-0.193151,-4.680533,-0.757568,-0.178823,-0.020310,0.002852,0.228261,-0.003794,5.075316
15:45:37.634,3.450,69,8.859790,4.947090,-4.693657,1,0.000000,0.000000,2.090074,0.029417,0.202549,0.016682,0,0.000000,0.000000,0.000000,0,1,4.691700,8.798350,-0.199601,-4.684392,-0.766639,-0.182778,-0.023587,0.003231,0.227894,-0.003522,5.147067
15:45:37.684,3.500,70,8.822466,5.012130,-4.694960,1,0.000000,0.000000,2.068649,0.020202,0.204577,-0.006967,0,0.000000,0.000000,0.000000,0,1,4.723565,8.761551,-0.207069,-4.685594,-0.775821,-0.186979,-0.023806,0.003470,0.227565,-0.003570,5.219563
15:45:37.734,3.550,71,8.784655,5.076888,-4.696281,1,0.000000,0.000000,2.088963,0.045831,0.215433,-0.034109,0,0.000000,0.000000,0.000000,0,1,4.666547,8.722962,-0.212650,-4.686972,-0.785740,-0.190289,-0.024385,0.004058,0.227397,-0.003990,5.289905
15:45:37.784,3.600,72,8.746359,5.141360,-4.697618,1,0.000000,0.000000,2.077688,0.033211,0.223823,0.009738,0,0.000000,0.000000,0.000000,0,1,4.650859,8.683306,-0.219644,-4.677320,-0.795977,-0.194195,-0.012163,0.004458,0.227348,-0.003741,5.361413
15:45:37.834,3.650,73,8.707582,5.205543,-4.698972,1,0.000000,0.000000,2.071682,0.015879,0.246491,-0.016297,0,0.000000,0.000000,0.000000,0,1,4.694449,8.641350,-0.228748,-4.677998,-0.807113,-0.199159,-0.012501,0.004612,0.227607,-0.003909,5.434735
15:45:37.884,3.700,74,8.668325,5.269433,-4.700343,1,0.000000,0.000000,2.108290,0.030806,0.202311,-0.048356,0,0.000000,0.000000,0.000000,0,1,4.662164,8.602647,-0.236049,-4.678883,-0.816143,-0.203213,-0.013251,0.004961,0.227269,-0.004496,5.505916
15:45:37.934,3.750,75,8.628589,5.333027,-4.701731,1,0.000000,0.000000,2.107689,0.059382,0.217803,-0.075300,0,0.000000,0.000000,0.000000,0,1,4.671990,8.561583,-0.241152,-4.677678,-0.826298,-0.206101,-0.011765,0.005677,0.227145,-0.005407,5.574634
15:45:37.984,3.800,76,8.588379,5.396320,-4.703135,1,0.000000,0.000000,2.156196,0.005493,0.203470,-0.015515,0,0.000000,0.000000,0.000000,0,1,4.641078,8.522252,-0.251230,-4.678323,-0.834795,-0.211833,-0.012150,0.005675,0.226837,-0.005537,5.647992
15:45:38.034,3.850,77,8.547695,5.459311,-4.704556,1,0.000000,0.000000,2.140270,-0.056747,0.232096,0.001066,0,0.000000,0.000000,0.000000,0,1,4.673448,8.480843,-0.267987,-4.678902,-0.843908,-0.220738,-0.012349,0.004875,0.226905,-0.005453,5.727746
15:45:38.084,3.900,78,8.506540,5.521994,-4.705993,1,0.000000,0.000000,2.150781,-0.027096,0.232355,0.007738,0,0.000000,0.000000,0.000000,0,1,4.632513,8.438447,-0.282344,-4.665860,-0.853352,-0.228339,0.002944,0.004470,0.226974,-0.005215,5.804876
15:45:38.134,3.950,79,8.464916,5.584366,-4.707446,1,0.000000,0.000000,2.162469,0.009939,0.214102,-0.008693,0,0.000000,0.000000,0.000000,0,1,4.722102,8.396694,-0.293150,-4.665736,-0.862364,-0.234047,0.002645,0.004538,0.226813,-0.005258,5.878060
15:45:38.184,4.000,80,8.422826,5.646425,-4.708916,1,0.000000,0.000000,2.191121,-0.029913,0.295640,-0.003880,0,0.000000,0.000000,0.000000,0,1,4.741733,8.347207,-0.309681,-4.665603,-0.874486,-0.243045,0.002398,0.004113,0.227663,-0.005241,5.956743
15:45:38.234,4.050,81,8.380272,5.708166,-4.710402,1,0.000000,0.000000,2.174007,0.023155,0.210924,0.004993,0,0.000000,0.000000,0.000000,0,1,4.664511,8.304550,-0.319776,-4.665164,-0.883460,-0.248199,0.002559,0.004345,0.227458,-0.005117,6.028587
15:45:38.284,4.100,82,8.337256,5.769585,-4.711904,1,0.000000,0.000000,2.218278,0.006502,0.239358,0.044864,0,0.000000,0.000000,0.000000,0,1,4.630677,8.258906,-0.332368,-4.664815,-0.893252,-0.254955,0.002824,0.004371,0.227602,-0.004521,6.102638
15:45:38.335,4.150,83,8.293782,5.830680,-4.713422,1,0.000000,0.000000,2.203273,0.012616,0.244967,0.015464,0,0.000000,0.000000,0.000000,0,1,4.788187,8.212077,-0.344788,-4.664580,-0.903495,-0.261373,0.002815,0.004469,0.227809,-0.004285,6.176202
15:45:38.385,4.200,84,8.249850,5.891448,-4.714957,1,0.000000,0.000000,2.185486,-0.036618,0.276263,0.050344,0,0.000000,0.000000,0.000000,0,1,4.656851,8.162520,-0.363241,-4.662033,-0.914594,-0.270399,0.005611,0.003986,0.228379,-0.003639,6.255522
15:45:38.435,4.250,85,8.205465,5.951883,-4.716507,1,0.000000,0.000000,2.203062,-0.044911,0.200928,0.037612,0,0.000000,0.000000,0.000000,0,1,4.716230,8.120442,-0.381439,-4.661577,-0.921910,-0.278864,0.005842,0.003417,0.228059,-0.003164,6.334131
15:45:38.485,4.300,86,8.160627,6.011984,-4.718072,1,0.000000,0.000000,2.180444,0.047632,0.205446,0.005807,0,0.000000,0.000000,0.000000,0,1,4.725098,8.075539,-0.390403,-4.661245,-0.930967,-0.282847,0.005777,0.003926,0.227800,-0.003062,6.403205
15:45:38.535,4.350,87,8.115341,6.071747,-4.719654,1,0.000000,0.000000,2.220340,0.039107,0.206417,-0.012652,0,0.000000,0.000000,0.000000,0,1,4.742633,8.030260,-0.400501,-4.684627,-0.939695,-0.287613,-0.021236,0.004325,0.227557,-0.003280,6.472902
15:45:38.585,4.400,88,8.069607,6.131169,-4.721251,1,0.000000,0.000000,2.210839,-0.003681,0.255988,-0.017380,0,0.000000,0.000000,0.000000,0,1,4.613687,7.980169,-0.416548,-4.685752,-0.950150,-0.295045,-0.021536,0.004236,0.227876,-0.003437,6.548424
15:45:38.635,4.450,89,8.023430,6.190245,-4.722863,1,0.000000,0.000000,2.229565,0.013381,0.236708,-0.008048,0,0.000000,0.000000,0.000000,0,1,4.703677,7.931263,-0.430681,-4.686855,-0.959843,-0.301565,-0.021754,0.004337,0.227974,-0.003488,6.621665
15:45:38.685,4.500,90,7.976811,6.248973,-4.724491,1,0.000000,0.000000,2.242637,0.033392,0.202251,-0.020958,0,0.000000,0.000000,0.000000,0,1,4.781334,7.885181,-0.442138,-4.715027,-0.968163,-0.306737,-0.052688,0.004656,0.227691,-0.003799,6.691745
15:45:38.735,4.550,91,7.929753,6.307350,-4.726135,1,0.000000,0.000000,2.227185,0.067444,0.248093,0.055062,0,0.000000,0.000000,0.000000,0,1,4.774176,7.832769,-0.451178,-4.717429,-0.979269,-0.310916,-0.052333,0.005339,0.227913,-0.003167,6.759229
15:45:38.785,4.600,92,7.882259,6.365372,-4.727793,1,0.000000,0.000000,2.251561,0.012947,0.154717,0.045963,0,0.000000,0.000000,0.000000,0,1,4.685504,7.791585,-0.464242,-4.719830,-0.985029,-0.316352,-0.052015,0.005421,0.227126,-0.002644,6.830220
15:45:38.835,4.650,93,7.834332,6.423036,-4.729467,1,0.000000,0.000000,2.248536,0.026414,0.175219,-0.043831,0,0.000000,0.000000,0.000000,0,1,4.745962,7.747447,-0.476551,-4.729384,-0.991990,-0.321449,-0.060207,0.005644,0.226574,-0.003107,6.900134
15:45:38.885,4.700,94,7.785973,6.480338,-4.731156,1,0.000000,0.000000,2.244472,0.051669,0.238208,0.009747,0,0.000000,0.000000,0.000000,0,1,4.726779,7.695110,-0.487841,-4.732348,-1.002311,-0.326365,-0.060247,0.006128,0.226696,-0.002973,6.968772
15:45:38.935,4.750,95,7.737187,6.537276,-4.732859,1,0.000000,0.000000,2.274702,-0.046222,0.179384,-0.061517,0,0.000000,0.000000,0.000000,0,1,4.802587,7.651602,-0.509126,-4.735616,-1.008106,-0.335092,-0.060944,0.005583,0.226204,-0.003576,7.046923
15:45:38.985,4.800,96,7.687975,6.593847,-4.734578,1,0.000000,0.000000,2.299280,-0.039828,0.188644,0.013194,0,0.000000,0.000000,0.000000,0,1,4.821075,7.606570,-0.530339,-4.762446,-1.014246,-0.343870,-0.087982,0.005115,0.225816,-0.003505,7.124705
15:45:39.035,4.850,97,7.638340,6.650046,-4.736311,1,0.000000,0.000000,2.290224,-0.048719,0.244911,0.006687,0,0.000000,0.000000,0.000000,0,1,4.762680,7.554874,-0.554559,-4.766811,-1.022873,-0.353909,-0.088069,0.004566,0.226011,-0.003402,7.205154
15:45:39.086,4.900,98,7.588286,6.705872,-4.738059,1,0.000000,0.000000,2.306636,-0.015270,0.207194,-0.041213,0,0.000000,0.000000,0.000000,0,1,4.806389,7.506303,-0.574265,-4.771376,-1.030203,-0.361911,-0.088582,0.004365,0.225821,-0.003780,7.280674
15:45:39.136,4.950,99,7.537815,6.761320,-4.739821,1,0.000000,0.000000,2.320865,0.023038,0.245184,-0.016633,0,0.000000,0.000000,0.000000,0,1,4.748562,7.451733,-0.590868,-4.767971,-1.039819,-0.368929,-0.079948,0.004552,0.226015,-0.003875,7.352746
15:45:39.186,5.000,100,7.486929,6.816388,-4.741598,1,0.000000,0.000000,2.314828,0.012688,0.213739,-0.024330,0,0.000000,0.000000,0.000000,0,1,4.778826,7.400775,-0.608162,-4.772048,-1.047870,-0.375831,-0.080314,0.004633,0.225893,-0.004075,7.425112
15:45:39.236,5.050,101,7.435632,6.871072,-4.743390,1,0.000000,0.000000,2.320782,0.051119,0.211958,-0.018440,0,0.000000,0.000000,0.000000,0,1,4.755439,7.348487,-0.621066,-4.776126,-1.056475,-0.381001,-0.080644,0.005088,0.225757,-0.004214,7.492716
15:45:39.286,5.100,102,7.383927,6.925370,-4.745195,1,0.000000,0.000000,2.343984,0.028339,0.190462,-0.052985,0,0.000000,0.000000,0.000000,0,1,4.830468,7.299089,-0.636382,-4.794865,-1.063541,-0.387021,-0.097708,0.005314,0.225414,-0.004739,7.562391
15:45:39.336,5.150,103,7.331816,6.979278,-4.747015,1,0.000000,0.000000,2.333629,0.019036,0.149904,-0.009700,0,0.000000,0.000000,0.000000,0,1,4.819455,7.254639,-0.651889,-4.799774,-1.068697,-0.392644,-0.097985,0.005446,0.224688,-0.004786,7.631740
15:45:39.386,5.200,104,7.279302,7.032794,-4.748849,1,0.000000,0.000000,2.372645,-0.029313,0.230698,0.007021,0,0.000000,0.000000,0.000000,0,1,4.716971,7.201347,-0.676253,-4.804633,-1.076349,-0.402207,-0.098124,0.005115,0.224745,-0.004675,7.709643
15:45:39.436,5.250,105,7.226389,7.085914,-4.750697,1,0.000000,0.000000,2.338209,0.019021,0.254250,-0.017622,0,0.000000,0.000000,0.000000,0,1,4.735822,7.143157,-0.695748,-4.788265,-1.086198,-0.409736,-0.074310,0.005246,0.225023,-0.004715,7.782198
15:45:39.486,5.300,106,7.173079,7.138636,-4.752558,1,0.000000,0.000000,2.358130,0.008590,0.277863,-0.045897,0,0.000000,0.000000,0.000000,0,1,4.699969,7.081816,-0.717733,-4.792127,-1.096765,-0.418343,-0.074872,0.005277,0.225517,-0.005095,7.856999
15:45:39.536,5.350,107,7.119376,7.190956,-4.754434,1,0.000000,0.000000,2.368075,0.025489,0.194222,0.005989,0,0.000000,0.000000,0.000000,0,1,4.761504,7.030115,-0.735213,-4.795835,-1.103801,-0.424737,-0.075035,0.005465,0.225228,-0.004993,7.926780
15:45:39.586,5.400,108,7.065282,7.242872,-4.756323,1,0.000000,0.000000,2.359058,0.010987,0.254445,-0.036626,0,0.000000,0.000000,0.000000,0,1,4.823467,6.970757,-0.756923,-4.806590,-1.113348,-0.432829,-0.083333,0.005515,0.225496,-0.005306,8.000511
15:45:39.636,5.450,109,7.010800,7.294380,-4.758225,1,0.000000,0.000000,2.402754,-0.043952,0.263795,0.015686,0,0.000000,0.000000,0.000000,0,1,4.652198,6.911614,-0.786539,-4.810694,-1.121924,-0.443914,-0.083437,0.005066,0.225844,-0.005117,8.081698
15:45:39.686,5.500,110,6.955934,7.345478,-4.760141,1,0.000000,0.000000,2.372785,-0.034641,0.266619,0.044607,0,0.000000,0.000000,0.000000,0,1,4.758280,6.851359,-0.815586,-4.814690,-1.131023,-0.454403,-0.083292,0.004708,0.226211,-0.004675,8.161916
15:45:39.736,5.550,111,6.900686,7.396163,-4.762070,1,0.000000,0.000000,2.384779,-0.005654,0.206127,-0.003537,0,0.000000,0.000000,0.000000,0,1,4.777294,6.797640,-0.839159,-4.806838,-1.137866,-0.462541,-0.069907,0.004615,0.226032,-0.004621,8.236088
15:45:39.786,5.600,112,6.845060,7.446431,-4.764013,1,0.000000,0.000000,2.410177,-0.047280,0.219134,-0.006375,0,0.000000,0.000000,0.000000,0,1,4.810036,6.743368,-0.869167,-4.810345,-1.144276,-0.472971,-0.070151,0.004156,0.225971,-0.004637,8.316349
15:45:39.837,5.650,113,6.789058,7.496281,-4.765969,1,0.000000,0.000000,2.447282,0.016177,0.203335,-0.032598,0,0.000000,0.000000,0.000000,0,1,4.671665,6.688568,-0.890572,-4.813958,-1.150896,-0.480547,-0.070602,0.004262,0.225772,-0.004879,8.387592
15:45:39.887,5.700,114,6.732685,7.545709,-4.767937,1,0.000000,0.000000,2.419950,-0.003861,0.156477,-0.011788,0,0.000000,0.000000,0.000000,0,1,4.775325,6.640531,-0.913290,-4.805321,-1.155287,-0.487877,-0.057087,0.004191,0.225170,-0.004896,8.459583
15:45:39.937,5.750,115,6.675943,7.594713,-4.769919,1,0.000000,0.000000,2.437150,0.025013,0.229327,0.028050,0,0.000000,0.000000,0.000000,0,1,4.756380,6.581212,-0.935211,-4.808078,-1.163335,-0.495483,-0.057091,0.004370,0.225205,-0.004615,8.530535
15:45:39.987,5.800,116,6.618835,7.643289,-4.771913,1,0.000000,0.000000,2.444730,0.010178,0.236390,-0.010883,0,0.000000,0.000000,0.000000,0,1,4.820131,6.521095,-0.959836,-4.810960,-1.171338,-0.503946,-0.057370,0.004420,0.225301,-0.004668,8.603769
15:45:40.037,5.850,117,6.561364,7.691436,-4.773920,1,0.000000,0.000000,2.463156,-0.006576,0.283833,-0.054249,0,0.000000,0.000000,0.000000,0,1,4.761065,6.454671,-0.989101,-4.798712,-1.180930,-0.514240,-0.040661,0.004327,0.225797,-0.005031,8.681228
15:45:40.087,5.900,118,6.503535,7.739150,-4.775939,1,0.000000,0.000000,2.449835,0.000140,0.274098,0.046076,0,0.000000,0.000000,0.000000,0,1,4.663686,6.388864,-1.017566,-4.800596,-1.190330,-0.523960,-0.040549,0.004292,0.226203,-0.004607,8.757501
15:45:40.137,5.950,119,6.445349,7.786428,-4.777971,1,0.000000,0.000000,2.443463,-0.018409,0.197270,-0.000015,0,0.000000,0.000000,0.000000,0,1,4.737966,6.334165,-1.045980,-4.802613,-1.196035,-0.532888,-0.040745,0.004102,0.225962,-0.004569,8.833143
15:45:40.187,6.000,120,6.386810,7.833269,-4.780015,1,0.000000,0.000000,2.436312,-0.023453,0.191809,-0.040766,0,0.000000,0.000000,0.000000,0,1,4.796661,6.280167,-1.075312,-4.802441,-1.201457,-0.541857,-0.038594,0.003875,0.225680,-0.004857,8.909248
15:45:40.237,6.050,121,6.327923,7.879669,-4.782072,1,0.000000,0.000000,2.478256,-0.021832,0.148811,0.039321,0,0.000000,0.000000,0.000000,0,1,4.695832,6.231977,-1.103025,-4.804245,-1.204678,-0.550153,-0.038531,0.003664,0.225050,-0.004500,8.983234
15:45:40.287,6.100,122,6.268689,7.925626,-4.784140,1,0.000000,0.000000,2.462721,0.031292,0.308397,0.005506,0,0.000000,0.000000,0.000000,0,1,4.802586,6.158394,-1.130379,-4.806144,-1.216084,-0.559337,-0.038683,0.003889,0.225727,-0.004419,9.056703
15:45:40.337,6.150,123,6.209112,7.971137,-4.786221,1,0.000000,0.000000,2.464540,-0.041532,0.229679,-0.000331,0,0.000000,0.000000,0.000000,0,1,4.772394,6.098831,-1.165308,-4.797755,-1.222522,-0.570064,-0.027194,0.003522,0.225759,-0.004353,9.137117
15:45:40.387,6.200,124,6.149195,8.016199,-4.788313,1,0.000000,0.000000,2.505626,0.034441,0.209323,0.008574,0,0.000000,0.000000,0.000000,0,1,4.804392,6.038549,-1.188798,-4.799082,-1.229313,-0.577355,-0.027324,0.003770,0.225628,-0.004251,9.205669
15:45:40.437,6.250,125,6.088943,8.060811,-4.790417,1,0.000000,0.000000,2.494323,-0.003915,0.262823,-0.031268,0,0.000000,0.000000,0.000000,0,1,4.697998,5.971802,-1.220700,-4.800541,-1.237706,-0.587366,-0.027729,0.003709,0.225923,-0.004463,9.282256
15:45:40.487,6.300,126,6.028358,8.104969,-4.792533,1,0.000000,0.000000,2.527853,0.035703,0.156650,0.060234,0,0.000000,0.000000,0.000000,0,1,4.772811,5.918508,-1.242385,-4.793350,-1.242071,-0.593629,-0.018012,0.003961,0.225377,-0.003934,9.348000
15:45:40.537,6.350,127,5.967444,8.148672,-4.794660,1,0.000000,0.000000,2.510530,-0.059213,0.239911,-0.005365,0,0.000000,0.000000,0.000000,0,1,4.835461,5.857025,-1.282361,-4.794259,-1.248136,-0.605636,-0.018219,0.003467,0.225491,-0.003945,9.431679
15:45:40.588,6.400,128,5.906204,8.191916,-4.796799,1,0.000000,0.000000,2.534422,0.055093,0.145638,-0.012970,0,0.000000,0.000000,0.000000,0,1,4.772208,5.803954,-1.301359,-4.795203,-1.252419,-0.610847,-0.018478,0.003867,0.224872,-0.004014,9.493826
15:45:40.638,6.450,129,5.844641,8.234699,-4.798948,1,0.000000,0.000000,2.507531,0.027055,0.211232,-0.001863,0,0.000000,0.000000,0.000000,0,1,4.892288,5.742100,-1.327976,-4.823926,-1.259162,-0.618501,-0.050141,0.004046,0.224767,-0.004083,9.563257
15:45:40.688,6.500,130,5.782760,8.277019,-4.801109,1,0.000000,0.000000,2.530825,0.010620,0.232157,-0.062140,0,0.000000,0.000000,0.000000,0,1,4.841135,5.677535,-1.358493,-4.826599,-1.266233,-0.627475,-0.050721,0.004096,0.224823,-0.004521,9.636120
15:45:40.738,6.550,131,5.720563,8.318873,-4.803281,1,0.000000,0.000000,2.552442,0.047199,0.215955,-0.024081,0,0.000000,0.000000,0.000000,0,1,4.814391,5.613277,-1.383082,-4.829201,-1.273231,-0.634679,-0.051079,0.004422,0.224756,-0.004667,9.702583
15:45:40.788,6.600,132,5.658054,8.360260,-4.805464,1,0.000000,0.000000,2.566040,-0.019329,0.243561,0.008009,0,0.000000,0.000000,0.000000,0,1,4.887547,5.547767,-1.419642,-4.847858,-1.279798,-0.645413,-0.069497,0.004244,0.224898,-0.004621,9.780615
15:45:40.838,6.650,133,5.595236,8.401176,-4.807658,1,0.000000,0.000000,2.553125,-0.025927,0.190302,-0.018498,0,0.000000,0.000000,0.000000,0,1,4.869625,5.490503,-1.455036,-4.851376,-1.284075,-0.655144,-0.069816,0.004019,0.224639,-0.004724,9.856866
15:45:40.888,6.700,134,5.532114,8.441620,-4.809862,1,0.000000,0.000000,2.576982,0.004964,0.179612,-0.007026,0,0.000000,0.000000,0.000000,0,1,4.750505,5.433095,-1.485547,-4.854879,-1.288379,-0.663465,-0.070067,0.004026,0.224306,-0.004740,9.927762
15:45:40.938,6.750,135,5.468690,8.481588,-4.812077,1,0.000000,0.000000,2.576520,0.016103,0.232541,-0.016791,0,0.000000,0.000000,0.000000,0,1,4.846949,5.366599,-1.517498,-4.855110,-1.295176,-0.672509,-0.066631,0.004114,0.224366,-0.004818,9.999701
15:45:40.988,6.800,136,5.404969,8.521080,-4.814302,1,0.000000,0.000000,2.580888,0.038304,0.224861,0.029019,0,0.000000,0.000000,0.000000,0,1,4.732049,5.299784,-1.546005,-4.858358,-1.302121,-0.680479,-0.066662,0.004364,0.224370,-0.004574,10.067731
15:45:41.038,6.850,137,5.340953,8.560093,-4.816538,1,0.000000,0.000000,2.597573,0.032065,0.196526,0.041355,0,0.000000,0.000000,0.000000,0,1,4.735000,5.237437,-1.574375,-4.861562,-1.307590,-0.688164,-0.066593,0.004565,0.224168,-0.004246,10.135096
15:45:41.088,6.900,138,5.276647,8.598624,-4.818783,1,0.000000,0.000000,2.570590,0.013233,0.233698,0.001442,0,0.000000,0.000000,0.000000,0,1,4.815005,5.169908,-1.608158,-4.850460,-1.314439,-0.697331,-0.050443,0.004627,0.224237,-0.004164,10.207389
15:45:41.138,6.950,139,5.212054,8.636671,-4.821039,1,0.000000,0.000000,2.604384,-0.007319,0.260663,0.037943,0,0.000000,0.000000,0.000000,0,1,4.760726,5.098868,-1.647203,-4.852879,-1.321611,-0.708193,-0.050396,0.004542,0.224497,-0.003867,10.284546
15:45:41.188,7.000,140,5.147177,8.674232,-4.823304,1,0.000000,0.000000,2.587974,-0.003792,0.214026,-0.002838,0,0.000000,0.000000,0.000000,0,1,4.752228,5.034792,-1.683600,-4.855400,-1.327075,-0.717721,-0.050583,0.004483,0.224423,-0.003860,10.358492
15:45:41.238,7.050,141,5.082021,8.711306,-4.825580,1,0.000000,0.000000,2.580807,-0.016711,0.210267,-0.006447,0,0.000000,0.000000,0.000000,0,1,4.839719,4.971790,-1.722345,-4.852675,-1.332147,-0.727647,-0.044829,0.004333,0.224323,-0.003863,10.434269
15:45:41.288,7.100,142,5.016588,8.747889,-4.827865,1,0.000000,0.000000,2.598226,0.006245,0.242489,0.064043,0,0.000000,0.000000,0.000000,0,1,4.815718,4.901962,-1.759707,-4.854749,-1.338926,-0.737488,-0.044620,0.004347,0.224450,-0.003395,10.508256
15:45:41.338,7.150,143,4.950883,8.783981,-4.830159,1,0.000000,0.000000,2.646002,-0.041743,0.217893,0.018894,0,0.000000,0.000000,0.000000,0,1,4.921709,4.838661,-1.803993,-4.856921,-1.343082,-0.748996,-0.044651,0.004027,0.224404,-0.003242,10.588602
15:45:41.388,7.200,144,4.884910,8.819578,-4.832463,1,0.000000,0.000000,2.633777,-0.020817,0.171344,0.001717,0,0.000000,0.000000,0.000000,0,1,4.824025,4.781590,-1.842620,-4.848991,-1.345940,-0.758445,-0.033288,0.003855,0.224039,-0.003180,10.662711
15:45:41.439,7.250,145,4.818672,8.854679,-4.834776,1,0.000000,0.000000,2.666912,0.012863,0.278864,-0.035390,0,0.000000,0.000000,0.000000,0,1,4.802183,4.704532,-1.882605,-4.850739,-1.353691,-0.769279,-0.033634,0.003917,0.224414,-0.003398,10.737903
15:45:41.489,7.300,146,4.752172,8.889282,-4.837098,1,0.000000,0.000000,2.668425,-0.039227,0.185131,-0.001320,0,0.000000,0.000000,0.000000,0,1,4.799827,4.645898,-1.926103,-4.852419,-1.356328,-0.779981,-0.033791,0.003624,0.224147,-0.003384,10.815918
15:45:41.539,7.350,147,4.685415,8.923386,-4.839429,1,0.000000,0.000000,2.663587,-0.007207,0.229924,0.018910,0,0.000000,0.000000,0.000000,0,1,4.822990,4.577652,-1.967521,-4.845068,-1.361614,-0.790430,-0.023656,0.003550,0.224186,-0.003211,10.891441
15:45:41.589,7.400,148,4.618404,8.956987,-4.841770,1,0.000000,0.000000,2.684097,-0.000778,0.215134,0.038175,0,0.000000,0.000000,0.000000,0,1,4.883685,4.511240,-2.007453,-4.846154,-1.366251,-0.800361,-0.023581,0.003521,0.224125,-0.002937,10.964964
15:45:41.639,7.450,149,4.551143,8.990084,-4.844118,1,0.000000,0.000000,2.697930,0.014603,0.165759,0.009702,0,0.000000,0.000000,0.000000,0,1,4.842181,4.451981,-2.042135,-4.847302,-1.369136,-0.808515,-0.023652,0.003595,0.223736,-0.002854,11.032665
15:45:41.689,7.500,150,4.483636,9.022676,-4.846476,1,0.000000,0.000000,2.693912,-0.011630,0.229364,0.033162,0,0.000000,0.000000,0.000000,0,1,4.845646,4.383421,-2.085765,-4.847590,-1.373989,-0.819275,-0.022674,0.003494,0.223773,-0.002616,11.108893
15:45:41.739,7.550,151,4.415887,9.054760,-4.848842,1,0.000000,0.000000,2.690076,-0.002317,0.150131,-0.005044,0,0.000000,0.000000,0.000000,0,1,4.884463,4.327574,-2.123171,-4.848733,-1.375926,-0.827658,-0.022818,0.003456,0.223289,-0.002632,11.178280
15:45:41.789,7.600,152,4.347899,9.086335,-4.851216,1,0.000000,0.000000,2.724042,-0.006276,0.253151,-0.006610,0,0.000000,0.000000,0.000000,0,1,4.956372,4.254168,-2.168452,-4.849888,-1.381562,-0.838933,-0.022973,0.003393,0.223484,-0.002658,11.255178
15:45:41.839,7.650,153,4.279676,9.117399,-4.853598,1,0.000000,0.000000,2.732225,-0.004255,0.240178,0.014288,0,0.000000,0.000000,0.000000,0,1,4.867213,4.182600,-2.213091,-4.855679,-1.386638,-0.849844,-0.028311,0.003343,0.223592,-0.002562,11.330906
15:45:41.889,7.700,154,4.211222,9.147950,-4.855989,1,0.000000,0.000000,2.695178,-0.044910,0.200958,-0.013376,0,0.000000,0.000000,0.000000,0,1,4.803172,4.120342,-2.262684,-4.857123,-1.389489,-0.861200,-0.028498,0.003032,0.223446,-0.002630,11.410995
15:45:41.939,7.750,155,4.142542,9.177986,-4.858387,1,0.000000,0.000000,2.721006,0.005873,0.191241,0.004640,0,0.000000,0.000000,0.000000,0,1,4.812742,4.056177,-2.303294,-4.858532,-1.392985,-0.870401,-0.028588,0.003050,0.223240,-0.002584,11.481605
15:45:41.989,7.800,156,4.073638,9.207506,-4.860793,1,0.000000,0.000000,2.752122,0.037420,0.202212,0.013480,0,0.000000,0.000000,0.000000,0,1,4.895872,3.987724,-2.339583,-4.870311,-1.397415,-0.878772,-0.040384,0.003269,0.223106,-0.002510,11.547412
15:45:42.039,7.850,157,4.004514,9.236508,-4.863207,1,0.000000,0.000000,2.710940,0.006030,0.231968,-0.047334,0,0.000000,0.000000,0.000000,0,1,4.895652,3.915977,-2.383908,-4.872436,-1.402641,-0.888960,-0.040750,0.003286,0.223162,-0.002790,11.620758
15:45:42.089,7.900,158,3.935176,9.264991,-4.865628,1,0.000000,0.000000,2.768504,0.045069,0.192543,-0.008993,0,0.000000,0.000000,0.000000,0,1,4.862987,3.848194,-2.419038,-4.874493,-1.406742,-0.896856,-0.040925,0.003549,0.222970,-0.002828,11.684355
15:45:42.139,7.950,159,3.865625,9.292952,-4.868057,1,0.000000,0.000000,2.775811,0.050492,0.258305,-0.046764,0,0.000000,0.000000,0.000000,0,1,4.887116,3.768089,-2.458324,-4.879687,-1.413501,-0.906287,-0.044745,0.003842,0.223190,-0.003107,11.751687
15:45:42.189,8.000,160,3.795868,9.320391,-4.870493,1,0.000000,0.000000,2.765750,0.006144,0.209417,-0.012170,0,0.000000,0.000000,0.000000,0,1,4.988745,3.699602,-2.502483,-4.881949,-1.417299,-0.916147,-0.044948,0.003857,0.223105,-0.003162,11.823271
15:45:42.240,8.050,161,3.725906,9.347305,-4.872936,1,0.000000,0.000000,2.743947,0.026903,0.185564,0.021265,0,0.000000,0.000000,0.000000,0,1,4.962744,3.633673,-2.541641,-4.884139,-1.420943,-0.924473,-0.044971,0.003999,0.222873,-0.003013,11.889309
15:45:42.290,8.100,162,3.655745,9.373694,-4.875386,1,0.000000,0.000000,2.778457,-0.022195,0.230520,0.009589,0,0.000000,0.000000,0.000000,0,1,4.970798,3.563093,-2.593421,-4.910764,-1.424692,-0.936036,-0.072677,0.003838,0.222920,-0.002997,11.967526
15:45:42.340,8.150,163,3.585388,9.399555,-4.877843,1,0.000000,0.000000,2.801552,-0.025345,0.287332,-0.018549,0,0.000000,0.000000,0.000000,0,1,4.941168,3.482280,-2.650629,-4.914436,-1.430303,-0.949318,-0.072907,0.003660,0.223313,-0.003091,12.050681
15:45:42.390,8.200,164,3.514839,9.424888,-4.880307,1,0.000000,0.000000,2.793055,-0.015038,0.188038,-0.020585,0,0.000000,0.000000,0.000000,0,1,4.912539,3.418516,-2.699073,-4.918128,-1.432432,-0.959528,-0.073156,0.003547,0.223099,-0.003195,12.124402
15:45:42.440,8.250,165,3.444102,9.449691,-4.882777,1,0.000000,0.000000,2.800745,-0.054628,0.193521,-0.024480,0,0.000000,0.000000,0.000000,0,1,4.947343,3.356694,-2.755675,-4.929217,-1.433634,-0.971421,-0.081779,0.003197,0.222921,-0.003339,12.205766
15:45:42.490,8.300,166,3.373181,9.473962,-4.885254,1,0.000000,0.000000,2.824008,0.075973,0.193727,0.016446,0,0.000000,0.000000,0.000000,0,1,4.913189,3.284612,-2.788858,-4.933267,-1.438110,-0.978392,-0.081845,0.003632,0.222746,-0.003223,12.263233
15:45:42.540,8.350,167,3.302080,9.497700,-4.887737,1,0.000000,0.000000,2.796922,-0.011204,0.248343,0.043766,0,0.000000,0.000000,0.000000,0,1,4.859434,3.209053,-2.842795,-4.937250,-1.442618,-0.990070,-0.081756,0.003544,0.222898,-0.002947,12.340944
15:45:42.590,8.400,168,3.230804,9.520903,-4.890226,1,0.000000,0.000000,2.818219,-0.001241,0.200337,-0.055012,0,0.000000,0.000000,0.000000,0,1,4.859178,3.141394,-2.891649,-4.917692,-1.445341,-1.000150,-0.055268,0.003516,0.222765,-0.003194,12.412905
15:45:42.640,8.450,169,3.159355,9.543572,-4.892721,1,0.000000,0.000000,2.848997,0.011544,0.212260,-0.006985,0,0.000000,0.000000,0.000000,0,1,4.903849,3.070351,-2.939580,-4.920468,-1.448544,-1.010174,-0.055446,0.003563,0.222703,-0.003216,12.483500
15:45:42.690,8.500,170,3.087739,9.565703,-4.895222,1,0.000000,0.000000,2.852231,0.009603,0.245964,0.033215,0,0.000000,0.000000,0.000000,0,1,4.876649,2.992998,-2.991121,-4.923157,-1.452934,-1.021205,-0.055416,0.003598,0.222839,-0.003006,12.557213
15:45:42.740,8.550,171,3.015958,9.587297,-4.897728,1,0.000000,0.000000,2.825858,0.030665,0.195366,0.032714,0,0.000000,0.000000,0.000000,0,1,4.908286,2.923189,-3.035098,-4.920765,-1.456278,-1.029968,-0.049628,0.003756,0.222679,-0.002790,12.622757
15:45:42.790,8.600,172,2.944018,9.608351,-4.900240,1,0.000000,0.000000,2.825138,0.005687,0.227981,-0.027826,0,0.000000,0.000000,0.000000,0,1,4.875058,2.849123,-3.086937,-4.923302,-1.460174,-1.040564,-0.049890,0.003767,0.222710,-0.002932,12.695664
15:45:42.840,8.650,173,2.871922,9.628864,-4.902758,1,0.000000,0.000000,2.824922,0.058934,0.196384,-0.020090,0,0.000000,0.000000,0.000000,0,1,4.873040,2.776362,-3.126566,-4.925840,-1.464369,-1.048299,-0.050125,0.004084,0.222559,-0.003029,12.755810
15:45:42.890,8.700,174,2.799674,9.648836,-4.905281,1,0.000000,0.000000,2.927392,-0.027363,0.235806,0.006431,0,0.000000,0.000000,0.000000,0,1,4.874425,2.703237,-3.186358,-4.912747,-1.466550,-1.060667,-0.032591,0.003904,0.222634,-0.002940,12.835559
15:45:42.941,8.750,175,2.727279,9.668266,-4.907809,1,0.000000,0.000000,2.870507,0.009109,0.199228,0.003777,0,0.000000,0.000000,0.000000,0,1,4.963164,2.633851,-3.236651,-4.914366,-1.468998,-1.070492,-0.032706,0.003934,0.222501,-0.002903,12.905257
15:45:42.991,8.800,176,2.654740,9.687151,-4.910342,1,0.000000,0.000000,2.918945,0.038692,0.244529,-0.051315,0,0.000000,0.000000,0.000000,0,1,4.869252,2.553091,-3.285700,-4.916116,-1.473435,-1.080636,-0.033096,0.004130,0.222626,-0.003172,12.973250
15:45:43.041,8.850,177,2.582062,9.705492,-4.912880,1,0.000000,0.000000,2.889505,0.030923,0.179425,-0.009297,0,0.000000,0.000000,0.000000,0,1,4.881191,2.485303,-3.331049,-4.907213,-1.475581,-1.089161,-0.021314,0.004281,0.222383,-0.003183,13.036901
15:45:43.091,8.900,178,2.509248,9.723286,-4.915423,1,0.000000,0.000000,2.881622,-0.006856,0.159665,0.015129,0,0.000000,0.000000,0.000000,0,1,4.929844,2.424551,-3.382358,-4.908245,-1.476035,-1.098482,-0.021387,0.004218,0.222033,-0.003082,13.105920
15:45:43.141,8.950,179,2.436303,9.740534,-4.917970,1,0.000000,0.000000,2.906371,0.008083,0.238979,-0.029498,0,0.000000,0.000000,0.000000,0,1,4.930112,2.347047,-3.438321,-4.909378,-1.479555,-1.109570,-0.021672,0.004240,0.222127,-0.003226,13.179160
15:45:43.191,9.000,180,2.363230,9.757234,-4.920522,1,0.000000,0.000000,2.924767,0.025317,0.212830,0.048489,0,0.000000,0.000000,0.000000,0,1,4.874338,2.272904,-3.489125,-4.899932,-1.482416,-1.119340,-0.009787,0.004356,0.222076,-0.002922,13.246682
15:45:43.241,9.050,181,2.290035,9.773385,-4.923078,1,0.000000,0.000000,2.921501,0.002053,0.193497,0.020361,0,0.000000,0.000000,0.000000,0,1,4.875174,2.204512,-3.543195,-4.900379,-1.483953,-1.129392,-0.009825,0.004344,0.221919,-0.002796,13.316874
15:45:43.291,9.100,182,2.216720,9.788986,-4.925638,1,0.000000,0.000000,2.928278,-0.001530,0.246912,-0.011434,0,0.000000,0.000000,0.000000,0,1,4.974733,2.125891,-3.603398,-4.900892,-1.487246,-1.141122,-0.010007,0.004312,0.222055,-0.002842,13.392715
15:45:43.341,9.150,183,2.143291,9.804036,-4.928202,1,0.000000,0.000000,2.940205,0.065148,0.183042,-0.038749,0,0.000000,0.000000,0.000000,0,1,4.909721,2.053465,-3.645105,-4.903865,-1.490035,-1.148646,-0.013028,0.004642,0.221843,-0.003040,13.449464
15:45:43.391,9.200,184,2.069751,9.818535,-4.930770,1,0.000000,0.000000,2.932964,0.013183,0.200085,-0.028561,0,0.000000,0.000000,0.000000,0,1,4.955924,1.982393,-3.699067,-4.904570,-1.492029,-1.158513,-0.013296,0.004688,0.221725,-0.003176,13.517910
15:45:43.441,9.250,185,1.996104,9.832482,-4.933342,1,0.000000,0.000000,2.946277,-0.041185,0.263465,0.004689,0,0.000000,0.000000,0.000000,0,1,4.916506,1.903827,-3.770338,-4.905222,-1.494562,-1.172192,-0.013417,0.004442,0.221950,-0.003134,13.603162
15:45:43.491,9.300,186,1.922355,9.845876,-4.935918,1,0.000000,0.000000,2.966298,0.036887,0.196216,-0.052556,0,0.000000,0.000000,0.000000,0,1,5.001079,1.831043,-3.820286,-4.933491,-1.496751,-1.181178,-0.044921,0.004615,0.221812,-0.003453,13.666467
15:45:43.541,9.350,187,1.848507,9.858716,-4.938496,1,0.000000,0.000000,2.947965,0.024299,0.215008,0.014493,0,0.000000,0.000000,0.000000,0,1,5.010138,1.755593,-3.875024,-4.935707,-1.499448,-1.191122,-0.045013,0.004720,0.221776,-0.003359,13.734054
15:45:43.592,9.400,188,1.774565,9.871001,-4.941079,1,0.000000,0.000000,2.968733,0.013076,0.199658,-0.032454,0,0.000000,0.000000,0.000000,0,1,4.938615,1.684179,-3.931007,-4.938024,-1.501055,-1.201060,-0.045319,0.004764,0.221659,-0.003511,13.802304
15:45:43.642,9.450,189,1.700534,9.882731,-4.943664,1,0.000000,0.000000,2.963129,0.003157,0.226363,0.026702,0,0.000000,0.000000,0.000000,0,1,5.018936,1.608285,-3.992121,-4.962972,-1.503375,-1.212119,-0.071092,0.004756,0.221684,-0.003402,13.875172
15:45:43.692,9.500,190,1.626416,9.893905,-4.946252,1,0.000000,0.000000,2.988586,0.011076,0.271574,0.007131,0,0.000000,0.000000,0.000000,0,1,4.954560,1.522368,-4.056716,-4.966510,-1.507228,-1.224296,-0.071215,0.004789,0.221945,-0.003348,13.951024
15:45:43.742,9.550,191,1.552217,9.904523,-4.948843,1,0.000000,0.000000,2.999480,-0.007170,0.205644,0.009908,0,0.000000,0.000000,0.000000,0,1,5.028685,1.451470,-4.118979,-4.970047,-1.508115,-1.235178,-0.071321,0.004726,0.221860,-0.003280,14.023880
15:45:43.792,9.600,192,1.477940,9.914583,-4.951437,1,0.000000,0.000000,3.025492,-0.001997,0.207881,0.021083,0,0.000000,0.000000,0.000000,0,1,5.011805,1.379552,-4.180953,-4.984613,-1.508950,-1.245985,-0.083875,0.004692,0.221788,-0.003178,14.095919
15:45:43.842,9.650,193,1.403590,9.924086,-4.954033,1,0.000000,0.000000,3.020302,0.032085,0.259854,0.041225,0,0.000000,0.000000,0.000000,0,1,4.969572,1.293486,-4.241862,-4.988728,-1.512657,-1.257160,-0.083840,0.004833,0.221984,-0.002953,14.166418
15:45:43.892,9.700,194,1.329171,9.933031,-4.956632,1,0.000000,0.000000,3.040887,-0.046273,0.201480,0.029147,0,0.000000,0.000000,0.000000,0,1,4.975618,1.227323,-4.313316,-4.992857,-1.511774,-1.269316,-0.083840,0.004571,0.221879,-0.002791,14.246757
15:45:43.942,9.750,195,1.254687,9.941417,-4.959233,1,0.000000,0.000000,3.033586,-0.081577,0.232546,0.057002,0,0.000000,0.000000,0.000000,0,1,4.973428,1.158544,-4.395851,-4.990127,-1.510965,-1.283587,-0.076009,0.004131,0.221933,-0.002476,14.337624
15:45:43.992,9.800,196,1.180142,9.949243,-4.961836,1,0.000000,0.000000,2.998589,-0.024971,0.214411,0.018351,0,0.000000,0.000000,0.000000,0,1,4.993388,1.087580,-4.465499,-4.993892,-1.511614,-1.295304,-0.076044,0.003983,0.221895,-0.002372,14.415075
15:45:44.042,9.850,197,1.105540,9.956511,-4.964441,1,0.000000,0.000000,3.031777,-0.015525,0.214943,0.069852,0,0.000000,0.000000,0.000000,0,1,5.002984,1.015484,-4.533825,-4.997549,-1.512201,-1.306760,-0.075835,0.003885,0.221860,-0.002013,14.490653
15:45:44.092,9.900,198,1.030887,9.963218,-4.967048,1,0.000000,0.000000,3.047497,0.007351,0.271069,-0.039849,0,0.000000,0.000000,0.000000,0,1,4.931535,0.929276,-4.604025,-4.981229,-1.515203,-1.319167,-0.053254,0.003902,0.222107,-0.002159,14.567604
15:45:44.142,9.950,199,0.956185,9.969364,-4.969657,1,0.000000,0.000000,3.047019,-0.042486,0.182581,0.038533,0,0.000000,0.000000,0.000000,0,1,4.993452,0.866744,-4.675598,-4.983821,-1.513701,-1.330556,-0.053190,0.003670,0.221910,-0.001959,14.645242
15:45:44.192,10.000,200,0.881439,9.974950,-4.972267,1,0.000000,0.000000,3.055596,0.033417,0.223461,-0.047260,0,0.000000,0.000000,0.000000,0,1,4.986066,0.787442,-4.736373,-4.986575,-1.515800,-1.340647,-0.053490,0.003818,0.221917,-0.002181,14.711630
15:45:44.242,10.050,201,0.806653,9.979975,-4.974879,1,0.000000,0.000000,3.070330,-0.004962,0.269553,-0.042284,0,0.000000,0.000000,0.000000,0,1,4.916553,0.702641,-4.810793,-4.968306,-1.518097,-1.353457,-0.029979,0.003775,0.222153,-0.002335,14.791135
15:45:44.293,10.100,202,0.731832,9.984438,-4.977492,1,0.000000,0.000000,3.099773,-0.015659,0.172385,0.004857,0,0.000000,0.000000,0.000000,0,1,4.996631,0.639327,-4.877257,-4.969795,-1.516501,-1.363657,-0.030066,0.003679,0.221908,-0.002300,14.861984
15:45:44.343,10.150,203,0.656979,9.988340,-4.980106,1,0.000000,0.000000,3.063748,0.006271,0.228057,0.015833,0,0.000000,0.000000,0.000000,0,1,5.044592,0.561891,-4.945864,-4.971265,-1.517831,-1.374810,-0.030101,0.003692,0.221938,-0.002212,14.934509
15:45:44.393,10.200,204,0.582099,9.991679,-4.982720,1,0.000000,0.000000,3.095202,-0.011198,0.235303,0.018525,0,0.000000,0.000000,0.000000,0,1,5.004593,0.484856,-5.019542,-4.981936,-1.518507,-1.386790,-0.040539,0.003619,0.222003,-0.002131,15.011536
15:45:44.443,10.250,205,0.507196,9.994457,-4.985336,1,0.000000,0.000000,3.103744,0.005741,0.165188,-0.026067,0,0.000000,0.000000,0.000000,0,1,5.051034,0.420691,-5.082191,-4.984008,-1.517315,-1.396039,-0.040744,0.003630,0.221727,-0.002245,15.076897
15:45:44.493,10.300,206,0.432275,9.996673,-4.987952,1,0.000000,0.000000,3.090891,-0.039699,0.220901,0.085971,0,0.000000,0.000000,0.000000,0,1,4.914024,0.349996,-5.161366,-4.985875,-1.516680,-1.408487,-0.040474,0.003420,0.221723,-0.001825,15.158262
15:45:44.543,10.350,207,0.357339,9.998326,-4.990569,1,0.000000,0.000000,3.109369,0.018368,0.199096,0.050263,0,0.000000,0.000000,0.000000,0,1,4.973742,0.277217,-5.226246,-4.983728,-1.516942,-1.418369,-0.035735,0.003492,0.221615,-0.001571,15.224785
15:45:44.593,10.400,208,0.282393,9.999417,-4.993186,1,0.000000,0.000000,3.137966,0.032029,0.182400,-0.054575,0,0.000000,0.000000,0.000000,0,1,4.947775,0.206371,-5.286737,-4.985609,-1.516787,-1.427299,-0.036028,0.003629,0.221427,-0.001820,15.286345
15:45:44.643,10.450,209,0.207441,9.999946,-4.995804,1,0.000000,0.000000,3.104714,-0.000118,0.238076,0.021361,0,0.000000,0.000000,0.000000,0,1,4.945624,0.127400,-5.361156,-4.987368,-1.517794,-1.439000,-0.036020,0.003611,0.221506,-0.001712,15.361313
15:45:44.693,10.500,210,0.132486,9.999912,-4.998421,1,0.000000,0.000000,3.139119,0.020198,0.230985,-0.036700,0,0.000000,0.000000,0.000000,0,1,5.054436,0.047486,-5.430960,-5.008085,-1.518828,-1.449843,-0.057583,0.003689,0.221551,-0.001911,15.431109
15:45:44.743,10.550,211,0.057535,9.999315,-5.001039,1,0.000000,0.000000,3.144181,0.021367,0.203602,0.032381,0,0.000000,0.000000,0.000000,0,1,5.010126,-0.026734,-5.497760,-5.010908,-1.518972,-1.459791,-0.057542,0.003773,0.221467,-0.001751,15.497307
15:45:44.793,10.600,212,-0.017410,9.998156,-5.003656,1,0.000000,0.000000,3.168794,-0.033204,0.196078,-0.010043,0,0.000000,0.000000,0.000000,0,1,5.010462,-0.092702,-5.575909,-5.013803,-1.516883,-1.471231,-0.057665,0.003599,0.221347,-0.001790,15.574250
15:45:44.843,10.650,213,-0.092345,9.996435,-5.006272,1,0.000000,0.000000,3.190323,0.044531,0.232022,-0.009383,0,0.000000,0.000000,0.000000,0,1,5.047648,-0.175871,-5.642207,-5.025647,-1.518161,-1.481344,-0.067908,0.003791,0.221397,-0.001842,15.638877
15:45:44.893,10.700,214,-0.167264,9.994151,-5.008889,1,0.000000,0.000000,3.156121,-0.022592,0.255931,-0.034683,0,0.000000,0.000000,0.000000,0,1,5.021100,-0.256000,-5.726546,-5.029100,-1.518431,-1.494344,-0.068129,0.003668,0.221558,-0.001992,15.720961
15:45:44.943,10.750,215,-0.242164,9.991305,-5.011504,1,0.000000,0.000000,3.167836,0.063550,0.266386,0.022933,0,0.000000,0.000000,0.000000,0,1,5.096617,-0.349137,-5.794121,-5.032462,-1.521637,-1.504988,-0.068125,0.003945,0.221765,-0.001878,15.785802
15:45:44.994,10.800,216,-0.317041,9.987897,-5.014119,1,0.000000,0.000000,3.190726,-0.004240,0.199780,0.011632,0,0.000000,0.000000,0.000000,0,1,5.003023,-0.419389,-5.868664,-5.026358,-1.520345,-1.515622,-0.057427,0.003907,0.221664,-0.001799,15.856896
15:45:45.044,10.850,217,-0.391890,9.983928,-5.016733,1,0.000000,0.000000,3.206273,0.004580,0.233679,0.023539,0,0.000000,0.000000,0.000000,0,1,5.043534,-0.498104,-5.946099,-5.029190,-1.520216,-1.527060,-0.057418,0.003910,0.221719,-0.001685,15.930386
15:45:45.094,10.900,218,-0.466707,9.979397,-5.019346,1,0.000000,0.000000,3.196713,-0.028197,0.199087,-0.000712,0,0.000000,0.000000,0.000000,0,1,5.055603,-0.565041,-6.026865,-5.032061,-1.518070,-1.538397,-0.057499,0.003764,0.221616,-0.001681,16.006569
15:45:45.144,10.950,219,-0.541489,9.974304,-5.021957,1,0.000000,0.000000,3.219835,0.009286,0.228424,0.002510,0,0.000000,0.000000,0.000000,0,1,5.020662,-0.643134,-6.103727,-5.030806,-1.517778,-1.549510,-0.052899,0.003789,0.221647,-0.001654,16.078355
15:45:45.194,11.000,220,-0.616229,9.968650,-5.024567,1,0.000000,0.000000,3.200080,0.004950,0.265209,0.041001,0,0.000000,0.000000,0.000000,0,1,5.047121,-0.728748,-6.186885,-5.033383,-1.518683,-1.561960,-0.052818,0.003794,0.221844,-0.001464,16.155930
15:45:45.244,11.050,221,-0.690926,9.962436,-5.027175,1,0.000000,0.000000,3.229263,-0.011836,0.212504,0.000095,0,0.000000,0.000000,0.000000,0,1,5.013840,-0.800555,-6.267484,-5.036023,-1.517110,-1.573196,-0.052885,0.003724,0.221802,-0.001457,16.230292
15:45:45.294,11.100,222,-0.765574,9.955661,-5.029782,1,0.000000,0.000000,3.248255,0.007804,0.182358,-0.024485,0,0.000000,0.000000,0.000000,0,1,5.026221,-0.868204,-6.340310,-5.035105,-1.515060,-1.582836,-0.048969,0.003742,0.221625,-0.001553,16.296295
15:45:45.344,11.150,223,-0.840168,9.948326,-5.032387,1,0.000000,0.000000,3.235702,0.003352,0.211493,0.003473,0,0.000000,0.000000,0.000000,0,1,5.074370,-0.941639,-6.418467,-5.037547,-1.513889,-1.593567,-0.049028,0.003740,0.221580,-0.001530,16.367108
15:45:45.394,11.200,224,-0.914706,9.940432,-5.034990,1,0.000000,0.000000,3.291305,-0.008587,0.245753,0.032076,0,0.000000,0.000000,0.000000,0,1,5.030931,-1.021012,-6.504399,-5.039940,-1.512738,-1.605708,-0.048970,0.003686,0.221687,-0.001383,16.445175
15:45:45.444,11.250,225,-0.989183,9.931979,-5.037591,1,0.000000,0.000000,3.278411,0.012539,0.206987,-0.049886,0,0.000000,0.000000,0.000000,0,1,4.916873,-1.094540,-6.581002,-5.006187,-1.511264,-1.615970,-0.008162,0.003725,0.221622,-0.001530,16.513347
15:45:45.494,11.300,226,-1.063594,9.922966,-5.040189,1,0.000000,0.000000,3.258717,-0.021112,0.167130,0.007507,0,0.000000,0.000000,0.000000,0,1,4.965027,-1.154537,-6.660197,-5.006583,-1.507733,-1.625939,-0.008205,0.003615,0.221382,-0.001491,16.583446
15:45:45.544,11.350,227,-1.137935,9.913396,-5.042785,1,0.000000,0.000000,3.280460,0.012894,0.241615,0.006782,0,0.000000,0.000000,0.000000,0,1,4.963251,-1.235686,-6.742470,-5.006980,-1.507278,-1.637321,-0.008247,0.003656,0.221471,-0.001455,16.656191
15:45:45.594,11.400,228,-1.212203,9.903268,-5.045379,1,0.000000,0.000000,3.317820,0.024261,0.202712,-0.047707,0,0.000000,0.000000,0.000000,0,1,5.050867,-1.309652,-6.817399,-5.020022,-1.505649,-1.647036,-0.022698,0.003746,0.221389,-0.001676,16.720970
15:45:45.644,11.450,229,-1.286392,9.892583,-5.047970,1,0.000000,0.000000,3.258612,0.006807,0.286714,-0.027095,0,0.000000,0.000000,0.000000,0,1,5.017651,-1.400001,-6.908439,-5.021199,-1.506538,-1.660122,-0.022875,0.003759,0.221673,-0.001785,16.801428
15:45:45.694,11.500,230,-1.360500,9.881342,-5.050557,1,0.000000,0.000000,3.289860,-0.026874,0.242172,0.028963,0,0.000000,0.000000,0.000000,0,1,5.125072,-1.475604,-7.001490,-5.022291,-1.504663,-1.672674,-0.022845,0.003627,0.221762,-0.001654,16.883248
15:45:45.745,11.550,231,-1.434521,9.869544,-5.053142,1,0.000000,0.000000,3.310009,0.020179,0.196009,0.038993,0,0.000000,0.000000,0.000000,0,1,5.066324,-1.547330,-7.078024,-5.035772,-1.502794,-1.682306,-0.036814,0.003698,0.221651,-0.001503,16.947953
15:45:45.795,11.600,232,-1.508451,9.857192,-5.055724,1,0.000000,0.000000,3.323797,-0.038269,0.273666,-0.019625,0,0.000000,0.000000,0.000000,0,1,5.039283,-1.628197,-7.179304,-5.037643,-1.501054,-1.696165,-0.036955,0.003518,0.221874,-0.001580,17.036926
15:45:45.845,11.650,233,-1.582287,9.844285,-5.058302,1,0.000000,0.000000,3.293084,-0.011506,0.196416,-0.022037,0,0.000000,0.000000,0.000000,0,1,4.990879,-1.695293,-7.264135,-5.039528,-1.498332,-1.706736,-0.037112,0.003454,0.221765,-0.001666,17.108803
15:45:45.895,11.700,234,-1.656024,9.830824,-5.060877,1,0.000000,0.000000,3.309813,-0.055542,0.225839,0.026968,0,0.000000,0.000000,0.000000,0,1,5.032546,-1.762563,-7.363717,-5.038792,-1.494790,-1.719496,-0.034207,0.003203,0.221782,-0.001541,17.194885
15:45:45.945,11.750,235,-1.729658,9.816811,-5.063449,1,0.000000,0.000000,3.342224,-0.033854,0.222766,0.001633,0,0.000000,0.000000,0.000000,0,1,5.073193,-1.832079,-7.458529,-5.040500,-1.491524,-1.731466,-0.034273,0.003046,0.221787,-0.001528,17.275658
15:45:45.995,11.800,236,-1.803185,9.802245,-5.066016,1,0.000000,0.000000,3.353459,-0.036733,0.226798,-0.027924,0,0.000000,0.000000,0.000000,0,1,5.035416,-1.901907,-7.555167,-5.042261,-1.488147,-1.743617,-0.034449,0.002878,0.221808,-0.001638,17.357709
15:45:46.045,11.850,237,-1.876601,9.787128,-5.068580,1,0.000000,0.000000,3.332660,-0.007854,0.175379,-0.025107,0,0.000000,0.000000,0.000000,0,1,5.026193,-1.964087,-7.638210,-5.038876,-1.484535,-1.753270,-0.028791,0.002833,0.221613,-0.001726,17.425582
15:45:46.095,11.900,238,-1.949901,9.771460,-5.071140,1,0.000000,0.000000,3.371469,0.037047,0.204827,-0.042282,0,0.000000,0.000000,0.000000,0,1,4.996950,-2.039509,-7.715826,-5.040379,-1.482837,-1.762584,-0.029021,0.002976,0.221542,-0.001893,17.487543
15:45:46.145,11.950,239,-2.023082,9.755242,-5.073695,1,0.000000,0.000000,3.332255,-0.003275,0.225945,-0.006630,0,0.000000,0.000000,0.000000,0,1,5.051466,-2.113673,-7.806319,-5.041840,-1.480794,-1.773808,-0.029134,0.002950,0.221561,-0.001913,17.561824
15:45:46.195,12.000,240,-2.096139,9.738476,-5.076247,1,0.000000,0.000000,3.364474,-0.039019,0.209962,0.051523,0,0.000000,0.000000,0.000000,0,1,5.035537,-2.178661,-7.903157,-5.040985,-1.476755,-1.785396,-0.026514,0.002776,0.221513,-0.001691,17.641862
