timestamp,sim_time,iteration,true_pos_x,true_pos_y,true_pos_z,imu_valid,imu_roll,imu_pitch,imu_yaw,imu_acc_x,imu_acc_y,imu_acc_z,usbl_valid,usbl_pos_x,usbl_pos_y,usbl_pos_z,usbl_fix_used,depth_valid,depth_measurement,kf_pos_x,kf_pos_y,kf_pos_z,kf_vel_x,kf_vel_y,kf_vel_z,kf_acc_x,kf_acc_y,kf_acc_z,error_norm
15:40:05.118,0.000,0,10.168406,0.000000,-4.647959,1,0.000000,0.000000,1.538465,0.017776,0.185863,-0.025441,0,0.000000,0.000000,0.000000,0,1,4.600171,10.168174,0.000030,-4.600290,-0.009251,0.001188,0.001108,0.017760,0.185696,-0.025418,0.047670
15:40:05.168,0.050,1,10.168125,0.074999,-4.647969,1,0.000000,0.000000,1.560395,0.044114,0.236716,-0.009089,0,0.000000,0.000000,0.000000,0,1,4.734874,10.167354,0.000183,-4.600236,-0.021047,0.003543,0.000653,0.030931,0.211195,-0.017257,0.088750
15:40:05.218,0.100,2,10.167281,0.149994,-4.647998,1,0.000000,0.000000,1.563499,-0.007569,0.296626,-0.019772,0,0.000000,0.000000,0.000000,0,1,4.674091,10.165715,0.000264,-4.600233,-0.035897,0.003314,-0.000335,0.018101,0.239663,-0.018095,0.157173
15:40:05.268,0.150,3,10.165876,0.224981,-4.648048,1,0.000000,0.000000,1.576581,0.047328,0.253964,-0.020382,0,0.000000,0.000000,0.000000,0,1,4.660575,10.163552,0.000598,-4.655091,-0.048584,0.005619,-0.330010,0.025406,0.243238,-0.018676,0.224506
15:40:05.318,0.200,4,10.163909,0.299955,-4.648116,1,0.000000,0.000000,1.611217,-0.000568,0.236084,-0.038236,0,0.000000,0.000000,0.000000,0,1,4.690085,10.160860,0.000735,-4.671645,-0.060431,0.005098,-0.331522,0.020212,0.241807,-0.022587,0.300159
15:40:05.368,0.250,5,10.161380,0.374912,-4.648205,1,0.000000,0.000000,1.573160,0.007784,0.219794,-0.019422,0,0.000000,0.000000,0.000000,0,1,4.561484,10.157700,0.000920,-4.688241,-0.071423,0.005459,-0.332547,0.018141,0.238139,-0.022060,0.376147
15:40:05.418,0.300,6,10.158289,0.449848,-4.648312,1,0.000000,0.000000,1.612884,0.008962,0.270135,-0.008837,0,0.000000,0.000000,0.000000,0,1,4.612363,10.153550,0.001124,-4.630221,-0.084954,0.005396,-0.041199,0.016830,0.242709,-0.020146,0.449113
15:40:05.468,0.350,7,10.154636,0.524759,-4.648440,1,0.000000,0.000000,1.581652,-0.027193,0.189926,0.025048,0,0.000000,0.000000,0.000000,0,1,4.661700,10.149525,0.000970,-4.632224,-0.094446,0.003922,-0.041017,0.011328,0.236112,-0.014497,0.524065
15:40:05.518,0.400,8,10.150422,0.599640,-4.648587,1,0.000000,0.000000,1.587722,-0.014746,0.211868,-0.012410,0,0.000000,0.000000,0.000000,0,1,4.705792,10.144780,0.000882,-4.634287,-0.105038,0.002995,-0.041681,0.008431,0.233418,-0.014265,0.598956
15:40:05.569,0.450,9,10.145647,0.674488,-4.648754,1,0.000000,0.000000,1.624140,0.018017,0.228345,0.033217,0,0.000000,0.000000,0.000000,0,1,4.589796,10.139299,0.001146,-4.604160,-0.116467,0.003276,0.050089,0.009390,0.232911,-0.009497,0.674846
15:40:05.619,0.500,10,10.140311,0.749297,-4.648940,1,0.000000,0.000000,1.632000,0.015190,0.253285,-0.036390,0,0.000000,0.000000,0.000000,0,1,4.604737,10.132904,0.001383,-4.601730,-0.129142,0.003305,0.048928,0.009917,0.234763,-0.011941,0.749440
15:40:05.669,0.550,11,10.134415,0.824064,-4.649146,1,0.000000,0.000000,1.648362,0.012980,0.251255,-0.004122,0,0.000000,0.000000,0.000000,0,1,4.593963,10.125906,0.001582,-4.599272,-0.141711,0.003025,0.048546,0.010172,0.236137,-0.011290,0.824037
15:40:05.719,0.600,12,10.127958,0.898785,-4.649372,1,0.000000,0.000000,1.650519,-0.031756,0.230390,-0.077211,0,0.000000,0.000000,0.000000,0,1,4.739020,10.118624,0.001042,-4.681790,-0.153179,0.000505,-0.142741,0.006947,0.235695,-0.016453,0.898377
15:40:05.769,0.650,13,10.120941,0.973456,-4.649617,1,0.000000,0.000000,1.635187,0.040755,0.201663,-0.002660,0,0.000000,0.000000,0.000000,0,1,4.691047,10.111260,0.001655,-4.688908,-0.163310,0.001831,-0.143216,0.009362,0.233265,-0.015468,0.972643
15:40:05.819,0.700,14,10.113365,1.048072,-4.649881,1,0.000000,0.000000,1.654567,-0.075275,0.186964,-0.021529,0,0.000000,0.000000,0.000000,0,1,4.627882,10.103692,0.000160,-4.696112,-0.172522,-0.002830,-0.144152,0.003720,0.230178,-0.015872,1.048976
15:40:05.869,0.750,15,10.105230,1.122628,-4.650165,1,0.000000,0.000000,1.660129,-0.039394,0.219616,0.010346,0,0.000000,0.000000,0.000000,0,1,4.609165,10.095004,-0.000861,-4.653937,-0.183396,-0.005805,-0.053203,0.001025,0.229518,-0.014152,1.123542
15:40:05.919,0.800,16,10.096536,1.197122,-4.650469,1,0.000000,0.000000,1.649796,-0.012936,0.167914,-0.022268,0,0.000000,0.000000,0.000000,0,1,4.556516,10.086861,-0.001445,-4.656643,-0.191738,-0.007238,-0.054113,0.000204,0.225894,-0.014630,1.198622
15:40:05.969,0.850,17,10.087284,1.271548,-4.650792,1,0.000000,0.000000,1.682250,0.012120,0.220142,-0.018060,0,0.000000,0.000000,0.000000,0,1,4.670949,10.077117,-0.001567,-4.659382,-0.202702,-0.007877,-0.054935,0.000866,0.225575,-0.014820,1.273185
15:40:06.019,0.900,18,10.077474,1.345903,-4.651135,1,0.000000,0.000000,1.699425,-0.002114,0.156809,-0.017568,0,0.000000,0.000000,0.000000,0,1,4.674980,10.068336,-0.002028,-4.668155,-0.210455,-0.009267,-0.065288,0.000709,0.221956,-0.014979,1.348070
15:40:06.069,0.950,19,10.067108,1.420182,-4.651497,1,0.000000,0.000000,1.718857,0.005651,0.235960,-0.056687,0,0.000000,0.000000,0.000000,0,1,4.645531,10.057186,-0.002418,-4.671605,-0.222148,-0.010660,-0.067072,0.000956,0.222656,-0.017063,1.422776
15:40:06.119,1.000,20,10.056185,1.494381,-4.651878,1,0.000000,0.000000,1.715834,-0.021241,0.204898,-0.059854,0,0.000000,0.000000,0.000000,0,1,4.664095,10.046285,-0.003558,-4.675196,-0.232223,-0.013278,-0.069039,-0.000101,0.221810,-0.019101,1.498154
15:40:06.169,1.050,21,10.044706,1.568496,-4.652279,1,0.000000,0.000000,1.728918,0.032275,0.175892,0.056999,0,0.000000,0.000000,0.000000,0,1,4.659046,10.035633,-0.003337,-4.670092,-0.240985,-0.013275,-0.056439,0.001371,0.219723,-0.015618,1.571961
15:40:06.219,1.100,22,10.032672,1.642523,-4.652699,1,0.000000,0.000000,1.737639,-0.009343,0.224970,0.027953,0,0.000000,0.000000,0.000000,0,1,4.724026,10.023173,-0.004358,-4.672736,-0.252056,-0.015583,-0.056148,0.000905,0.219951,-0.013724,1.647030
15:40:06.269,1.150,23,10.020083,1.716458,-4.653139,1,0.000000,0.000000,1.735313,0.027331,0.224384,0.035543,0,0.000000,0.000000,0.000000,0,1,4.710658,10.010136,-0.004394,-4.675285,-0.263226,-0.016039,-0.055570,0.002006,0.220136,-0.011672,1.721023
15:40:06.320,1.200,24,10.006941,1.790296,-4.653598,1,0.000000,0.000000,1.753152,-0.031776,0.212226,0.035019,0,0.000000,0.000000,0.000000,0,1,4.650098,9.996993,-0.006287,-4.667004,-0.273549,-0.019588,-0.040954,0.000655,0.219820,-0.009765,1.796661
15:40:06.370,1.250,25,9.993246,1.864033,-4.654076,1,0.000000,0.000000,1.749329,0.006400,0.218547,-0.035604,0,0.000000,0.000000,0.000000,0,1,4.621289,9.983078,-0.007127,-4.669195,-0.284330,-0.021217,-0.042070,0.000876,0.219771,-0.010758,1.871248
15:40:06.420,1.300,26,9.978998,1.937665,-4.654573,1,0.000000,0.000000,1.753391,-0.058741,0.217183,0.031068,0,0.000000,0.000000,0.000000,0,1,4.537027,9.968769,-0.010239,-4.671057,-0.294771,-0.026123,-0.041552,-0.001332,0.219675,-0.009210,1.948001
15:40:06.470,1.350,27,9.964199,2.011189,-4.655090,1,0.000000,0.000000,1.762659,0.016859,0.234164,0.021816,0,0.000000,0.000000,0.000000,0,1,4.660049,9.953225,-0.010989,-4.668263,-0.306338,-0.027441,-0.035531,-0.000682,0.220192,-0.008081,2.022250
15:40:06.520,1.400,28,9.948849,2.084599,-4.655626,1,0.000000,0.000000,1.725554,0.037595,0.208174,-0.031096,0,0.000000,0.000000,0.000000,0,1,4.641722,9.938001,-0.010999,-4.670177,-0.316783,-0.027217,-0.036485,0.000637,0.219778,-0.008874,2.095676
15:40:06.570,1.450,29,9.932949,2.157892,-4.656181,1,0.000000,0.000000,1.814373,0.017164,0.194703,0.018965,0,0.000000,0.000000,0.000000,0,1,4.617218,9.922799,-0.011757,-4.671830,-0.326287,-0.028899,-0.036239,0.001188,0.218942,-0.007947,2.169730
15:40:06.620,1.500,30,9.916500,2.231064,-4.656756,1,0.000000,0.000000,1.784221,0.004766,0.212217,-0.044258,0,0.000000,0.000000,0.000000,0,1,4.693094,9.906469,-0.013106,-4.680468,-0.336682,-0.030949,-0.045188,0.001304,0.218725,-0.009152,2.244317
15:40:06.670,1.550,31,9.899504,2.304110,-4.657349,1,0.000000,0.000000,1.760083,-0.007497,0.212521,-0.034211,0,0.000000,0.000000,0.000000,0,1,4.719373,9.889634,-0.015040,-4.682889,-0.347084,-0.033348,-0.046233,0.001029,0.218531,-0.009934,2.319311
15:40:06.720,1.600,32,9.881960,2.377026,-4.657962,1,0.000000,0.000000,1.799524,0.063592,0.274839,0.040538,0,0.000000,0.000000,0.000000,0,1,4.652640,9.869542,-0.014339,-4.684861,-0.360854,-0.032966,-0.045506,0.002924,0.220238,-0.008406,2.391549
15:40:06.770,1.650,33,9.863870,2.449809,-4.658594,1,0.000000,0.000000,1.828715,0.036053,0.231821,0.011135,0,0.000000,0.000000,0.000000,0,1,4.687922,9.850652,-0.014683,-4.687294,-0.372292,-0.034055,-0.045782,0.003899,0.220578,-0.007834,2.464695
15:40:06.820,1.700,34,9.845236,2.522454,-4.659245,1,0.000000,0.000000,1.832697,-0.022824,0.256447,-0.040812,0,0.000000,0.000000,0.000000,0,1,4.756174,9.830285,-0.017721,-4.689802,-0.384621,-0.038247,-0.046927,0.003135,0.221603,-0.008775,2.540403
15:40:06.870,1.750,35,9.826057,2.594957,-4.659914,1,0.000000,0.000000,1.805949,-0.017164,0.210530,0.006444,0,0.000000,0.000000,0.000000,0,1,4.655034,9.811343,-0.020568,-4.692048,-0.394767,-0.041617,-0.047006,0.002571,0.221295,-0.008353,2.615764
15:40:06.920,1.800,36,9.806335,2.667314,-4.660603,1,0.000000,0.000000,1.830131,0.015548,0.213654,0.022626,0,0.000000,0.000000,0.000000,0,1,4.677479,9.791645,-0.022095,-4.688922,-0.405195,-0.043642,-0.040813,0.002922,0.221089,-0.007482,2.689598
15:40:06.971,1.850,37,9.786072,2.739521,-4.661311,1,0.000000,0.000000,1.848862,-0.047094,0.217172,0.000266,0,0.000000,0.000000,0.000000,0,1,4.618102,9.771480,-0.026698,-4.690921,-0.415361,-0.048984,-0.041015,0.001606,0.220986,-0.007279,2.766417
15:40:07.021,1.900,38,9.765268,2.811575,-4.662037,1,0.000000,0.000000,1.876499,0.029709,0.204862,0.043745,0,0.000000,0.000000,0.000000,0,1,4.597110,9.751124,-0.027806,-4.692595,-0.425307,-0.050742,-0.040212,0.002327,0.220572,-0.005973,2.839580
15:40:07.071,1.950,39,9.743925,2.883469,-4.662782,1,0.000000,0.000000,1.860222,-0.021528,0.295540,0.021312,0,0.000000,0.000000,0.000000,0,1,4.635121,9.725963,-0.031902,-4.676298,-0.439451,-0.055450,-0.019705,0.001730,0.222447,-0.005166,2.915458
15:40:07.121,2.000,40,9.722043,2.955202,-4.663547,1,0.000000,0.000000,1.867325,0.009155,0.208126,-0.023226,0,0.000000,0.000000,0.000000,0,1,4.559673,9.704422,-0.034316,-4.677413,-0.449458,-0.058154,-0.020349,0.001911,0.222097,-0.005606,2.989602
15:40:07.171,2.050,41,9.699624,3.026769,-4.664329,1,0.000000,0.000000,1.895126,0.043672,0.228452,0.035978,0,0.000000,0.000000,0.000000,0,1,4.610856,9.681168,-0.035161,-4.678116,-0.460620,-0.059590,-0.019713,0.002906,0.222249,-0.004618,3.062016
15:40:07.221,2.100,42,9.676669,3.098165,-4.665131,1,0.000000,0.000000,1.908921,0.059856,0.219573,-0.011403,0,0.000000,0.000000,0.000000,0,1,4.588435,9.657749,-0.035177,-4.652018,-0.471433,-0.060318,0.010190,0.004230,0.222186,-0.004577,3.133427
15:40:07.271,2.150,43,9.653180,3.169387,-4.665951,1,0.000000,0.000000,1.886336,0.008635,0.225297,0.052828,0,0.000000,0.000000,0.000000,0,1,4.680427,9.633720,-0.038049,-4.651117,-0.482245,-0.063371,0.011137,0.004330,0.222257,-0.003277,3.207529
15:40:07.321,2.200,44,9.629158,3.240430,-4.666790,1,0.000000,0.000000,1.872548,0.042775,0.154049,0.008718,0,0.000000,0.000000,0.000000,0,1,4.647053,9.612946,-0.038795,-4.650471,-0.489861,-0.064059,0.011227,0.005184,0.220741,-0.003011,3.279306
15:40:07.371,2.250,45,9.604604,3.311292,-4.667648,1,0.000000,0.000000,1.904526,-0.018308,0.270855,0.014922,0,0.000000,0.000000,0.000000,0,1,4.636388,9.585462,-0.043696,-4.645810,-0.502651,-0.068974,0.015884,0.004674,0.221831,-0.002593,3.355113
15:40:07.421,2.300,46,9.579519,3.381967,-4.668524,1,0.000000,0.000000,1.901689,0.037013,0.270994,-0.015958,0,0.000000,0.000000,0.000000,0,1,4.568973,9.557016,-0.045629,-4.645112,-0.515887,-0.071162,0.015493,0.005362,0.222877,-0.002876,3.427750
15:40:07.471,2.350,47,9.553906,3.452452,-4.669418,1,0.000000,0.000000,1.903763,-0.049069,0.199860,0.038433,0,0.000000,0.000000,0.000000,0,1,4.594364,9.532653,-0.052368,-4.644019,-0.524934,-0.077031,0.016183,0.004228,0.222397,-0.002019,3.504977
15:40:07.521,2.400,48,9.527764,3.522742,-4.670331,1,0.000000,0.000000,1.903067,0.018809,0.209079,-0.003386,0,0.000000,0.000000,0.000000,0,1,4.728658,9.506858,-0.055337,-4.668234,-0.534984,-0.079633,-0.012042,0.004525,0.222125,-0.002235,3.578141
15:40:07.571,2.450,49,9.501097,3.592835,-4.671262,1,0.000000,0.000000,1.940133,-0.075775,0.187580,-0.012420,0,0.000000,0.000000,0.000000,0,1,4.721217,9.482515,-0.064153,-4.668909,-0.543049,-0.087067,-0.012343,0.002919,0.221435,-0.002438,3.657036
15:40:07.621,2.500,50,9.473905,3.662725,-4.672212,1,0.000000,0.000000,1.940835,0.008949,0.242276,-0.033691,0,0.000000,0.000000,0.000000,0,1,4.621984,9.453747,-0.068367,-4.669770,-0.554496,-0.090822,-0.013065,0.003038,0.221843,-0.003048,3.731147
15:40:07.671,2.550,51,9.446190,3.732410,-4.673179,1,0.000000,0.000000,1.925187,0.017245,0.245245,-0.024638,0,0.000000,0.000000,0.000000,0,1,4.638351,9.424154,-0.072256,-4.661216,-0.566220,-0.094042,-0.003053,0.003311,0.222293,-0.003391,3.804748
15:40:07.722,2.600,52,9.417954,3.801884,-4.674166,1,0.000000,0.000000,1.993381,0.002918,0.201284,0.054865,0,0.000000,0.000000,0.000000,0,1,4.668929,9.396967,-0.076936,-4.660978,-0.575397,-0.098278,-0.002196,0.003303,0.221897,-0.002298,3.878899
15:40:07.772,2.650,53,9.389197,3.871145,-4.675170,1,0.000000,0.000000,1.980057,0.041452,0.233569,0.049845,0,0.000000,0.000000,0.000000,0,1,4.650164,9.366864,-0.079504,-4.660697,-0.586564,-0.100790,-0.001361,0.004010,0.222113,-0.001337,3.950738
15:40:07.822,2.700,54,9.359923,3.940188,-4.676192,1,0.000000,0.000000,1.954379,-0.005870,0.239014,0.032006,0,0.000000,0.000000,0.000000,0,1,4.702384,9.336210,-0.085451,-4.672655,-0.597667,-0.105401,-0.014556,0.003830,0.222420,-0.000823,4.025710
15:40:07.872,2.750,55,9.330131,4.009009,-4.677232,1,0.000000,0.000000,1.944416,0.045019,0.203163,0.003294,0,0.000000,0.000000,0.000000,0,1,4.719541,9.307047,-0.087809,-4.673357,-0.607550,-0.107093,-0.014528,0.004566,0.222076,-0.000750,4.096885
15:40:07.922,2.800,56,9.299825,4.077605,-4.678291,1,0.000000,0.000000,1.959235,-0.017682,0.280040,-0.024132,0,0.000000,0.000000,0.000000,0,1,4.642582,9.272532,-0.095338,-4.674256,-0.620513,-0.112735,-0.014969,0.004175,0.223093,-0.001158,4.173034
15:40:07.972,2.850,57,9.269005,4.145971,-4.679367,1,0.000000,0.000000,1.992365,-0.069664,0.197891,0.011100,0,0.000000,0.000000,0.000000,0,1,4.706298,9.243727,-0.106132,-4.684009,-0.628817,-0.120444,-0.025119,0.002902,0.222659,-0.001012,4.252181
15:40:08.022,2.900,58,9.237673,4.214104,-4.680461,1,0.000000,0.000000,2.003436,-0.037839,0.229356,-0.000486,0,0.000000,0.000000,0.000000,0,1,4.649332,9.211932,-0.115292,-4.685263,-0.638897,-0.127024,-0.025161,0.002212,0.222772,-0.001003,4.329475
15:40:08.072,2.950,59,9.205832,4.282000,-4.681573,1,0.000000,0.000000,2.002604,-0.038768,0.208578,-0.042032,0,0.000000,0.000000,0.000000,0,1,4.701167,9.181185,-0.124645,-4.686813,-0.647948,-0.133425,-0.025880,0.001529,0.222536,-0.001683,4.406717
15:40:08.122,3.000,60,9.173483,4.349655,-4.682703,1,0.000000,0.000000,2.032687,-0.001873,0.287011,-0.014061,0,0.000000,0.000000,0.000000,0,1,4.688584,9.143733,-0.132351,-4.688315,-0.661028,-0.139158,-0.026297,0.001473,0.223593,-0.001885,4.482109
15:40:08.172,3.050,61,9.140628,4.417066,-4.683850,1,0.000000,0.000000,2.031593,-0.016479,0.152789,-0.002206,0,0.000000,0.000000,0.000000,0,1,4.598079,9.116019,-0.140053,-4.689634,-0.667459,-0.144172,-0.026396,0.001184,0.222451,-0.001890,4.557189
15:40:08.222,3.100,62,9.107268,4.484228,-4.685015,1,0.000000,0.000000,2.049619,0.029251,0.219355,0.031570,0,0.000000,0.000000,0.000000,0,1,4.700668,9.082331,-0.145181,-4.690728,-0.677515,-0.147856,-0.025975,0.001629,0.222402,-0.001363,4.629480
15:40:08.272,3.150,63,9.073406,4.551138,-4.686197,1,0.000000,0.000000,2.051320,0.017540,0.225763,-0.016500,0,0.000000,0.000000,0.000000,0,1,4.643093,9.047764,-0.151488,-4.677934,-0.687752,-0.152194,-0.010164,0.001878,0.222454,-0.001504,4.702703
15:40:08.322,3.200,64,9.039043,4.617792,-4.687397,1,0.000000,0.000000,2.043519,-0.015735,0.223104,0.007774,0,0.000000,0.000000,0.000000,0,1,4.650896,9.013281,-0.160635,-4.678389,-0.697530,-0.158030,-0.010109,0.001607,0.222464,-0.001362,4.778505
15:40:08.373,3.250,65,9.004182,4.684186,-4.688615,1,0.000000,0.000000,2.054998,0.019008,0.225298,0.009863,0,0.000000,0.000000,0.000000,0,1,4.768965,8.977718,-0.167289,-4.678823,-0.707748,-0.162332,-0.010013,0.001870,0.222507,-0.001193,4.851557
15:40:08.423,3.300,66,8.968824,4.750317,-4.689849,1,0.000000,0.000000,2.073766,-0.020515,0.250283,0.048825,0,0.000000,0.000000,0.000000,0,1,4.747684,8.940083,-0.177723,-4.698869,-0.718614,-0.169012,-0.031902,0.001536,0.222922,-0.000579,4.928132
15:40:08.473,3.350,67,8.932971,4.816180,-4.691101,1,0.000000,0.000000,2.092150,-0.035835,0.192277,-0.000278,0,0.000000,0.000000,0.000000,0,1,4.645629,8.906944,-0.189031,-4.700463,-0.726405,-0.175926,-0.031927,0.000987,0.222471,-0.000574,5.005287
15:40:08.523,3.400,68,8.896626,4.881772,-4.692371,1,0.000000,0.000000,2.060885,0.002728,0.170819,-0.010675,0,0.000000,0.000000,0.000000,0,1,4.688800,8.874720,-0.197124,-4.702123,-0.733789,-0.180415,-0.032095,0.001012,0.221722,-0.000720,5.078953
15:40:08.573,3.450,69,8.859790,4.947090,-4.693657,1,0.000000,0.000000,2.085470,0.049317,0.188345,-0.002338,0,0.000000,0.000000,0.000000,0,1,4.737634,8.839987,-0.201685,-4.713556,-0.742456,-0.183110,-0.043291,0.001702,0.221246,-0.000802,5.148852
15:40:08.623,3.500,70,8.822466,5.012130,-4.694960,1,0.000000,0.000000,2.094512,-0.040723,0.265605,0.018761,0,0.000000,0.000000,0.000000,0,1,4.598497,8.799370,-0.215287,-4.715615,-0.753673,-0.191144,-0.043085,0.001104,0.221870,-0.000529,5.227509
15:40:08.673,3.550,71,8.784655,5.076888,-4.696281,1,0.000000,0.000000,2.090177,-0.009731,0.217900,0.021090,0,0.000000,0.000000,0.000000,0,1,4.672135,8.761951,-0.225876,-4.717640,-0.763005,-0.197070,-0.042828,0.000954,0.221815,-0.000231,5.302856
15:40:08.723,3.600,72,8.746359,5.141360,-4.697618,1,0.000000,0.000000,2.110056,0.022214,0.179503,-0.033481,0,0.000000,0.000000,0.000000,0,1,4.714670,8.727017,-0.233343,-4.718457,-0.770801,-0.201172,-0.041541,0.001245,0.221236,-0.000674,5.374778
15:40:08.773,3.650,73,8.707582,5.205543,-4.698972,1,0.000000,0.000000,2.114299,0.014311,0.235381,-0.011600,0,0.000000,0.000000,0.000000,0,1,4.677477,8.686761,-0.242581,-4.720592,-0.781142,-0.206400,-0.041705,0.001422,0.221427,-0.000820,5.448206
15:40:08.823,3.700,74,8.668325,5.269433,-4.700343,1,0.000000,0.000000,2.107460,-0.023943,0.263472,-0.037068,0,0.000000,0.000000,0.000000,0,1,4.704118,8.644020,-0.256026,-4.722886,-0.792360,-0.213755,-0.042199,0.001084,0.221987,-0.001299,5.525559
15:40:08.873,3.750,75,8.628589,5.333027,-4.701731,1,0.000000,0.000000,2.115817,-0.010276,0.241539,0.016854,0,0.000000,0.000000,0.000000,0,1,4.735923,8.602538,-0.268227,-4.728079,-0.802657,-0.220261,-0.045653,0.000934,0.222245,-0.001080,5.601376
15:40:08.923,3.800,76,8.588379,5.396320,-4.703135,1,0.000000,0.000000,2.123112,0.014530,0.211928,-0.047765,0,0.000000,0.000000,0.000000,0,1,4.699063,8.562908,-0.277937,-4.730595,-0.811835,-0.225268,-0.046239,0.001111,0.222111,-0.001681,5.674381
15:40:08.973,3.850,77,8.547695,5.459311,-4.704556,1,0.000000,0.000000,2.105031,0.033713,0.269125,-0.042329,0,0.000000,0.000000,0.000000,0,1,4.694592,8.517053,-0.287053,-4.733132,-0.824090,-0.229969,-0.046806,0.001529,0.222713,-0.002197,5.746517
15:40:09.023,3.900,78,8.506540,5.521994,-4.705993,1,0.000000,0.000000,2.149722,0.012732,0.223286,-0.034130,0,0.000000,0.000000,0.000000,0,1,4.700596,8.475362,-0.297636,-4.725514,-0.833634,-0.235476,-0.035802,0.001670,0.222721,-0.002543,5.819746
15:40:09.074,3.950,79,8.464916,5.584366,-4.707446,1,0.000000,0.000000,2.162440,-0.041792,0.170800,-0.041884,0,0.000000,0.000000,0.000000,0,1,4.699727,8.439283,-0.312849,-4.727494,-0.839868,-0.242947,-0.036357,0.001127,0.222072,-0.003030,5.897306
15:40:09.124,4.000,80,8.422826,5.646425,-4.708916,1,0.000000,0.000000,2.189453,0.001964,0.210974,0.001996,0,0.000000,0.000000,0.000000,0,1,4.698013,8.398139,-0.324868,-4.729290,-0.848435,-0.249144,-0.036452,0.001138,0.221935,-0.002969,5.971379
15:40:09.174,4.050,81,8.380272,5.708166,-4.710402,1,0.000000,0.000000,2.150112,-0.039921,0.283626,-0.018258,0,0.000000,0.000000,0.000000,0,1,4.663314,8.350128,-0.342738,-4.711554,-0.860070,-0.257984,-0.014511,0.000637,0.222687,-0.003053,6.050978
15:40:09.224,4.100,82,8.337256,5.769585,-4.711904,1,0.000000,0.000000,2.184248,0.011594,0.256741,-0.039275,0,0.000000,0.000000,0.000000,0,1,4.722381,8.303254,-0.355359,-4.712448,-0.870950,-0.264345,-0.015041,0.000769,0.223097,-0.003485,6.125038
15:40:09.274,4.150,83,8.293782,5.830680,-4.713422,1,0.000000,0.000000,2.169440,-0.023861,0.211266,-0.061317,0,0.000000,0.000000,0.000000,0,1,4.763351,8.261173,-0.371003,-4.713495,-0.879272,-0.271582,-0.015845,0.000476,0.222956,-0.004167,6.201769
15:40:09.324,4.200,84,8.249850,5.891448,-4.714957,1,0.000000,0.000000,2.171041,0.051315,0.225398,-0.000043,0,0.000000,0.000000,0.000000,0,1,4.644199,8.215685,-0.379556,-4.693993,-0.889350,-0.275513,0.006970,0.001074,0.222985,-0.004020,6.271132
15:40:09.374,4.250,85,8.205465,5.951883,-4.716507,1,0.000000,0.000000,2.207876,-0.020946,0.251864,-0.068499,0,0.000000,0.000000,0.000000,0,1,4.675383,8.168450,-0.396395,-4.693930,-0.899366,-0.283563,0.006125,0.000818,0.223321,-0.004762,6.348426
15:40:09.424,4.300,86,8.160627,6.011984,-4.718072,1,0.000000,0.000000,2.181129,-0.008157,0.187430,-0.051556,0,0.000000,0.000000,0.000000,0,1,4.757648,8.127221,-0.410904,-4.693856,-0.906728,-0.289807,0.005397,0.000715,0.222908,-0.005294,6.423020
15:40:09.474,4.350,87,8.115341,6.071747,-4.719654,1,0.000000,0.000000,2.231853,-0.037632,0.163593,0.002056,0,0.000000,0.000000,0.000000,0,1,4.688869,8.088815,-0.428334,-4.692198,-0.912196,-0.297504,0.006748,0.000279,0.222234,-0.005205,6.500193
15:40:09.524,4.400,88,8.069607,6.131169,-4.721251,1,0.000000,0.000000,2.236004,0.039029,0.260730,-0.013930,0,0.000000,0.000000,0.000000,0,1,4.756484,8.037977,-0.440085,-4.691904,-0.923337,-0.303142,0.006404,0.000714,0.222667,-0.005302,6.571395
15:40:09.574,4.450,89,8.023430,6.190245,-4.722863,1,0.000000,0.000000,2.244166,0.008631,0.222375,-0.009617,0,0.000000,0.000000,0.000000,0,1,4.747414,7.991441,-0.454549,-4.691610,-0.932173,-0.309685,0.006096,0.000802,0.222664,-0.005349,6.644945
15:40:09.624,4.500,90,7.976811,6.248973,-4.724491,1,0.000000,0.000000,2.222216,0.034618,0.192411,-0.011309,0,0.000000,0.000000,0.000000,0,1,4.760259,7.947130,-0.465779,-4.711280,-0.940181,-0.314357,-0.016820,0.001174,0.222331,-0.005504,6.714831
15:40:09.674,4.550,91,7.929753,6.307350,-4.726135,1,0.000000,0.000000,2.257659,-0.029655,0.284870,0.025920,0,0.000000,0.000000,0.000000,0,1,4.753183,7.893721,-0.486596,-4.712001,-0.951218,-0.323786,-0.016804,0.000839,0.223011,-0.005166,6.794056
15:40:09.724,4.600,92,7.882259,6.365372,-4.727793,1,0.000000,0.000000,2.260433,0.067549,0.305394,0.041279,0,0.000000,0.000000,0.000000,0,1,4.646480,7.835081,-0.497531,-4.712641,-0.964730,-0.329094,-0.016612,0.001556,0.223897,-0.004672,6.863081
15:40:09.775,4.650,93,7.834332,6.423036,-4.729467,1,0.000000,0.000000,2.289833,-0.013254,0.190937,-0.024355,0,0.000000,0.000000,0.000000,0,1,4.668816,7.790730,-0.515011,-4.700627,-0.971443,-0.336554,-0.002380,0.001398,0.223546,-0.004823,6.938243
15:40:09.825,4.700,94,7.785973,6.480338,-4.731156,1,0.000000,0.000000,2.287289,0.024634,0.179223,0.025127,0,0.000000,0.000000,0.000000,0,1,4.692144,7.746405,-0.528227,-4.700636,-0.978260,-0.342042,-0.002353,0.001643,0.223080,-0.004511,7.008744
15:40:09.875,4.750,95,7.737187,6.537276,-4.732859,1,0.000000,0.000000,2.224945,0.007969,0.186388,0.003634,0,0.000000,0.000000,0.000000,0,1,4.730949,7.701329,-0.543803,-4.700724,-0.985580,-0.347863,-0.002502,0.001709,0.222697,-0.004427,7.081243
15:40:09.925,4.800,96,7.687975,6.593847,-4.734578,1,0.000000,0.000000,2.270557,0.004180,0.225039,-0.032962,0,0.000000,0.000000,0.000000,0,1,4.758593,7.651497,-0.561150,-4.717651,-0.994302,-0.354895,-0.021874,0.001734,0.222721,-0.004788,7.155109
15:40:09.975,4.850,97,7.638340,6.650046,-4.736311,1,0.000000,0.000000,2.248400,0.017977,0.203321,-0.013494,0,0.000000,0.000000,0.000000,0,1,4.743361,7.603395,-0.576628,-4.718783,-1.002418,-0.360736,-0.022189,0.001900,0.222524,-0.004876,7.226780
15:40:10.025,4.900,98,7.588286,6.705872,-4.738059,1,0.000000,0.000000,2.317612,-0.017503,0.222572,-0.018472,0,0.000000,0.000000,0.000000,0,1,4.765043,7.553606,-0.597152,-4.719955,-1.010318,-0.369113,-0.022556,0.001704,0.222524,-0.005012,7.303129
15:40:10.075,4.950,99,7.537815,6.761320,-4.739821,1,0.000000,0.000000,2.291662,0.024504,0.226917,0.004582,0,0.000000,0.000000,0.000000,0,1,4.645373,7.501703,-0.613189,-4.699160,-1.019327,-0.375427,0.002072,0.001932,0.222568,-0.004828,7.374710
15:40:10.125,5.000,100,7.486929,6.816388,-4.741598,1,0.000000,0.000000,2.280475,0.061360,0.228217,-0.020680,0,0.000000,0.000000,0.000000,0,1,4.787166,7.448109,-0.625135,-4.699120,-1.029124,-0.379995,0.001698,0.002520,0.222624,-0.004983,7.441745
15:40:10.175,5.050,101,7.435632,6.871072,-4.743390,1,0.000000,0.000000,2.345142,-0.027295,0.232377,0.006893,0,0.000000,0.000000,0.000000,0,1,4.753015,7.396152,-0.648247,-4.698994,-1.037089,-0.389216,0.001553,0.002228,0.222719,-0.004868,7.519553
15:40:10.225,5.100,102,7.383927,6.925370,-4.745195,1,0.000000,0.000000,2.313449,-0.025927,0.231006,0.003322,0,0.000000,0.000000,0.000000,0,1,4.746425,7.343927,-0.671603,-4.712634,-1.045244,-0.398090,-0.014186,0.001955,0.222800,-0.004844,7.597148
15:40:10.275,5.150,103,7.331816,6.979278,-4.747015,1,0.000000,0.000000,2.325753,-0.010805,0.198523,0.019758,0,0.000000,0.000000,0.000000,0,1,4.726608,7.294862,-0.692526,-4.713263,-1.052096,-0.405796,-0.014228,0.001832,0.222567,-0.004610,7.671968
15:40:10.325,5.200,104,7.279302,7.032794,-4.748849,1,0.000000,0.000000,2.322921,0.000748,0.225730,-0.005800,0,0.000000,0.000000,0.000000,0,1,4.777844,7.241692,-0.713240,-4.713985,-1.060409,-0.413438,-0.014469,0.001822,0.222597,-0.004621,7.746204
15:40:10.375,5.250,105,7.226389,7.085914,-4.750697,1,0.000000,0.000000,2.341909,-0.008052,0.238579,-0.024326,0,0.000000,0.000000,0.000000,0,1,4.708890,7.186773,-0.735862,-4.713090,-1.068995,-0.421866,-0.012941,0.001729,0.222747,-0.004798,7.821967
15:40:10.425,5.300,106,7.173079,7.138636,-4.752558,1,0.000000,0.000000,2.351669,-0.010340,0.265179,-0.014658,0,0.000000,0.000000,0.000000,0,1,4.717037,7.128127,-0.760074,-4.713777,-1.078656,-0.430968,-0.013258,0.001616,0.223144,-0.004889,7.898933
15:40:10.476,5.350,107,7.119376,7.190956,-4.754434,1,0.000000,0.000000,2.390919,0.017623,0.173196,-0.006403,0,0.000000,0.000000,0.000000,0,1,4.743428,7.079869,-0.778106,-4.714451,-1.084378,-0.437425,-0.013515,0.001764,0.222681,-0.004903,7.969261
15:40:10.526,5.400,108,7.065282,7.242872,-4.756323,1,0.000000,0.000000,2.359705,0.007921,0.217235,0.020311,0,0.000000,0.000000,0.000000,0,1,4.768752,7.025947,-0.799193,-4.730563,-1.092157,-0.444886,-0.031135,0.001821,0.222632,-0.004732,8.042202
15:40:10.576,5.450,109,7.010800,7.294380,-4.758225,1,0.000000,0.000000,2.408569,-0.027928,0.267075,-0.007904,0,0.000000,0.000000,0.000000,0,1,4.739787,6.966391,-0.827056,-4.732136,-1.101101,-0.455267,-0.031396,0.001550,0.223036,-0.004760,8.121600
15:40:10.626,5.500,110,6.955934,7.345478,-4.760141,1,0.000000,0.000000,2.389202,0.053571,0.246759,-0.042808,0,0.000000,0.000000,0.000000,0,1,4.824860,6.906195,-0.844026,-4.733852,-1.110827,-0.461484,-0.031941,0.002019,0.223249,-0.005099,8.189697
15:40:10.676,5.550,111,6.900686,7.396163,-4.762070,1,0.000000,0.000000,2.409203,-0.028474,0.186053,0.041058,0,0.000000,0.000000,0.000000,0,1,4.737862,6.856483,-0.870008,-4.736018,-1.116124,-0.470362,-0.032656,0.001747,0.222917,-0.004694,8.266330
15:40:10.726,5.600,112,6.845060,7.446431,-4.764013,1,0.000000,0.000000,2.407086,0.009536,0.285743,-0.014175,0,0.000000,0.000000,0.000000,0,1,4.711369,6.791822,-0.894987,-4.737688,-1.126602,-0.479444,-0.032962,0.001815,0.223473,-0.004777,8.341630
15:40:10.776,5.650,113,6.789058,7.496281,-4.765969,1,0.000000,0.000000,2.401875,0.014980,0.235277,-0.028494,0,0.000000,0.000000,0.000000,0,1,4.766666,6.733226,-0.917833,-4.739426,-1.134982,-0.487283,-0.033387,0.001931,0.223577,-0.004983,8.414341
15:40:10.826,5.700,114,6.732685,7.545709,-4.767937,1,0.000000,0.000000,2.453524,0.033836,0.284656,-0.017124,0,0.000000,0.000000,0.000000,0,1,4.702611,6.666815,-0.940399,-4.730007,-1.145486,-0.495646,-0.021117,0.002208,0.224108,-0.005048,8.486448
15:40:10.876,5.750,115,6.675943,7.594713,-4.769919,1,0.000000,0.000000,2.441492,-0.064273,0.233864,-0.034049,0,0.000000,0.000000,0.000000,0,1,4.834020,6.610585,-0.974845,-4.731160,-1.151902,-0.507273,-0.021581,0.001635,0.224192,-0.005295,8.569895
15:40:10.926,5.800,116,6.618835,7.643289,-4.771913,1,0.000000,0.000000,2.432842,0.017180,0.219894,-0.026359,0,0.000000,0.000000,0.000000,0,1,4.777576,6.552788,-0.998114,-4.732318,-1.159382,-0.514959,-0.022007,0.001768,0.224155,-0.005473,8.641746
15:40:10.976,5.850,117,6.561364,7.691436,-4.773920,1,0.000000,0.000000,2.415435,-0.002506,0.172298,0.025229,0,0.000000,0.000000,0.000000,0,1,4.791565,6.501988,-1.022598,-4.750152,-1.164524,-0.522425,-0.041109,0.001732,0.223716,-0.005273,8.714268
15:40:11.026,5.900,118,6.503535,7.739150,-4.775939,1,0.000000,0.000000,2.431653,-0.044486,0.259377,0.002988,0,0.000000,0.000000,0.000000,0,1,4.816203,6.440470,-1.056825,-4.752189,-1.172508,-0.533602,-0.041314,0.001344,0.224015,-0.005205,8.796233
15:40:11.076,5.950,119,6.445349,7.786428,-4.777971,1,0.000000,0.000000,2.470039,0.013651,0.238688,-0.045592,0,0.000000,0.000000,0.000000,0,1,4.760262,6.379099,-1.082597,-4.754398,-1.180423,-0.542090,-0.041875,0.001446,0.224138,-0.005537,8.869304
15:40:11.126,6.000,120,6.386810,7.833269,-4.780015,1,0.000000,0.000000,2.465137,0.008620,0.187004,0.029744,0,0.000000,0.000000,0.000000,0,1,4.807331,6.324861,-1.107349,-4.771101,-1.186022,-0.549707,-0.058562,0.001505,0.223831,-0.005298,8.940837
15:40:11.176,6.050,121,6.327923,7.879669,-4.782072,1,0.000000,0.000000,2.476984,-0.034645,0.260563,-0.022424,0,0.000000,0.000000,0.000000,0,1,4.762601,6.261683,-1.141772,-4.774087,-1.193833,-0.560806,-0.058945,0.001209,0.224132,-0.005436,9.021688
15:40:11.227,6.100,122,6.268689,7.925626,-4.784140,1,0.000000,0.000000,2.462997,-0.006680,0.211933,0.021186,0,0.000000,0.000000,0.000000,0,1,4.760633,6.203908,-1.170635,-4.776953,-1.200220,-0.569580,-0.059023,0.001145,0.224033,-0.005223,9.096495
15:40:11.277,6.150,123,6.209112,7.971137,-4.786221,1,0.000000,0.000000,2.482754,-0.031311,0.298400,-0.025398,0,0.000000,0.000000,0.000000,0,1,4.730345,6.134392,-1.207295,-4.765633,-1.209663,-0.581373,-0.043188,0.000883,0.224632,-0.005337,9.178759
15:40:11.327,6.200,124,6.149195,8.016199,-4.788313,1,0.000000,0.000000,2.516124,-0.016532,0.256169,-0.013983,0,0.000000,0.000000,0.000000,0,1,4.715128,6.069927,-1.240534,-4.767824,-1.217269,-0.591874,-0.043513,0.000744,0.224885,-0.005405,9.257096
15:40:11.377,6.250,125,6.088943,8.060811,-4.790417,1,0.000000,0.000000,2.491239,0.023085,0.210356,0.016576,0,0.000000,0.000000,0.000000,0,1,4.772119,6.010011,-1.266417,-4.769935,-1.223957,-0.599527,-0.043627,0.000921,0.224769,-0.005233,9.327584
15:40:11.427,6.300,126,6.028358,8.104969,-4.792533,1,0.000000,0.000000,2.473535,-0.010145,0.242180,0.029722,0,0.000000,0.000000,0.000000,0,1,4.770839,5.946577,-1.299048,-4.771664,-1.231467,-0.609171,-0.043249,0.000834,0.224906,-0.004960,9.404396
15:40:11.477,6.350,127,5.967444,8.148672,-4.794660,1,0.000000,0.000000,2.534593,-0.006494,0.229813,-0.001159,0,0.000000,0.000000,0.000000,0,1,4.764985,5.884456,-1.331055,-4.773821,-1.237967,-0.618805,-0.043472,0.000777,0.224945,-0.004931,9.480113
15:40:11.527,6.400,128,5.906204,8.191916,-4.796799,1,0.000000,0.000000,2.523691,-0.058864,0.174479,-0.032031,0,0.000000,0.000000,0.000000,0,1,4.763841,5.832774,-1.368751,-4.776087,-1.241055,-0.629404,-0.043906,0.000314,0.224554,-0.005138,9.560971
15:40:11.577,6.450,129,5.844641,8.234699,-4.798948,1,0.000000,0.000000,2.498381,0.025311,0.274598,0.049171,0,0.000000,0.000000,0.000000,0,1,4.859713,5.761813,-1.399093,-4.801694,-1.250487,-0.638408,-0.070483,0.000507,0.224939,-0.004799,9.634149
15:40:11.627,6.500,130,5.782760,8.277019,-4.801109,1,0.000000,0.000000,2.544969,0.004802,0.285972,0.014367,0,0.000000,0.000000,0.000000,0,1,4.875647,5.689670,-1.433580,-4.805171,-1.259522,-0.648862,-0.070599,0.000540,0.225404,-0.004654,9.711046
15:40:11.677,6.550,131,5.720563,8.318873,-4.803281,1,0.000000,0.000000,2.530176,0.029358,0.193448,0.026871,0,0.000000,0.000000,0.000000,0,1,4.810992,5.629975,-1.460272,-4.808610,-1.265296,-0.656140,-0.070618,0.000758,0.225162,-0.004418,9.779566
15:40:11.727,6.600,132,5.658054,8.360260,-4.805464,1,0.000000,0.000000,2.568768,-0.032909,0.234894,0.054516,0,0.000000,0.000000,0.000000,0,1,4.869241,5.566759,-1.498973,-4.828510,-1.271089,-0.667225,-0.089174,0.000505,0.225236,-0.004031,9.859682
15:40:11.777,6.650,133,5.595236,8.401176,-4.807658,1,0.000000,0.000000,2.583202,0.055210,0.212205,-0.000111,0,0.000000,0.000000,0.000000,0,1,4.877803,5.502271,-1.523456,-4.832963,-1.277758,-0.674158,-0.089351,0.000913,0.225138,-0.004002,9.925100
15:40:11.827,6.700,134,5.532114,8.441620,-4.809862,1,0.000000,0.000000,2.571787,-0.006189,0.252680,-0.016625,0,0.000000,0.000000,0.000000,0,1,4.956455,5.434318,-1.559933,-4.837473,-1.284869,-0.684535,-0.089635,0.000860,0.225342,-0.004094,10.002069
15:40:11.877,6.750,135,5.468690,8.481588,-4.812077,1,0.000000,0.000000,2.596863,0.038720,0.214196,-0.059136,0,0.000000,0.000000,0.000000,0,1,4.838496,5.369678,-1.587893,-4.841089,-1.291140,-0.692304,-0.089028,0.001139,0.225260,-0.004491,10.070010
15:40:11.927,6.800,136,5.404969,8.521080,-4.814302,1,0.000000,0.000000,2.546973,-0.032639,0.180422,0.048531,0,0.000000,0.000000,0.000000,0,1,4.802921,5.313820,-1.625662,-4.845406,-1.294841,-0.701989,-0.088925,0.000892,0.224933,-0.004109,10.147199
15:40:11.978,6.850,137,5.340953,8.560093,-4.816538,1,0.000000,0.000000,2.601455,0.009484,0.266003,0.010132,0,0.000000,0.000000,0.000000,0,1,4.718610,5.241967,-1.661865,-4.849815,-1.302579,-0.712201,-0.089038,0.000954,0.225231,-0.004007,10.222491
15:40:12.028,6.900,138,5.276647,8.598624,-4.818783,1,0.000000,0.000000,2.613854,-0.010688,0.232010,-0.017797,0,0.000000,0.000000,0.000000,0,1,4.896833,5.176255,-1.699944,-4.866608,-1.308303,-0.722549,-0.103247,0.000871,0.225279,-0.004140,10.299167
15:40:12.078,6.950,139,5.212054,8.636671,-4.821039,1,0.000000,0.000000,2.592927,0.018371,0.252963,-0.039635,0,0.000000,0.000000,0.000000,0,1,4.809467,5.105284,-1.735049,-4.871867,-1.315775,-0.732056,-0.103669,0.000996,0.225477,-0.004390,10.372394
15:40:12.128,7.000,140,5.147177,8.674232,-4.823304,1,0.000000,0.000000,2.636183,0.029796,0.211911,-0.035710,0,0.000000,0.000000,0.000000,0,1,4.828403,5.039918,-1.766493,-4.877146,-1.321392,-0.740383,-0.104088,0.001200,0.225381,-0.004610,10.441415
15:40:12.178,7.050,141,5.082021,8.711306,-4.825580,1,0.000000,0.000000,2.589042,-0.007566,0.227872,-0.019699,0,0.000000,0.000000,0.000000,0,1,4.939657,4.973797,-1.805314,-4.898955,-1.327254,-0.750365,-0.123156,0.001138,0.225398,-0.004761,10.517433
15:40:12.228,7.100,142,5.016588,8.747889,-4.827865,1,0.000000,0.000000,2.661697,0.004443,0.241317,-0.025184,0,0.000000,0.000000,0.000000,0,1,4.847082,4.904518,-1.843467,-4.905171,-1.333242,-0.760579,-0.123515,0.001161,0.225510,-0.004902,10.592231
15:40:12.278,7.150,143,4.950883,8.783981,-4.830159,1,0.000000,0.000000,2.621938,0.003474,0.236102,0.027080,0,0.000000,0.000000,0.000000,0,1,4.884188,4.835843,-1.881983,-4.911262,-1.339382,-0.770495,-0.123561,0.001177,0.225583,-0.004683,10.666893
15:40:12.328,7.200,144,4.884910,8.819578,-4.832463,1,0.000000,0.000000,2.642715,0.007744,0.247277,-0.003505,0,0.000000,0.000000,0.000000,0,1,4.803631,4.764772,-1.920966,-4.884543,-1.345878,-0.780625,-0.086541,0.001223,0.225733,-0.004584,10.741342
15:40:12.378,7.250,145,4.818672,8.854679,-4.834776,1,0.000000,0.000000,2.634792,-0.033994,0.236622,-0.027191,0,0.000000,0.000000,0.000000,0,1,4.876153,4.697662,-1.966735,-4.888932,-1.351002,-0.792166,-0.086902,0.000981,0.225808,-0.004737,10.822226
15:40:12.428,7.300,146,4.752172,8.889282,-4.837098,1,0.000000,0.000000,2.663859,0.008223,0.320183,-0.000042,0,0.000000,0.000000,0.000000,0,1,4.803093,4.613816,-2.011160,-4.893270,-1.360259,-0.804172,-0.087110,0.001031,0.226450,-0.004705,10.901466
15:40:12.478,7.350,147,4.685415,8.923386,-4.839429,1,0.000000,0.000000,2.668031,-0.007035,0.177314,0.010799,0,0.000000,0.000000,0.000000,0,1,4.800515,4.554403,-2.049926,-4.869524,-1.363275,-0.813350,-0.055481,0.000976,0.226118,-0.004526,10.974135
15:40:12.528,7.400,148,4.618404,8.956987,-4.841770,1,0.000000,0.000000,2.682291,-0.001063,0.221006,0.017737,0,0.000000,0.000000,0.000000,0,1,4.793634,4.487101,-2.090869,-4.872250,-1.368073,-0.823419,-0.055580,0.000963,0.226083,-0.004378,11.048678
15:40:12.578,7.450,149,4.551143,8.990084,-4.844118,1,0.000000,0.000000,2.698888,0.028406,0.234025,0.008560,0,0.000000,0.000000,0.000000,0,1,4.901866,4.415486,-2.128154,-4.874999,-1.373959,-0.832701,-0.055722,0.001145,0.226136,-0.004293,11.119109
15:40:12.628,7.500,150,4.483636,9.022676,-4.846476,1,0.000000,0.000000,2.731921,0.008716,0.224719,-0.023650,0,0.000000,0.000000,0.000000,0,1,4.863157,4.346427,-2.168668,-4.873602,-1.378647,-0.842710,-0.051250,0.001196,0.226127,-0.004409,11.192218
15:40:12.678,7.550,151,4.415887,9.054760,-4.848842,1,0.000000,0.000000,2.701927,-0.032667,0.279352,0.003485,0,0.000000,0.000000,0.000000,0,1,4.842279,4.270478,-2.220323,-4.876151,-1.384801,-0.855606,-0.051427,0.000973,0.226477,-0.004357,11.276054
15:40:12.729,7.600,152,4.347899,9.086335,-4.851216,1,0.000000,0.000000,2.686424,0.027526,0.193631,0.014791,0,0.000000,0.000000,0.000000,0,1,4.792813,4.205006,-2.256622,-4.878677,-1.389177,-0.863867,-0.051532,0.001146,0.226262,-0.004234,11.343890
15:40:12.779,7.650,153,4.279676,9.117399,-4.853598,1,0.000000,0.000000,2.722644,0.019498,0.199454,0.031433,0,0.000000,0.000000,0.000000,0,1,4.853716,4.138836,-2.295109,-4.873223,-1.393227,-0.872769,-0.042547,0.001266,0.226088,-0.003985,11.413394
15:40:12.829,7.700,154,4.211222,9.147950,-4.855989,1,0.000000,0.000000,2.699811,0.014591,0.202223,0.012351,0,0.000000,0.000000,0.000000,0,1,4.824984,4.072294,-2.335072,-4.875317,-1.397507,-0.881824,-0.042656,0.001352,0.225934,-0.003881,11.483878
15:40:12.879,7.750,155,4.142542,9.177986,-4.858387,1,0.000000,0.000000,2.747602,0.007332,0.240732,0.047603,0,0.000000,0.000000,0.000000,0,1,4.861065,3.999316,-2.379394,-4.877320,-1.402645,-0.892371,-0.042555,0.001390,0.226029,-0.003555,11.558283
15:40:12.929,7.800,156,4.073638,9.207506,-4.860793,1,0.000000,0.000000,2.724518,0.011913,0.223212,0.019231,0,0.000000,0.000000,0.000000,0,1,4.946524,3.928832,-2.422229,-4.898793,-1.407446,-0.902187,-0.064563,0.001457,0.226011,-0.003462,11.630698
15:40:12.979,7.850,157,4.004514,9.236508,-4.863207,1,0.000000,0.000000,2.733592,-0.045511,0.318793,-0.026942,0,0.000000,0.000000,0.000000,0,1,4.779240,3.845292,-2.482392,-4.902079,-1.414438,-0.916775,-0.064862,0.001160,0.226598,-0.003608,11.720046
15:40:13.029,7.900,158,3.935176,9.264991,-4.865628,1,0.000000,0.000000,2.772359,-0.005587,0.213890,0.056714,0,0.000000,0.000000,0.000000,0,1,4.826353,3.777196,-2.528786,-4.905173,-1.417907,-0.927256,-0.064702,0.001117,0.226518,-0.003234,11.794901
15:40:13.079,7.950,159,3.865625,9.292952,-4.868057,1,0.000000,0.000000,2.738126,-0.013202,0.226605,-0.000168,0,0.000000,0.000000,0.000000,0,1,4.846950,3.707203,-2.577962,-4.890640,-1.422035,-0.938213,-0.044738,0.001028,0.226519,-0.003171,11.871993
15:40:13.129,8.000,160,3.795868,9.320391,-4.870493,1,0.000000,0.000000,2.778700,-0.000731,0.240990,-0.029901,0,0.000000,0.000000,0.000000,0,1,4.866848,3.633541,-2.626505,-4.892941,-1.426622,-0.949230,-0.045038,0.001017,0.226609,-0.003334,11.948020
15:40:13.179,8.050,161,3.725906,9.347305,-4.872936,1,0.000000,0.000000,2.767851,0.023909,0.244521,0.048226,0,0.000000,0.000000,0.000000,0,1,4.875399,3.557201,-2.671437,-4.895068,-1.432104,-0.959342,-0.044919,0.001158,0.226719,-0.003021,12.019947
15:40:13.229,8.100,162,3.655745,9.373694,-4.875386,1,0.000000,0.000000,2.780600,0.013572,0.237633,-0.000447,0,0.000000,0.000000,0.000000,0,1,4.935621,3.482600,-2.718242,-4.908384,-1.436913,-0.969735,-0.057590,0.001234,0.226786,-0.003032,12.093221
15:40:13.279,8.150,163,3.585388,9.399555,-4.877843,1,0.000000,0.000000,2.757162,0.021265,0.268261,0.022683,0,0.000000,0.000000,0.000000,0,1,4.906987,3.401618,-2.766486,-4.911210,-1.443356,-0.980552,-0.057609,0.001356,0.227039,-0.002878,12.167475
15:40:13.329,8.200,164,3.514839,9.424888,-4.880307,1,0.000000,0.000000,2.812429,-0.058366,0.216857,-0.027487,0,0.000000,0.000000,0.000000,0,1,4.850310,3.335765,-2.825881,-4.914155,-1.445104,-0.993298,-0.057886,0.000994,0.226978,-0.003025,12.252125
15:40:13.379,8.250,165,3.444102,9.449691,-4.882777,1,0.000000,0.000000,2.806254,0.010153,0.217671,0.021363,0,0.000000,0.000000,0.000000,0,1,4.876245,3.264411,-2.873420,-4.905210,-1.448775,-1.003398,-0.044568,0.001050,0.226922,-0.002851,12.324441
15:40:13.430,8.300,166,3.373181,9.473962,-4.885254,1,0.000000,0.000000,2.802711,0.032670,0.238271,0.015807,0,0.000000,0.000000,0.000000,0,1,4.936667,3.187325,-2.918933,-4.907402,-1.453882,-1.013179,-0.044616,0.001239,0.226990,-0.002741,12.394308
15:40:13.480,8.350,167,3.302080,9.497700,-4.887737,1,0.000000,0.000000,2.817103,0.002138,0.220818,0.002660,0,0.000000,0.000000,0.000000,0,1,4.743579,3.115607,-2.969207,-4.909623,-1.457348,-1.023715,-0.044725,0.001244,0.226953,-0.002710,12.468321
15:40:13.530,8.400,168,3.230804,9.520903,-4.890226,1,0.000000,0.000000,2.806544,0.007104,0.195129,0.014005,0,0.000000,0.000000,0.000000,0,1,4.889229,3.048076,-3.017036,-4.905289,-1.460090,-1.033324,-0.037376,0.001279,0.226764,-0.002597,12.539280
15:40:13.580,8.450,169,3.159355,9.543572,-4.892721,1,0.000000,0.000000,2.852666,-0.011679,0.174929,0.006086,0,0.000000,0.000000,0.000000,0,1,4.850279,2.985684,-3.067204,-4.907142,-1.461068,-1.043249,-0.037463,0.001203,0.226460,-0.002546,12.611980
15:40:13.630,8.500,170,3.087739,9.565703,-4.895222,1,0.000000,0.000000,2.849645,-0.013223,0.185683,-0.003243,0,0.000000,0.000000,0.000000,0,1,4.902065,2.921346,-3.119009,-4.909020,-1.462453,-1.053501,-0.037594,0.001118,0.226221,-0.002550,12.685811
15:40:13.680,8.550,171,3.015958,9.587297,-4.897728,1,0.000000,0.000000,2.853526,-0.030447,0.268240,-0.027813,0,0.000000,0.000000,0.000000,0,1,4.896795,2.842856,-3.181345,-4.906873,-1.466428,-1.066672,-0.033223,0.000935,0.226465,-0.002685,12.769818
15:40:13.730,8.600,172,2.944018,9.608351,-4.900240,1,0.000000,0.000000,2.879975,0.050274,0.183694,0.025328,0,0.000000,0.000000,0.000000,0,1,4.911392,2.773411,-3.222086,-4.908478,-1.469167,-1.074570,-0.033220,0.001220,0.226218,-0.002526,12.831573
15:40:13.780,8.650,173,2.871922,9.628864,-4.902758,1,0.000000,0.000000,2.862307,-0.041613,0.182520,-0.007010,0,0.000000,0.000000,0.000000,0,1,4.900853,2.711753,-3.280512,-4.910153,-1.469526,-1.085808,-0.033369,0.000974,0.225967,-0.002551,12.910372
15:40:13.830,8.700,174,2.799674,9.648836,-4.905281,1,0.000000,0.000000,2.884433,-0.059528,0.212232,0.004724,0,0.000000,0.000000,0.000000,0,1,4.945042,2.645967,-3.345404,-4.921412,-1.470250,-1.098584,-0.044331,0.000628,0.225889,-0.002532,12.995159
15:40:13.880,8.750,175,2.727279,9.668266,-4.907809,1,0.000000,0.000000,2.839111,-0.033746,0.197117,0.039804,0,0.000000,0.000000,0.000000,0,1,4.923805,2.580818,-3.404686,-4.923544,-1.471617,-1.109822,-0.044253,0.000433,0.225725,-0.002295,13.073781
15:40:13.930,8.800,176,2.654740,9.687151,-4.910342,1,0.000000,0.000000,2.899608,-0.069902,0.215063,-0.003885,0,0.000000,0.000000,0.000000,0,1,4.954805,2.515330,-3.472998,-4.925764,-1.471972,-1.123066,-0.044376,0.000035,0.225665,-0.002304,13.160897
15:40:13.980,8.850,177,2.582062,9.705492,-4.912880,1,0.000000,0.000000,2.880584,0.048495,0.222338,-0.006347,0,0.000000,0.000000,0.000000,0,1,4.983884,2.438039,-3.519811,-4.944149,-1.476131,-1.132094,-0.062797,0.000308,0.225646,-0.002363,13.226124
15:40:14.030,8.900,178,2.509248,9.723286,-4.915423,1,0.000000,0.000000,2.907136,-0.040954,0.266457,0.034467,0,0.000000,0.000000,0.000000,0,1,4.921994,2.359950,-3.588282,-4.947217,-1.479090,-1.145730,-0.062740,0.000077,0.225874,-0.002160,13.312443
15:40:14.081,8.950,179,2.436303,9.740534,-4.917970,1,0.000000,0.000000,2.882794,-0.030036,0.232102,-0.006464,0,0.000000,0.000000,0.000000,0,1,4.944700,2.287419,-3.652237,-4.950366,-1.481354,-1.157921,-0.062870,-0.000090,0.225909,-0.002184,13.393638
15:40:14.131,9.000,180,2.363230,9.757234,-4.920522,1,0.000000,0.000000,2.898652,0.029966,0.174072,0.031523,0,0.000000,0.000000,0.000000,0,1,4.924397,2.220645,-3.699859,-4.945038,-1.483044,-1.166314,-0.053306,0.000076,0.225622,-0.001981,13.457871
15:40:14.181,9.050,181,2.290035,9.773385,-4.923078,1,0.000000,0.000000,2.924017,0.042899,0.237628,-0.026198,0,0.000000,0.000000,0.000000,0,1,4.874525,2.140164,-3.751186,-4.947754,-1.487145,-1.176124,-0.053518,0.000311,0.225688,-0.002113,13.525423
15:40:14.231,9.100,182,2.216720,9.788986,-4.925638,1,0.000000,0.000000,2.941680,-0.049497,0.238608,-0.049114,0,0.000000,0.000000,0.000000,0,1,4.988157,2.067826,-3.821229,-4.950537,-1.488432,-1.189347,-0.053853,0.000039,0.225759,-0.002366,13.611052
15:40:14.281,9.150,183,2.143291,9.804036,-4.928202,1,0.000000,0.000000,2.925973,0.004493,0.256497,-0.000161,0,0.000000,0.000000,0.000000,0,1,4.936002,1.986879,-3.882968,-4.948249,-1.492081,-1.201101,-0.048326,0.000063,0.225926,-0.002343,13.687913
15:40:14.331,9.200,184,2.069751,9.818535,-4.930770,1,0.000000,0.000000,2.934060,0.008074,0.162712,-0.005026,0,0.000000,0.000000,0.000000,0,1,4.857720,1.923946,-3.935750,-4.950673,-1.492385,-1.210034,-0.048455,0.000107,0.225584,-0.002357,13.755072
15:40:14.381,9.250,185,1.996104,9.832482,-4.933342,1,0.000000,0.000000,2.977686,-0.093422,0.272335,0.058245,0,0.000000,0.000000,0.000000,0,1,5.002312,1.848931,-4.019527,-4.952966,-1.493171,-1.225852,-0.048281,-0.000396,0.225836,-0.002036,13.852805
15:40:14.431,9.300,186,1.922355,9.845876,-4.935918,1,0.000000,0.000000,2.953305,-0.027757,0.196628,-0.034589,0,0.000000,0.000000,0.000000,0,1,4.956766,1.782665,-4.083727,-4.955839,-1.493430,-1.237065,-0.048974,-0.000543,0.225679,-0.002209,13.930318
15:40:14.481,9.350,187,1.848507,9.858716,-4.938496,1,0.000000,0.000000,2.970985,0.003135,0.281252,-0.041245,0,0.000000,0.000000,0.000000,0,1,4.941453,1.696494,-4.150528,-4.958366,-1.497389,-1.249690,-0.049260,-0.000523,0.225975,-0.002413,14.010083
15:40:14.531,9.400,188,1.774565,9.871001,-4.941079,1,0.000000,0.000000,2.986137,0.042352,0.233799,0.043347,0,0.000000,0.000000,0.000000,0,1,5.058419,1.615804,-4.205470,-4.960733,-1.500650,-1.259579,-0.049164,-0.000296,0.226016,-0.002175,14.077380
15:40:14.581,9.450,189,1.700534,9.882731,-4.943664,1,0.000000,0.000000,2.976724,0.027367,0.214957,-0.006302,0,0.000000,0.000000,0.000000,0,1,5.022840,1.540206,-4.262070,-4.980439,-1.502920,-1.269433,-0.068801,-0.000151,0.225958,-0.002232,14.145758
15:40:14.631,9.500,190,1.626416,9.893905,-4.946252,1,0.000000,0.000000,2.990318,0.001500,0.196031,0.017401,0,0.000000,0.000000,0.000000,0,1,4.878545,1.470890,-4.322493,-4.983845,-1.503620,-1.279658,-0.068825,-0.000142,0.225802,-0.002131,14.217298
15:40:14.681,9.550,191,1.552217,9.904523,-4.948843,1,0.000000,0.000000,2.997621,0.027887,0.218126,0.010684,0,0.000000,0.000000,0.000000,0,1,4.952049,1.394390,-4.380306,-4.987262,-1.505800,-1.289630,-0.068872,0.000004,0.225762,-0.002065,14.285752
15:40:14.731,9.600,192,1.477940,9.914583,-4.951437,1,0.000000,0.000000,2.978521,-0.003017,0.202774,-0.018778,0,0.000000,0.000000,0.000000,0,1,4.893329,1.324031,-4.443334,-4.962593,-1.506748,-1.300187,-0.037192,-0.000012,0.225642,-0.002092,14.358747
15:40:14.782,9.650,193,1.403590,9.924086,-4.954033,1,0.000000,0.000000,2.994853,0.015593,0.270237,-0.024815,0,0.000000,0.000000,0.000000,0,1,4.933748,1.237958,-4.510035,-4.964497,-1.510401,-1.312146,-0.037396,0.000069,0.225872,-0.002208,14.435076
15:40:14.832,9.700,194,1.329171,9.933031,-4.956632,1,0.000000,0.000000,3.018329,-0.044617,0.271724,0.023785,0,0.000000,0.000000,0.000000,0,1,4.914398,1.157674,-4.589825,-4.966316,-1.512023,-1.326265,-0.037386,-0.000160,0.226107,-0.002076,14.523872
15:40:14.882,9.750,195,1.254687,9.941417,-4.959233,1,0.000000,0.000000,3.047382,-0.020943,0.228277,-0.000359,0,0.000000,0.000000,0.000000,0,1,4.928133,1.083783,-4.660910,-4.956609,-1.512526,-1.338297,-0.024382,-0.000266,0.226119,-0.002044,14.603327
15:40:14.932,9.800,196,1.180142,9.949243,-4.961836,1,0.000000,0.000000,3.029676,0.023386,0.281835,0.000484,0,0.000000,0.000000,0.000000,0,1,5.041720,0.994156,-4.729139,-4.957826,-1.516387,-1.350414,-0.024473,-0.000146,0.226401,-0.002031,14.679561
15:40:14.982,9.850,197,1.105540,9.956511,-4.964441,1,0.000000,0.000000,3.025979,0.010705,0.232925,-0.000941,0,0.000000,0.000000,0.000000,0,1,5.041923,0.915798,-4.795398,-4.959050,-1.518235,-1.361490,-0.024570,-0.000091,0.226434,-0.002026,14.753130
15:40:15.032,9.900,198,1.030887,9.963218,-4.967048,1,0.000000,0.000000,3.080558,0.047641,0.250886,0.004881,0,0.000000,0.000000,0.000000,0,1,4.856401,0.829658,-4.856509,-4.930248,-1.521200,-1.371926,0.009335,0.000148,0.226557,-0.001931,14.821138
15:40:15.082,9.950,199,0.956185,9.969364,-4.969657,1,0.000000,0.000000,3.068400,-0.043896,0.200585,0.020426,0,0.000000,0.000000,0.000000,0,1,5.010807,0.763765,-4.931709,-4.929743,-1.519818,-1.383908,0.009333,-0.000072,0.226427,-0.001821,14.902369
15:40:15.132,10.000,200,0.881439,9.974950,-4.972267,1,0.000000,0.000000,3.069148,-0.040850,0.268160,0.019418,0,0.000000,0.000000,0.000000,0,1,4.966609,0.683537,-5.014266,-4.929236,-1.520779,-1.397842,0.009336,-0.000275,0.226635,-0.001717,14.990584
15:40:15.182,10.050,201,0.806653,9.979975,-4.974879,1,0.000000,0.000000,3.081194,-0.018121,0.198076,-0.004879,0,0.000000,0.000000,0.000000,0,1,4.954064,0.615427,-5.085006,-4.936086,-1.519950,-1.408870,0.000965,-0.000363,0.226494,-0.001747,15.066244
15:40:15.232,10.100,202,0.731832,9.984438,-4.977492,1,0.000000,0.000000,3.082935,0.037608,0.223984,0.026414,0,0.000000,0.000000,0.000000,0,1,4.948475,0.535694,-5.147492,-4.935989,-1.521684,-1.418841,0.000995,-0.000176,0.226481,-0.001610,15.133258
15:40:15.282,10.150,203,0.656979,9.988340,-4.980106,1,0.000000,0.000000,3.074684,-0.033440,0.212130,-0.006127,0,0.000000,0.000000,0.000000,0,1,5.030091,0.466360,-5.224091,-4.935951,-1.520930,-1.430793,0.000895,-0.000339,0.226411,-0.001632,15.213689
15:40:15.332,10.200,204,0.582099,9.991679,-4.982720,1,0.000000,0.000000,3.103809,-0.006823,0.179934,0.011196,0,0.000000,0.000000,0.000000,0,1,4.904263,0.400840,-5.291992,-4.926742,-1.519614,-1.440877,0.011213,-0.000371,0.226184,-0.001552,15.284849
15:40:15.382,10.250,205,0.507196,9.994457,-4.985336,1,0.000000,0.000000,3.120394,0.032182,0.191502,-0.017113,0,0.000000,0.000000,0.000000,0,1,4.995759,0.328451,-5.353455,-4.926211,-1.519715,-1.450042,0.011072,-0.000213,0.226016,-0.001627,15.349067
15:40:15.432,10.300,206,0.432275,9.996673,-4.987952,1,0.000000,0.000000,3.079580,-0.030819,0.282601,-0.002983,0,0.000000,0.000000,0.000000,0,1,5.041397,0.243993,-5.439281,-4.925662,-1.521290,-1.464083,0.010984,-0.000361,0.226289,-0.001633,15.437228
15:40:15.483,10.350,207,0.357339,9.998326,-4.990569,1,0.000000,0.000000,3.107073,-0.014833,0.218991,0.073309,0,0.000000,0.000000,0.000000,0,1,5.043109,0.171161,-5.514993,-4.959099,-1.520974,-1.475631,-0.027402,-0.000430,0.226254,-0.001344,15.514468
15:40:15.533,10.400,208,0.282393,9.999417,-4.993186,1,0.000000,0.000000,3.165010,0.003294,0.223449,0.001433,0,0.000000,0.000000,0.000000,0,1,5.004550,0.095279,-5.587933,-4.960466,-1.520714,-1.486732,-0.027458,-0.000412,0.226241,-0.001331,15.588507
15:40:15.583,10.450,209,0.207441,9.999946,-4.995804,1,0.000000,0.000000,3.132024,0.008744,0.219673,-0.012431,0,0.000000,0.000000,0.000000,0,1,4.982666,0.019558,-5.659814,-4.961862,-1.520879,-1.497544,-0.027572,-0.000369,0.226209,-0.001383,15.660923
15:40:15.633,10.500,210,0.132486,9.999912,-4.998421,1,0.000000,0.000000,3.132420,0.045199,0.193195,-0.052418,0,0.000000,0.000000,0.000000,0,1,4.933100,-0.054869,-5.721248,-4.954609,-1.521349,-1.506358,-0.017975,-0.000153,0.226053,-0.001605,15.722337
15:40:15.683,10.550,211,0.057535,9.999315,-5.001039,1,0.000000,0.000000,3.127190,-0.013903,0.239042,0.026238,0,0.000000,0.000000,0.000000,0,1,5.102358,-0.132071,-5.801374,-4.955462,-1.521481,-1.518507,-0.017944,-0.000218,0.226114,-0.001475,15.801892
15:40:15.733,10.600,212,-0.017410,9.998156,-5.003656,1,0.000000,0.000000,3.127954,0.000421,0.235922,-0.010656,0,0.000000,0.000000,0.000000,0,1,5.079569,-0.210341,-5.878639,-4.956379,-1.521955,-1.530103,-0.018057,-0.000215,0.226160,-0.001518,15.878038
15:40:15.783,10.650,213,-0.092345,9.996435,-5.006272,1,0.000000,0.000000,3.154314,-0.030444,0.244032,-0.047196,0,0.000000,0.000000,0.000000,0,1,4.961357,-0.286584,-5.964156,-4.958529,-1.521401,-1.542930,-0.019635,-0.000356,0.226244,-0.001730,15.961844
15:40:15.833,10.700,214,-0.167264,9.994151,-5.008889,1,0.000000,0.000000,3.177672,0.003790,0.231789,0.049959,0,0.000000,0.000000,0.000000,0,1,4.942578,-0.364359,-6.041374,-4.959426,-1.521281,-1.554281,-0.019518,-0.000337,0.226269,-0.001494,16.036812
15:40:15.883,10.750,215,-0.242164,9.991305,-5.011504,1,0.000000,0.000000,3.162148,-0.037513,0.256077,-0.002633,0,0.000000,0.000000,0.000000,0,1,5.015974,-0.442249,-6.131169,-4.960406,-1.520772,-1.567704,-0.019597,-0.000509,0.226407,-0.001499,16.123797
15:40:15.933,10.800,216,-0.317041,9.987897,-5.014119,1,0.000000,0.000000,3.170209,0.035226,0.185405,-0.062296,0,0.000000,0.000000,0.000000,0,1,5.034347,-0.513848,-6.196892,-4.982562,-1.520297,-1.576596,-0.043757,-0.000344,0.226219,-0.001814,16.186017
15:40:15.983,10.850,217,-0.391890,9.983928,-5.016733,1,0.000000,0.000000,3.187489,-0.035586,0.273159,0.024900,0,0.000000,0.000000,0.000000,0,1,5.063369,-0.595625,-6.289657,-4.984708,-1.520076,-1.590491,-0.043744,-0.000506,0.226434,-0.001693,16.274892
15:40:16.033,10.900,218,-0.466707,9.979397,-5.019346,1,0.000000,0.000000,3.176781,0.029974,0.233717,-0.052845,0,0.000000,0.000000,0.000000,0,1,4.960702,-0.677113,-6.363725,-4.986992,-1.520859,-1.601103,-0.044038,-0.000366,0.226467,-0.001923,16.344508
15:40:16.083,10.950,219,-0.541489,9.974304,-5.021957,1,0.000000,0.000000,3.187595,0.024940,0.204225,-0.002672,0,0.000000,0.000000,0.000000,0,1,5.013101,-0.751526,-6.435642,-4.996105,-1.520458,-1.610922,-0.051954,-0.000251,0.226366,-0.001939,16.411310
15:40:16.133,11.000,220,-0.616229,9.968650,-5.024567,1,0.000000,0.000000,3.221760,-0.018453,0.227428,0.000840,0,0.000000,0.000000,0.000000,0,1,5.001001,-0.825393,-6.520611,-4.998701,-1.518982,-1.622791,-0.052041,-0.000334,0.226371,-0.001927,16.490608
15:40:16.184,11.050,221,-0.690926,9.962436,-5.027175,1,0.000000,0.000000,3.228519,0.014754,0.219104,-0.028571,0,0.000000,0.000000,0.000000,0,1,5.018253,-0.901693,-6.597754,-5.001354,-1.518252,-1.633372,-0.052245,-0.000266,0.226338,-0.002045,16.561551
15:40:16.234,11.100,222,-0.765574,9.955661,-5.029782,1,0.000000,0.000000,3.230551,0.014161,0.184568,-0.043315,0,0.000000,0.000000,0.000000,0,1,4.952443,-0.970255,-6.670999,-4.989138,-1.516446,-1.642850,-0.035643,-0.000201,0.226151,-0.002200,16.627970
15:40:16.284,11.150,223,-0.840168,9.948326,-5.032387,1,0.000000,0.000000,3.239964,0.012067,0.246968,-0.016618,0,0.000000,0.000000,0.000000,0,1,4.956389,-1.052293,-6.753477,-4.990947,-1.516349,-1.654413,-0.035808,-0.000146,0.226244,-0.002264,16.703202
15:40:16.334,11.200,224,-0.914706,9.940432,-5.034990,1,0.000000,0.000000,3.234533,0.017475,0.220044,-0.034328,0,0.000000,0.000000,0.000000,0,1,5.019456,-1.129072,-6.831736,-4.992798,-1.515684,-1.664948,-0.036049,-0.000068,0.226216,-0.002404,16.773591
15:40:16.384,11.250,225,-0.989183,9.931979,-5.037591,1,0.000000,0.000000,3.245094,0.064083,0.215476,0.014482,0,0.000000,0.000000,0.000000,0,1,4.989673,-1.211110,-6.899539,-4.993154,-1.516296,-1.673945,-0.034497,0.000216,0.226169,-0.002328,16.833039
15:40:16.434,11.300,226,-1.063594,9.922966,-5.040189,1,0.000000,0.000000,3.255640,0.007687,0.193717,0.028328,0,0.000000,0.000000,0.000000,0,1,5.071803,-1.280674,-6.977430,-4.994833,-1.514309,-1.683895,-0.034499,0.000249,0.226026,-0.002195,16.901851
15:40:16.484,11.350,227,-1.137935,9.913396,-5.042785,1,0.000000,0.000000,3.240646,-0.018133,0.266326,0.004158,0,0.000000,0.000000,0.000000,0,1,5.025931,-1.362845,-7.071546,-4.996550,-1.513780,-1.697008,-0.034584,0.000168,0.226202,-0.002168,16.986494
15:40:16.534,11.400,228,-1.212203,9.903268,-5.045379,1,0.000000,0.000000,3.274761,0.016755,0.268006,0.013260,0,0.000000,0.000000,0.000000,0,1,4.990772,-1.450154,-7.158744,-4.996090,-1.514053,-1.709115,-0.032183,0.000241,0.226385,-0.002097,17.063743
15:40:16.584,11.450,229,-1.286392,9.892583,-5.047970,1,0.000000,0.000000,3.297198,0.026725,0.231363,0.004520,0,0.000000,0.000000,0.000000,0,1,5.036721,-1.530621,-7.239229,-4.997691,-1.513331,-1.719696,-0.032263,0.000356,0.226407,-0.002069,17.133627
15:40:16.634,11.500,230,-1.360500,9.881342,-5.050557,1,0.000000,0.000000,3.293481,-0.027132,0.208248,0.009671,0,0.000000,0.000000,0.000000,0,1,5.039729,-1.598302,-7.329126,-4.999286,-1.510201,-1.731080,-0.032321,0.000237,0.226328,-0.002019,17.212187
15:40:16.684,11.550,231,-1.434521,9.869544,-5.053142,1,0.000000,0.000000,3.319449,-0.012328,0.240975,-0.016880,0,0.000000,0.000000,0.000000,0,1,5.034519,-1.675286,-7.420863,-5.010639,-1.508214,-1.743067,-0.043466,0.000183,0.226391,-0.002099,17.292136
15:40:16.734,11.600,232,-1.508451,9.857192,-5.055724,1,0.000000,0.000000,3.348984,-0.020252,0.262300,0.000431,0,0.000000,0.000000,0.000000,0,1,5.023401,-1.755836,-7.518026,-5.012811,-1.506236,-1.755923,-0.043561,0.000095,0.226545,-0.002088,17.377032
15:40:16.784,11.650,233,-1.582287,9.844285,-5.058302,1,0.000000,0.000000,3.325444,-0.000041,0.172944,-0.000670,0,0.000000,0.000000,0.000000,0,1,4.995021,-1.818947,-7.598436,-5.014989,-1.502645,-1.765277,-0.043660,0.000094,0.226316,-0.002082,17.444380
15:40:16.834,11.700,234,-1.656024,9.830824,-5.060877,1,0.000000,0.000000,3.300700,0.024793,0.209746,-0.000844,0,0.000000,0.000000,0.000000,0,1,4.944671,-1.893849,-7.678982,-4.996222,-1.501215,-1.775200,-0.020051,0.000199,0.226246,-0.002041,17.511541
15:40:16.885,11.750,235,-1.729658,9.816811,-5.063449,1,0.000000,0.000000,3.377034,0.028862,0.207978,-0.010349,0,0.000000,0.000000,0.000000,0,1,5.023312,-1.968870,-7.758844,-4.997239,-1.499033,-1.784788,-0.020183,0.000321,0.226168,-0.002076,17.577407
15:40:16.935,11.800,236,-1.803185,9.802245,-5.066016,1,0.000000,0.000000,3.313320,-0.048332,0.246889,0.035859,0,0.000000,0.000000,0.000000,0,1,5.043927,-2.041351,-7.862477,-4.998186,-1.496062,-1.797984,-0.020143,0.000115,0.226256,-0.001918,17.666458
15:40:16.985,11.850,237,-1.876601,9.787128,-5.068580,1,0.000000,0.000000,3.348795,-0.001988,0.171582,-0.014231,0,0.000000,0.000000,0.000000,0,1,5.116870,-2.103316,-7.945052,-5.033217,-1.492154,-1.807277,-0.058761,0.000107,0.226026,-0.002026,17.733664
15:40:17.035,11.900,238,-1.949901,9.771460,-5.071140,1,0.000000,0.000000,3.368547,-0.021684,0.202495,-0.043530,0,0.000000,0.000000,0.000000,0,1,4.990627,-2.169240,-8.037167,-5.036220,-1.488234,-1.818098,-0.059009,0.000015,0.225928,-0.002198,17.810012
15:40:17.085,11.950,239,-2.023082,9.755242,-5.073695,1,0.000000,0.000000,3.364118,0.009376,0.162231,0.026630,0,0.000000,0.000000,0.000000,0,1,5.054833,-2.230413,-8.116655,-5.039125,-1.484313,-1.826710,-0.059011,0.000054,0.225662,-0.002079,17.873133
15:40:17.135,12.000,240,-2.096139,9.738476,-5.076247,1,0.000000,0.000000,3.381690,0.012988,0.276452,-0.026878,0,0.000000,0.000000,0.000000,0,1,5.084132,-2.318161,-8.212967,-5.054263,-1.483453,-1.839035,-0.072949,0.000108,0.225873,-0.002201,17.952830
