timestamp,sim_time,iteration,true_pos_x,true_pos_y,true_pos_z,imu_valid,imu_roll,imu_pitch,imu_yaw,imu_acc_x,imu_acc_y,imu_acc_z,usbl_valid,usbl_pos_x,usbl_pos_y,usbl_pos_z,usbl_fix_used,depth_valid,depth_measurement,kf_pos_x,kf_pos_y,kf_pos_z,kf_vel_x,kf_vel_y,kf_vel_z,kf_acc_x,kf_acc_y,kf_acc_z,error_norm
15:49:12.879,0.000,0,10.168406,0.000000,-4.647959,1,0.000000,0.000000,1.578285,-0.066890,0.226583,-0.024899,0,0.000000,0.000000,0.000000,0,1,4.679668,10.168123,-0.000086,-4.679590,-0.011294,-0.003426,-0.002820,-0.066830,0.226379,-0.024877,0.031632
15:49:12.929,0.050,1,10.168125,0.074999,-4.647969,1,0.000000,0.000000,1.586944,-0.072623,0.218171,-0.006730,0,0.000000,0.000000,0.000000,0,1,4.660445,10.167298,-0.000359,-4.679728,-0.022144,-0.007235,-0.003157,-0.069725,0.222277,-0.015808,0.081782
15:49:12.979,0.100,2,10.167281,0.149994,-4.647998,1,0.000000,0.000000,1.569323,0.005527,0.226016,0.014048,0,0.000000,0.000000,0.000000,0,1,4.573430,10.165896,-0.000526,-4.679806,-0.033477,-0.006945,-0.002456,-0.044649,0.223523,-0.005859,0.153850
15:49:13.029,0.150,3,10.165876,0.224981,-4.648048,1,0.000000,0.000000,1.601457,-0.061897,0.203808,-0.012920,0,0.000000,0.000000,0.000000,0,1,4.715307,10.164044,-0.001023,-4.712092,-0.043583,-0.010368,-0.195730,-0.048960,0.218595,-0.007629,0.234910
15:49:13.080,0.200,4,10.163909,0.299955,-4.648116,1,0.000000,0.000000,1.562512,0.050994,0.193828,-0.015171,0,0.000000,0.000000,0.000000,0,1,4.561174,10.161739,-0.000974,-4.721900,-0.053339,-0.007718,-0.196335,-0.028973,0.213643,-0.009137,0.309850
15:49:13.130,0.250,5,10.161380,0.374912,-4.648205,1,0.000000,0.000000,1.633540,0.008725,0.237889,-0.051910,0,0.000000,0.000000,0.000000,0,1,4.568043,10.158623,-0.001132,-4.731846,-0.065155,-0.007971,-0.198201,-0.022691,0.217683,-0.016265,0.385244
15:49:13.180,0.300,6,10.158289,0.449848,-4.648312,1,0.000000,0.000000,1.610436,-0.003224,0.181397,0.064215,0,0.000000,0.000000,0.000000,0,1,4.572882,10.155410,-0.001395,-4.605435,-0.074193,-0.008526,0.336071,-0.019910,0.212500,-0.004723,0.453285
15:49:13.230,0.350,7,10.154636,0.524759,-4.648440,1,0.000000,0.000000,1.648545,0.009866,0.173806,-0.024635,0,0.000000,0.000000,0.000000,0,1,4.609501,10.151819,-0.001563,-4.588673,-0.082817,-0.008802,0.335311,-0.016189,0.207664,-0.007212,0.529712
15:49:13.280,0.400,8,10.150422,0.599640,-4.648587,1,0.000000,0.000000,1.619500,0.038570,0.214424,0.013833,0,0.000000,0.000000,0.000000,0,1,4.697159,10.147332,-0.001422,-4.571855,-0.093569,-0.007390,0.335560,-0.010105,0.208415,-0.004874,0.605948
15:49:13.330,0.450,9,10.145647,0.674488,-4.648754,1,0.000000,0.000000,1.655291,-0.011133,0.225987,0.039400,0,0.000000,0.000000,0.000000,0,1,4.629699,10.142176,-0.001843,-4.606545,-0.104786,-0.008856,0.189983,-0.010208,0.210172,-0.000481,0.677656
15:49:13.380,0.500,10,10.140311,0.749297,-4.648940,1,0.000000,0.000000,1.639348,0.011648,0.274854,0.025067,0,0.000000,0.000000,0.000000,0,1,4.636643,10.135780,-0.002038,-4.596987,-0.118507,-0.009119,0.190612,-0.008221,0.216052,0.001842,0.753143
15:49:13.430,0.550,11,10.134415,0.824064,-4.649146,1,0.000000,0.000000,1.682625,0.018920,0.215645,0.013907,0,0.000000,0.000000,0.000000,0,1,4.640012,10.129582,-0.002128,-4.587413,-0.129237,-0.009377,0.191036,-0.005959,0.216018,0.002847,0.828509
15:49:13.480,0.600,12,10.127958,0.898785,-4.649372,1,0.000000,0.000000,1.661994,0.042172,0.213991,-0.028083,0,0.000000,0.000000,0.000000,0,1,4.605064,10.122861,-0.001846,-4.594145,-0.139981,-0.008251,0.154252,-0.002257,0.215862,0.000450,0.902338
15:49:13.530,0.650,13,10.120941,0.973456,-4.649617,1,0.000000,0.000000,1.650454,-0.008813,0.233422,-0.004903,0,0.000000,0.000000,0.000000,0,1,4.705878,10.115291,-0.002408,-4.586447,-0.151590,-0.009594,0.154139,-0.002725,0.217116,0.000068,0.977922
15:49:13.580,0.700,14,10.113365,1.048072,-4.649881,1,0.000000,0.000000,1.681266,0.014265,0.253102,0.017630,0,0.000000,0.000000,0.000000,0,1,4.671268,10.106756,-0.002626,-4.578671,-0.164207,-0.010177,0.154615,-0.001593,0.219515,0.001239,1.053129
15:49:13.630,0.750,15,10.105230,1.122628,-4.650165,1,0.000000,0.000000,1.690186,0.003594,0.255604,0.008237,0,0.000000,0.000000,0.000000,0,1,4.688296,10.097549,-0.003094,-4.632407,-0.176910,-0.011410,0.041280,-0.001269,0.221770,0.001575,1.125888
15:49:13.680,0.800,16,10.096536,1.197122,-4.650469,1,0.000000,0.000000,1.686331,0.021732,0.224000,0.012059,0,0.000000,0.000000,0.000000,0,1,4.610131,10.088362,-0.003211,-4.630305,-0.188099,-0.011611,0.041621,0.000084,0.221902,0.002192,1.200531
15:49:13.730,0.850,17,10.087284,1.271548,-4.650792,1,0.000000,0.000000,1.690922,0.040685,0.268621,-0.009085,0,0.000000,0.000000,0.000000,0,1,4.608852,10.077593,-0.002958,-4.628272,-0.201576,-0.011065,0.041433,0.002340,0.224497,0.001565,1.274742
15:49:13.780,0.900,18,10.077474,1.345903,-4.651135,1,0.000000,0.000000,1.696022,0.019410,0.235945,0.052847,0,0.000000,0.000000,0.000000,0,1,4.563160,10.066945,-0.003151,-4.596575,-0.213356,-0.011540,0.089615,0.003238,0.225099,0.004331,1.350198
15:49:13.830,0.950,19,10.067108,1.420182,-4.651497,1,0.000000,0.000000,1.679150,0.003341,0.220142,0.006097,0,0.000000,0.000000,0.000000,0,1,4.619728,10.056121,-0.003746,-4.592081,-0.224316,-0.012573,0.089876,0.003243,0.224852,0.004419,1.425210
15:49:13.880,1.000,20,10.056185,1.494381,-4.651878,1,0.000000,0.000000,1.721380,-0.004238,0.273134,-0.005964,0,0.000000,0.000000,0.000000,0,1,4.658183,10.043372,-0.004672,-4.587635,-0.237833,-0.014651,0.089826,0.002887,0.227151,0.003925,1.500484
15:49:13.931,1.050,21,10.044706,1.568496,-4.652279,1,0.000000,0.000000,1.739188,-0.014371,0.277315,-0.013498,0,0.000000,0.000000,0.000000,0,1,4.672070,10.029848,-0.005995,-4.620861,-0.251484,-0.017468,0.036271,0.002103,0.229431,0.003020,1.574875
15:49:13.981,1.100,22,10.032672,1.642523,-4.652699,1,0.000000,0.000000,1.707102,-0.008919,0.220620,0.001503,0,0.000000,0.000000,0.000000,0,1,4.618104,10.017259,-0.007207,-4.619050,-0.262380,-0.019435,0.036385,0.001624,0.229048,0.002954,1.650145
15:49:14.031,1.150,23,10.020083,1.716458,-4.653139,1,0.000000,0.000000,1.702448,0.026885,0.243465,-0.050161,0,0.000000,0.000000,0.000000,0,1,4.687839,10.003382,-0.007483,-4.617524,-0.274567,-0.019661,0.035170,0.002676,0.229648,0.000742,1.724389
15:49:14.081,1.200,24,10.006941,1.790296,-4.653598,1,0.000000,0.000000,1.736670,0.054661,0.249063,0.011465,0,0.000000,0.000000,0.000000,0,1,4.618452,9.988669,-0.006926,-4.616767,-0.287103,-0.018922,0.034101,0.004755,0.230425,0.001167,1.797692
15:49:14.131,1.250,25,9.993246,1.864033,-4.654076,1,0.000000,0.000000,1.756598,-0.041591,0.220899,0.010641,0,0.000000,0.000000,0.000000,0,1,4.668565,9.974430,-0.009402,-4.615012,-0.297788,-0.023079,0.034390,0.002973,0.230058,0.001531,1.873937
15:49:14.181,1.300,26,9.978998,1.937665,-4.654573,1,0.000000,0.000000,1.741641,-0.022997,0.262695,0.017874,0,0.000000,0.000000,0.000000,0,1,4.646567,9.958214,-0.011545,-4.613191,-0.310650,-0.026331,0.034879,0.002011,0.231267,0.002136,1.949760
15:49:14.231,1.350,27,9.964199,2.011189,-4.655090,1,0.000000,0.000000,1.773088,0.062045,0.260975,0.006505,0,0.000000,0.000000,0.000000,0,1,4.716529,9.941224,-0.010891,-4.649472,-0.323765,-0.025717,-0.011195,0.004155,0.232328,0.002119,2.022218
15:49:14.281,1.400,28,9.948849,2.084599,-4.655626,1,0.000000,0.000000,1.788957,0.042854,0.229114,-0.011689,0,0.000000,0.000000,0.000000,0,1,4.742125,9.924772,-0.010829,-4.650106,-0.335186,-0.026090,-0.011419,0.005489,0.232217,0.001644,2.095574
15:49:14.331,1.450,29,9.932949,2.157892,-4.656181,1,0.000000,0.000000,1.780703,-0.009455,0.272205,0.031387,0,0.000000,0.000000,0.000000,0,1,4.703865,9.906273,-0.012851,-4.650480,-0.348506,-0.029192,-0.010600,0.004991,0.233550,0.002634,2.170914
15:49:14.381,1.500,30,9.916500,2.231064,-4.656756,1,0.000000,0.000000,1.769963,-0.000825,0.248287,-0.015202,0,0.000000,0.000000,0.000000,0,1,4.646170,9.888008,-0.014628,-4.649445,-0.360702,-0.031625,-0.008948,0.004804,0.234026,0.002068,2.245884
15:49:14.431,1.550,31,9.899504,2.304110,-4.657349,1,0.000000,0.000000,1.808317,0.034966,0.245495,0.007679,0,0.000000,0.000000,0.000000,0,1,4.666663,9.869140,-0.015105,-4.649856,-0.372868,-0.032714,-0.008713,0.005746,0.234384,0.002243,2.319426
15:49:14.481,1.600,32,9.881960,2.377026,-4.657962,1,0.000000,0.000000,1.815476,-0.011857,0.206780,-0.016536,0,0.000000,0.000000,0.000000,0,1,4.653762,9.851400,-0.017440,-4.650420,-0.382838,-0.035987,-0.009056,0.005213,0.233548,0.001675,2.394673
15:49:14.531,1.650,33,9.863870,2.449809,-4.658594,1,0.000000,0.000000,1.814593,0.011241,0.128037,0.037763,0,0.000000,0.000000,0.000000,0,1,4.612421,9.836415,-0.018693,-4.638164,-0.389045,-0.037625,0.006030,0.005390,0.230444,0.002809,2.468739
15:49:14.581,1.700,34,9.845236,2.522454,-4.659245,1,0.000000,0.000000,1.841531,-0.002609,0.235617,0.031020,0,0.000000,0.000000,0.000000,0,1,4.658761,9.816487,-0.021011,-4.637680,-0.400426,-0.040875,0.006815,0.005162,0.230592,0.003614,2.543719
15:49:14.631,1.750,35,9.826057,2.594957,-4.659914,1,0.000000,0.000000,1.806379,0.030396,0.221026,0.025666,0,0.000000,0.000000,0.000000,0,1,4.643956,9.796517,-0.021950,-4.637174,-0.411384,-0.042006,0.007516,0.005863,0.230326,0.004226,2.617173
15:49:14.682,1.800,36,9.806335,2.667314,-4.660603,1,0.000000,0.000000,1.847445,0.023100,0.249685,-0.051838,0,0.000000,0.000000,0.000000,0,1,4.661669,9.774709,-0.023407,-4.644914,-0.423612,-0.044144,-0.002214,0.006328,0.230850,0.002663,2.690953
15:49:14.732,1.850,37,9.786072,2.739521,-4.661311,1,0.000000,0.000000,1.815999,-0.029013,0.218480,0.006584,0,0.000000,0.000000,0.000000,0,1,4.604812,9.753980,-0.027293,-4.644996,-0.434039,-0.048302,-0.001994,0.005398,0.230524,0.002766,2.767048
15:49:14.782,1.900,38,9.765268,2.811575,-4.662037,1,0.000000,0.000000,1.854693,-0.045746,0.228105,0.039370,0,0.000000,0.000000,0.000000,0,1,4.599877,9.732344,-0.032249,-4.644815,-0.444709,-0.053779,-0.001018,0.004087,0.230462,0.003702,2.844066
15:49:14.832,1.950,39,9.743925,2.883469,-4.662782,1,0.000000,0.000000,1.867505,-0.009745,0.249526,-0.020255,0,0.000000,0.000000,0.000000,0,1,4.703020,9.708950,-0.035793,-4.662750,-0.456631,-0.057770,-0.021117,0.003741,0.230939,0.002981,2.919472
15:49:14.882,2.000,40,9.722043,2.955202,-4.663547,1,0.000000,0.000000,1.871358,-0.018446,0.247016,-0.023227,0,0.000000,0.000000,0.000000,0,1,4.619831,9.685132,-0.039971,-4.663981,-0.468347,-0.062219,-0.021527,0.003200,0.231331,0.002344,2.995400
15:49:14.932,2.050,41,9.699624,3.026769,-4.664329,1,0.000000,0.000000,1.887318,0.019615,0.267803,0.025268,0,0.000000,0.000000,0.000000,0,1,4.606388,9.659453,-0.042501,-4.664877,-0.481307,-0.065131,-0.020905,0.003591,0.232199,0.002888,3.069532
15:49:14.982,2.100,42,9.676669,3.098165,-4.665131,1,0.000000,0.000000,1.889216,-0.032298,0.260631,-0.028382,0,0.000000,0.000000,0.000000,0,1,4.649071,9.633789,-0.047912,-4.661067,-0.493515,-0.070577,-0.015755,0.002756,0.232860,0.002200,3.146371
15:49:15.032,2.150,43,9.653180,3.169387,-4.665951,1,0.000000,0.000000,1.890393,0.035934,0.207022,-0.001236,0,0.000000,0.000000,0.000000,0,1,4.645522,9.610057,-0.049572,-4.661876,-0.503600,-0.072272,-0.015716,0.003510,0.232273,0.002122,3.219250
15:49:15.082,2.200,44,9.629158,3.240430,-4.666790,1,0.000000,0.000000,1.893566,0.008668,0.253742,-0.006033,0,0.000000,0.000000,0.000000,0,1,4.621683,9.583373,-0.053114,-4.662722,-0.515766,-0.075707,-0.015782,0.003625,0.232750,0.001941,3.293865
15:49:15.132,2.250,45,9.604604,3.311292,-4.667648,1,0.000000,0.000000,1.902169,-0.005798,0.206554,-0.038263,0,0.000000,0.000000,0.000000,0,1,4.576092,9.558859,-0.057364,-4.637945,-0.525466,-0.079571,0.012440,0.003420,0.232181,0.001263,3.369097
15:49:15.182,2.300,46,9.579519,3.381967,-4.668524,1,0.000000,0.000000,1.922321,-0.065030,0.207689,0.023823,0,0.000000,0.000000,0.000000,0,1,4.668706,9.534181,-0.065263,-4.637164,-0.534651,-0.086559,0.012944,0.001964,0.231660,0.001742,3.447670
15:49:15.232,2.350,47,9.553906,3.452452,-4.669418,1,0.000000,0.000000,1.915788,-0.053930,0.213162,-0.042049,0,0.000000,0.000000,0.000000,0,1,4.656591,9.508652,-0.072881,-4.636856,-0.544201,-0.092964,0.012147,0.000799,0.231274,0.000833,3.525774
15:49:15.282,2.400,48,9.527764,3.522742,-4.670331,1,0.000000,0.000000,1.924139,0.007284,0.225767,-0.014073,0,0.000000,0.000000,0.000000,0,1,4.617358,9.481459,-0.077197,-4.630809,-0.554851,-0.096562,0.018133,0.000932,0.231162,0.000572,3.600454
15:49:15.332,2.450,49,9.501097,3.592835,-4.671262,1,0.000000,0.000000,1.944804,0.019828,0.288008,0.017864,0,0.000000,0.000000,0.000000,0,1,4.629572,9.449793,-0.081379,-4.629782,-0.568575,-0.100324,0.018483,0.001310,0.232299,0.000916,3.674806
15:49:15.382,2.500,50,9.473905,3.662725,-4.672212,1,0.000000,0.000000,1.946305,-0.024025,0.212102,-0.057088,0,0.000000,0.000000,0.000000,0,1,4.641182,9.422561,-0.087943,-4.629303,-0.578188,-0.105577,0.017416,0.000813,0.231903,-0.000216,3.751265
15:49:15.433,2.550,51,9.446190,3.732410,-4.673179,1,0.000000,0.000000,1.976063,0.002990,0.230734,-0.042805,0,0.000000,0.000000,0.000000,0,1,4.672213,9.393442,-0.093186,-4.641440,-0.588823,-0.109994,0.002306,0.000855,0.231880,-0.001126,3.826091
15:49:15.483,2.600,52,9.417954,3.801884,-4.674166,1,0.000000,0.000000,1.945282,0.022916,0.204270,0.021229,0,0.000000,0.000000,0.000000,0,1,4.695707,9.365355,-0.097118,-4.641174,-0.598492,-0.112858,0.002644,0.001271,0.231359,-0.000707,3.899497
15:49:15.533,2.650,53,9.389197,3.871145,-4.675170,1,0.000000,0.000000,1.943536,0.028207,0.247929,-0.051605,0,0.000000,0.000000,0.000000,0,1,4.675735,9.333825,-0.101212,-4.641427,-0.610355,-0.115859,0.001681,0.001770,0.231666,-0.001644,3.972886
15:49:15.583,2.700,54,9.359923,3.940188,-4.676192,1,0.000000,0.000000,1.932814,-0.008981,0.214251,-0.018206,0,0.000000,0.000000,0.000000,0,1,4.687884,9.304313,-0.107680,-4.654957,-0.620266,-0.120232,-0.013945,0.001574,0.231350,-0.002042,4.048305
15:49:15.633,2.750,55,9.330131,4.009009,-4.677232,1,0.000000,0.000000,1.976307,-0.027784,0.244269,0.020936,0,0.000000,0.000000,0.000000,0,1,4.742686,9.272413,-0.115950,-4.655505,-0.631263,-0.126279,-0.013665,0.001050,0.231580,-0.001635,4.125420
15:49:15.683,2.800,56,9.299825,4.077605,-4.678291,1,0.000000,0.000000,1.970796,0.008755,0.195993,-0.006176,0,0.000000,0.000000,0.000000,0,1,4.729736,9.243008,-0.121493,-4.656224,-0.640297,-0.130005,-0.013825,0.001185,0.230956,-0.001714,4.199540
15:49:15.733,2.850,57,9.269005,4.145971,-4.679367,1,0.000000,0.000000,2.003287,0.031120,0.221123,0.018584,0,0.000000,0.000000,0.000000,0,1,4.584551,9.211136,-0.125877,-4.635818,-0.650638,-0.133237,0.010165,0.001701,0.230786,-0.001217,4.272462
15:49:15.783,2.900,58,9.237673,4.214104,-4.680461,1,0.000000,0.000000,2.027560,0.008524,0.178566,0.042616,0,0.000000,0.000000,0.000000,0,1,4.703264,9.182067,-0.131632,-4.635030,-0.658572,-0.137371,0.010794,0.001817,0.229901,-0.000479,4.346329
15:49:15.833,2.950,59,9.205832,4.282000,-4.681573,1,0.000000,0.000000,2.002691,0.015234,0.223357,-0.031963,0,0.000000,0.000000,0.000000,0,1,4.667950,9.149217,-0.137558,-4.634714,-0.668876,-0.141380,0.010257,0.002041,0.229792,-0.001000,4.420170
15:49:15.883,3.000,60,9.173483,4.349655,-4.682703,1,0.000000,0.000000,2.018578,0.008581,0.238177,-0.003491,0,0.000000,0.000000,0.000000,0,1,4.655012,9.114812,-0.144351,-4.640246,-0.679754,-0.146038,0.003333,0.002148,0.229930,-0.001082,4.494590
15:49:15.933,3.050,61,9.140628,4.417066,-4.683850,1,0.000000,0.000000,2.020867,-0.042545,0.207647,0.038472,0,0.000000,0.000000,0.000000,0,1,4.658808,9.082770,-0.154928,-4.639837,-0.688583,-0.152856,0.003867,0.001427,0.229570,-0.000449,4.572572
15:49:15.983,3.100,62,9.107268,4.484228,-4.685015,1,0.000000,0.000000,1.995484,-0.030591,0.228124,0.044223,0,0.000000,0.000000,0.000000,0,1,4.736575,9.048567,-0.165148,-4.639339,-0.698643,-0.159049,0.004533,0.000919,0.229547,0.000255,4.649971
15:49:16.033,3.150,63,9.073406,4.551138,-4.686197,1,0.000000,0.000000,2.005927,-0.027054,0.230858,-0.040915,0,0.000000,0.000000,0.000000,0,1,4.613890,9.013609,-0.175435,-4.632025,-0.708816,-0.165209,0.012280,0.000482,0.229568,-0.000335,4.727261
15:49:16.083,3.200,64,9.039043,4.617792,-4.687397,1,0.000000,0.000000,2.022777,-0.014042,0.206979,-0.022699,0,0.000000,0.000000,0.000000,0,1,4.754987,8.979893,-0.184696,-4.631544,-0.717897,-0.170641,0.011950,0.000258,0.229220,-0.000676,4.803177
15:49:16.133,3.250,65,9.004182,4.684186,-4.688615,1,0.000000,0.000000,2.009729,0.020099,0.253738,-0.024518,0,0.000000,0.000000,0.000000,0,1,4.640408,8.941499,-0.192059,-4.631104,-0.729688,-0.174830,0.011568,0.000559,0.229592,-0.001034,4.876987
15:49:16.183,3.300,66,8.968824,4.750317,-4.689849,1,0.000000,0.000000,2.075299,-0.039823,0.211295,0.000245,0,0.000000,0.000000,0.000000,0,1,4.787452,8.906801,-0.204012,-4.675971,-0.738393,-0.182079,-0.040042,-0.000044,0.229319,-0.001304,4.954736
15:49:16.234,3.350,67,8.932971,4.816180,-4.691101,1,0.000000,0.000000,2.056619,0.015776,0.189751,0.036977,0,0.000000,0.000000,0.000000,0,1,4.657181,8.872707,-0.211392,-4.677757,-0.746822,-0.186200,-0.039598,0.000189,0.228737,-0.000746,5.027951
15:49:16.284,3.400,68,8.896626,4.881772,-4.692371,1,0.000000,0.000000,2.080298,-0.051063,0.226083,-0.056114,0,0.000000,0.000000,0.000000,0,1,4.710832,8.836061,-0.225133,-4.680086,-0.756059,-0.194195,-0.040401,-0.000554,0.228698,-0.001542,5.107279
15:49:16.334,3.450,69,8.859790,4.947090,-4.693657,1,0.000000,0.000000,2.084988,-0.007194,0.228266,-0.002487,0,0.000000,0.000000,0.000000,0,1,4.706329,8.798143,-0.235546,-4.689127,-0.765899,-0.200156,-0.048448,-0.000649,0.228692,-0.001598,5.183005
15:49:16.384,3.500,70,8.822466,5.012130,-4.694960,1,0.000000,0.000000,2.107708,-0.019871,0.200968,-0.006603,0,0.000000,0.000000,0.000000,0,1,4.688037,8.762296,-0.246957,-4.691578,-0.774141,-0.206603,-0.048591,-0.000920,0.228302,-0.001667,5.259432
15:49:16.434,3.550,71,8.784655,5.076888,-4.696281,1,0.000000,0.000000,2.075485,-0.004271,0.198633,-0.016967,0,0.000000,0.000000,0.000000,0,1,4.667898,8.726001,-0.257267,-4.694102,-0.782652,-0.211946,-0.048875,-0.000966,0.227890,-0.001878,5.334477
15:49:16.484,3.600,72,8.746359,5.141360,-4.697618,1,0.000000,0.000000,2.093030,-0.026388,0.266447,-0.024376,0,0.000000,0.000000,0.000000,0,1,4.636641,8.683585,-0.270880,-4.679305,-0.794015,-0.219380,-0.029549,-0.001314,0.228418,-0.002083,5.412635
15:49:16.534,3.650,73,8.707582,5.205543,-4.698972,1,0.000000,0.000000,2.100584,-0.004874,0.187220,0.025639,0,0.000000,0.000000,0.000000,0,1,4.793901,8.647416,-0.281650,-4.680641,-0.801828,-0.224841,-0.029322,-0.001362,0.227861,-0.001711,5.487553
15:49:16.584,3.700,74,8.668325,5.269433,-4.700343,1,0.000000,0.000000,2.127085,0.024380,0.221437,-0.030385,0,0.000000,0.000000,0.000000,0,1,4.705878,8.607244,-0.290583,-4.682274,-0.811502,-0.229605,-0.029765,-0.001019,0.227775,-0.002090,5.560381
15:49:16.634,3.750,75,8.628589,5.333027,-4.701731,1,0.000000,0.000000,2.161984,0.001887,0.187239,0.017198,0,0.000000,0.000000,0.000000,0,1,4.681183,8.570138,-0.301263,-4.682931,-0.819044,-0.235313,-0.028812,-0.000981,0.227242,-0.001835,5.634624
15:49:16.684,3.800,76,8.588379,5.396320,-4.703135,1,0.000000,0.000000,2.131472,0.038316,0.238022,0.008333,0,0.000000,0.000000,0.000000,0,1,4.682061,8.527248,-0.309684,-4.684324,-0.829685,-0.239680,-0.028788,-0.000471,0.227382,-0.001704,5.706363
15:49:16.734,3.850,77,8.547695,5.459311,-4.704556,1,0.000000,0.000000,2.132043,-0.035325,0.214835,0.031901,0,0.000000,0.000000,0.000000,0,1,4.735271,8.487340,-0.324903,-4.685581,-0.838224,-0.247228,-0.028473,-0.000918,0.227221,-0.001277,5.784560
15:49:16.784,3.900,78,8.506540,5.521994,-4.705993,1,0.000000,0.000000,2.138330,0.032046,0.185112,0.021613,0,0.000000,0.000000,0.000000,0,1,4.764146,8.448628,-0.333476,-4.709239,-0.846247,-0.251229,-0.053614,-0.000500,0.226688,-0.001109,5.855757
15:49:16.834,3.950,79,8.464916,5.584366,-4.707446,1,0.000000,0.000000,2.153152,0.019332,0.230979,-0.014872,0,0.000000,0.000000,0.000000,0,1,4.759872,8.405288,-0.344347,-4.711987,-0.856182,-0.256608,-0.053819,-0.000252,0.226742,-0.001279,5.929015
15:49:16.884,4.000,80,8.422826,5.646425,-4.708916,1,0.000000,0.000000,2.161085,-0.013718,0.221970,0.012466,0,0.000000,0.000000,0.000000,0,1,4.728582,8.362973,-0.358568,-4.714607,-0.865177,-0.263496,-0.053727,-0.000419,0.226683,-0.001111,6.005293
15:49:16.934,4.050,81,8.380272,5.708166,-4.710402,1,0.000000,0.000000,2.178377,-0.003061,0.270673,0.007615,0,0.000000,0.000000,0.000000,0,1,4.767949,8.315158,-0.373040,-4.731920,-0.876503,-0.270743,-0.070311,-0.000451,0.227219,-0.001081,6.081592
15:49:16.984,4.100,82,8.337256,5.769585,-4.711904,1,0.000000,0.000000,2.177925,0.011715,0.226131,-0.027161,0,0.000000,0.000000,0.000000,0,1,4.720414,8.270962,-0.385493,-4.735556,-0.885947,-0.276655,-0.070637,-0.000304,0.227206,-0.001392,6.155480
15:49:17.035,4.150,83,8.293782,5.830680,-4.713422,1,0.000000,0.000000,2.198672,-0.000957,0.185465,0.000405,0,0.000000,0.000000,0.000000,0,1,4.664203,8.230697,-0.398691,-4.739080,-0.893164,-0.282754,-0.070687,-0.000312,0.226709,-0.001371,6.229744
15:49:17.085,4.200,84,8.249850,5.891448,-4.714957,1,0.000000,0.000000,2.215117,0.003152,0.154919,-0.005883,0,0.000000,0.000000,0.000000,0,1,4.632542,8.193127,-0.411114,-4.710780,-0.898906,-0.288339,-0.034704,-0.000271,0.225865,-0.001268,6.302819
15:49:17.135,4.250,85,8.205465,5.951883,-4.716507,1,0.000000,0.000000,2.197925,-0.009868,0.253290,0.036999,0,0.000000,0.000000,0.000000,0,1,4.772839,8.145309,-0.427293,-4.712350,-0.909180,-0.295841,-0.034385,-0.000383,0.226184,-0.000827,6.379462
15:49:17.185,4.300,86,8.160627,6.011984,-4.718072,1,0.000000,0.000000,2.199747,0.036432,0.167944,0.036932,0,0.000000,0.000000,0.000000,0,1,4.664506,8.104926,-0.437082,-4.713889,-0.916158,-0.299900,-0.034032,0.000040,0.225514,-0.000398,6.449308
15:49:17.235,4.350,87,8.115341,6.071747,-4.719654,1,0.000000,0.000000,2.226415,0.017454,0.240622,-0.010743,0,0.000000,0.000000,0.000000,0,1,4.815236,8.056891,-0.450742,-4.744461,-0.926070,-0.306195,-0.066811,0.000238,0.225686,-0.000649,6.522798
15:49:17.285,4.400,88,8.069607,6.131169,-4.721251,1,0.000000,0.000000,2.218053,0.012842,0.204652,0.002506,0,0.000000,0.000000,0.000000,0,1,4.653586,8.012328,-0.464377,-4.747789,-0.934298,-0.312074,-0.066813,0.000380,0.225450,-0.000614,6.595848
15:49:17.335,4.450,89,8.023430,6.190245,-4.722863,1,0.000000,0.000000,2.203395,-0.024461,0.215787,-0.062006,0,0.000000,0.000000,0.000000,0,1,4.758590,7.967026,-0.482613,-4.751415,-0.942559,-0.319725,-0.067461,0.000104,0.225342,-0.001289,6.673157
15:49:17.385,4.500,90,7.976811,6.248973,-4.724491,1,0.000000,0.000000,2.207615,-0.008935,0.189448,0.013473,0,0.000000,0.000000,0.000000,0,1,4.721859,7.923828,-0.498883,-4.745209,-0.949811,-0.326268,-0.056603,0.000004,0.224948,-0.001086,6.748096
15:49:17.435,4.550,91,7.929753,6.307350,-4.726135,1,0.000000,0.000000,2.243813,0.000519,0.260356,-0.009220,0,0.000000,0.000000,0.000000,0,1,4.645719,7.872183,-0.516196,-4.748074,-0.960254,-0.333826,-0.056733,0.000010,0.225333,-0.001173,6.823824
15:49:17.485,4.600,92,7.882259,6.365372,-4.727793,1,0.000000,0.000000,2.255119,0.032279,0.237647,0.002196,0,0.000000,0.000000,0.000000,0,1,4.637541,7.821753,-0.529769,-4.750897,-0.970079,-0.339656,-0.056759,0.000357,0.225465,-0.001137,6.895445
15:49:17.535,4.650,93,7.834332,6.423036,-4.729467,1,0.000000,0.000000,2.271997,0.006500,0.236987,0.029753,0,0.000000,0.000000,0.000000,0,1,4.796501,7.771572,-0.546538,-4.765999,-0.979337,-0.346821,-0.070565,0.000422,0.225588,-0.000866,6.969952
15:49:17.586,4.700,94,7.785973,6.480338,-4.731156,1,0.000000,0.000000,2.244583,0.002421,0.184569,-0.022017,0,0.000000,0.000000,0.000000,0,1,4.798291,7.727011,-0.562739,-4.769610,-0.986308,-0.353069,-0.070798,0.000443,0.225156,-0.001086,7.043429
15:49:17.636,4.750,95,7.737187,6.537276,-4.732859,1,0.000000,0.000000,2.290073,-0.034295,0.247084,-0.029201,0,0.000000,0.000000,0.000000,0,1,4.701929,7.675899,-0.585172,-4.773272,-0.995217,-0.362435,-0.071116,0.000082,0.225384,-0.001376,7.122827
15:49:17.686,4.800,96,7.687975,6.593847,-4.734578,1,0.000000,0.000000,2.273885,0.024261,0.257877,0.081835,0,0.000000,0.000000,0.000000,0,1,4.855821,7.621476,-0.601563,-4.799397,-1.005718,-0.369158,-0.096377,0.000331,0.225719,-0.000624,7.196009
15:49:17.736,4.850,97,7.638340,6.650046,-4.736311,1,0.000000,0.000000,2.306426,0.005684,0.258579,-0.024964,0,0.000000,0.000000,0.000000,0,1,4.729120,7.566973,-0.620508,-4.804308,-1.015693,-0.377036,-0.096619,0.000385,0.226055,-0.000869,7.271223
15:49:17.786,4.900,98,7.588286,6.705872,-4.738059,1,0.000000,0.000000,2.292701,0.002006,0.239790,-0.000034,0,0.000000,0.000000,0.000000,0,1,4.755357,7.514302,-0.639750,-4.809136,-1.024845,-0.384653,-0.096655,0.000402,0.226193,-0.000861,7.346338
15:49:17.836,4.950,99,7.537815,6.761320,-4.739821,1,0.000000,0.000000,2.312721,0.008661,0.214848,-0.058045,0,0.000000,0.000000,0.000000,0,1,4.728272,7.463965,-0.657853,-4.789371,-1.032822,-0.391706,-0.069082,0.000484,0.226080,-0.001326,7.419705
15:49:17.886,5.000,100,7.486929,6.816388,-4.741598,1,0.000000,0.000000,2.315098,-0.007035,0.190676,0.005378,0,0.000000,0.000000,0.000000,0,1,4.810455,7.416612,-0.677476,-4.792803,-1.039408,-0.399066,-0.069093,0.000410,0.225729,-0.001260,7.494369
15:49:17.936,5.050,101,7.435632,6.871072,-4.743390,1,0.000000,0.000000,2.337035,-0.021509,0.197209,0.014203,0,0.000000,0.000000,0.000000,0,1,4.644388,7.368578,-0.699423,-4.796197,-1.045869,-0.407368,-0.069020,0.000195,0.225450,-0.001110,7.570976
15:49:17.986,5.100,102,7.383927,6.925370,-4.745195,1,0.000000,0.000000,2.336325,0.020979,0.190485,-0.037116,0,0.000000,0.000000,0.000000,0,1,4.711446,7.319729,-0.716346,-4.774255,-1.052789,-0.413602,-0.040464,0.000397,0.225110,-0.001356,7.642041
15:49:18.036,5.150,103,7.331816,6.979278,-4.747015,1,0.000000,0.000000,2.337385,0.024989,0.228079,0.035074,0,0.000000,0.000000,0.000000,0,1,4.676004,7.265739,-0.734268,-4.776152,-1.061489,-0.420336,-0.040236,0.000633,0.225139,-0.001010,7.713885
15:49:18.086,5.200,104,7.279302,7.032794,-4.748849,1,0.000000,0.000000,2.361366,-0.023117,0.213564,-0.008343,0,0.000000,0.000000,0.000000,0,1,4.782112,7.214680,-0.758078,-4.778194,-1.068474,-0.429176,-0.040349,0.000407,0.225029,-0.001079,7.791196
15:49:18.136,5.250,105,7.226389,7.085914,-4.750697,1,0.000000,0.000000,2.352243,0.050857,0.240608,-0.030527,0,0.000000,0.000000,0.000000,0,1,4.719368,7.157432,-0.773890,-4.762707,-1.078107,-0.435098,-0.020697,0.000883,0.225176,-0.001286,7.860116
15:49:18.186,5.300,106,7.173079,7.138636,-4.752558,1,0.000000,0.000000,2.351348,0.035700,0.192632,0.033867,0,0.000000,0.000000,0.000000,0,1,4.729127,7.106294,-0.790327,-4.763624,-1.085319,-0.440818,-0.020484,0.001208,0.224871,-0.000962,7.929252
15:49:18.236,5.350,107,7.119376,7.190956,-4.754434,1,0.000000,0.000000,2.360636,0.041556,0.253578,0.000515,0,0.000000,0.000000,0.000000,0,1,4.761661,7.046773,-0.808376,-4.764644,-1.095321,-0.447486,-0.020520,0.001582,0.225137,-0.000948,7.999668
15:49:18.287,5.400,108,7.065282,7.242872,-4.756323,1,0.000000,0.000000,2.376057,0.020626,0.164234,-0.040756,0,0.000000,0.000000,0.000000,0,1,4.862152,6.999017,-0.826374,-4.793688,-1.100808,-0.453544,-0.052453,0.001757,0.224578,-0.001412,8.069604
15:49:18.337,5.450,109,7.010800,7.294380,-4.758225,1,0.000000,0.000000,2.388308,-0.036168,0.272948,0.012938,0,0.000000,0.000000,0.000000,0,1,4.692164,6.938825,-0.855906,-4.796265,-1.109995,-0.464292,-0.052413,0.001412,0.225018,-0.001283,8.150693
15:49:18.387,5.500,110,6.955934,7.345478,-4.760141,1,0.000000,0.000000,2.390001,-0.004301,0.247753,0.015560,0,0.000000,0.000000,0.000000,0,1,4.694879,6.880353,-0.880894,-4.798825,-1.118633,-0.473155,-0.052341,0.001361,0.225223,-0.001133,8.226810
15:49:18.437,5.550,111,6.900686,7.396163,-4.762070,1,0.000000,0.000000,2.403341,-0.017162,0.198027,0.012738,0,0.000000,0.000000,0.000000,0,1,4.804873,6.828509,-0.906214,-4.802395,-1.124693,-0.481737,-0.053422,0.001195,0.224980,-0.001014,8.302788
15:49:18.487,5.600,112,6.845060,7.446431,-4.764013,1,0.000000,0.000000,2.392723,-0.003820,0.207575,-0.059079,0,0.000000,0.000000,0.000000,0,1,4.672405,6.774591,-0.930525,-4.805254,-1.131524,-0.489819,-0.053907,0.001151,0.224826,-0.001522,8.377354
15:49:18.537,5.650,113,6.789058,7.496281,-4.765969,1,0.000000,0.000000,2.422362,-0.008836,0.258502,-0.014752,0,0.000000,0.000000,0.000000,0,1,4.747686,6.713680,-0.957847,-4.807999,-1.140270,-0.499344,-0.054087,0.001063,0.225122,-0.001636,8.454569
15:49:18.587,5.700,114,6.732685,7.545709,-4.767937,1,0.000000,0.000000,2.397927,0.040220,0.181206,0.012896,0,0.000000,0.000000,0.000000,0,1,4.725292,6.660912,-0.976021,-4.785968,-1.146762,-0.504989,-0.026102,0.001404,0.224740,-0.001425,8.522051
15:49:18.637,5.750,115,6.675943,7.594713,-4.769919,1,0.000000,0.000000,2.443095,0.021136,0.160116,-0.021682,0,0.000000,0.000000,0.000000,0,1,4.714010,6.611439,-0.996253,-4.787338,-1.151583,-0.511388,-0.026321,0.001574,0.224183,-0.001598,8.591226
15:49:18.687,5.800,116,6.618835,7.643289,-4.771913,1,0.000000,0.000000,2.458681,0.019417,0.227470,0.015625,0,0.000000,0.000000,0.000000,0,1,4.753758,6.552517,-1.019716,-4.788596,-1.159222,-0.519314,-0.026269,0.001726,0.224211,-0.001452,8.663275
15:49:18.737,5.850,117,6.561364,7.691436,-4.773920,1,0.000000,0.000000,2.435922,0.041438,0.216894,-0.031157,0,0.000000,0.000000,0.000000,0,1,4.723242,6.493774,-1.040094,-4.770716,-1.167042,-0.525898,-0.004714,0.002063,0.224149,-0.001635,8.731792
15:49:18.787,5.900,118,6.503535,7.739150,-4.775939,1,0.000000,0.000000,2.450434,0.007191,0.217827,0.000712,0,0.000000,0.000000,0.000000,0,1,4.634253,6.435912,-1.065626,-4.770947,-1.174093,-0.534113,-0.004779,0.002106,0.224096,-0.001616,8.805037
15:49:18.837,5.950,119,6.445349,7.786428,-4.777971,1,0.000000,0.000000,2.474172,0.007431,0.252356,0.034207,0,0.000000,0.000000,0.000000,0,1,4.670714,6.372835,-1.092987,-4.771066,-1.182457,-0.543198,-0.004592,0.002150,0.224331,-0.001321,8.879715
15:49:18.887,6.000,120,6.386810,7.833269,-4.780015,1,0.000000,0.000000,2.487273,-0.016503,0.198210,0.043728,0,0.000000,0.000000,0.000000,0,1,4.675457,6.318033,-1.121896,-4.743468,-1.187842,-0.552304,0.027015,0.001996,0.224115,-0.000862,8.955504
15:49:18.938,6.050,121,6.327923,7.879669,-4.782072,1,0.000000,0.000000,2.484511,-0.055095,0.214288,0.015768,0,0.000000,0.000000,0.000000,0,1,4.673214,6.262343,-1.157448,-4.742069,-1.193145,-0.563394,0.027088,0.001528,0.224035,-0.000727,9.037443
15:49:18.988,6.100,122,6.268689,7.925626,-4.784140,1,0.000000,0.000000,2.478662,-0.024073,0.183342,-0.017394,0,0.000000,0.000000,0.000000,0,1,4.841996,6.209483,-1.187723,-4.740770,-1.197793,-0.572430,0.026930,0.001320,0.223704,-0.000861,9.113644
15:49:19.038,6.150,123,6.209112,7.971137,-4.786221,1,0.000000,0.000000,2.501536,-0.002189,0.241899,-0.027626,0,0.000000,0.000000,0.000000,0,1,4.778968,6.146950,-1.217888,-4.750927,-1.205240,-0.581900,0.013770,0.001292,0.223851,-0.001111,9.189303
15:49:19.088,6.200,124,6.149195,8.016199,-4.788313,1,0.000000,0.000000,2.480301,-0.004680,0.193178,-0.003438,0,0.000000,0.000000,0.000000,0,1,4.842334,6.091253,-1.246680,-4.750247,-1.210712,-0.590296,0.013698,0.001244,0.223605,-0.001130,9.263139
15:49:19.138,6.250,125,6.088943,8.060811,-4.790417,1,0.000000,0.000000,2.493102,-0.024531,0.232636,-0.045358,0,0.000000,0.000000,0.000000,0,1,4.811727,6.030412,-1.280612,-4.749706,-1.217349,-0.600474,0.013327,0.001039,0.223677,-0.001476,9.341695
15:49:19.188,6.300,126,6.028358,8.104969,-4.792533,1,0.000000,0.000000,2.515126,-0.008486,0.233979,0.024444,0,0.000000,0.000000,0.000000,0,1,4.838916,5.968305,-1.312750,-4.774959,-1.224185,-0.610137,-0.016004,0.000964,0.223758,-0.001357,9.417927
15:49:19.238,6.350,127,5.967444,8.148672,-4.794660,1,0.000000,0.000000,2.511182,-0.045375,0.250009,-0.059603,0,0.000000,0.000000,0.000000,0,1,4.859630,5.905232,-1.351615,-4.775926,-1.230934,-0.621705,-0.016457,0.000602,0.223963,-0.001806,9.500509
15:49:19.288,6.400,128,5.906204,8.191916,-4.796799,1,0.000000,0.000000,2.520739,-0.032123,0.181656,-0.029078,0,0.000000,0.000000,0.000000,0,1,4.898049,5.851430,-1.385780,-4.776837,-1.234945,-0.631267,-0.016737,0.000349,0.223635,-0.002014,9.577873
15:49:19.338,6.450,129,5.844641,8.234699,-4.798948,1,0.000000,0.000000,2.493449,-0.014769,0.310780,0.005224,0,0.000000,0.000000,0.000000,0,1,4.774851,5.777135,-1.424112,-4.776842,-1.245095,-0.642740,-0.015869,0.000232,0.224305,-0.001957,9.659072
15:49:19.388,6.500,130,5.782760,8.277019,-4.801109,1,0.000000,0.000000,2.571645,-0.010357,0.224827,0.023234,0,0.000000,0.000000,0.000000,0,1,4.789477,5.715176,-1.458115,-4.777568,-1.250943,-0.652639,-0.015804,0.000152,0.224309,-0.001767,9.735397
15:49:19.438,6.550,131,5.720563,8.318873,-4.803281,1,0.000000,0.000000,2.559694,-0.029225,0.190299,-0.018923,0,0.000000,0.000000,0.000000,0,1,4.762661,5.659143,-1.493744,-4.778413,-1.255012,-0.662490,-0.016008,-0.000071,0.224052,-0.001895,9.812841
15:49:19.488,6.600,132,5.658054,8.360260,-4.805464,1,0.000000,0.000000,2.559488,0.067347,0.189864,-0.052254,0,0.000000,0.000000,0.000000,0,1,4.794741,5.598033,-1.515007,-4.783826,-1.261240,-0.668225,-0.021487,0.000436,0.223795,-0.002283,9.875473
15:49:19.538,6.650,133,5.595236,8.401176,-4.807658,1,0.000000,0.000000,2.557861,-0.018770,0.196119,-0.019782,0,0.000000,0.000000,0.000000,0,1,4.685932,5.540088,-1.550180,-4.784951,-1.265821,-0.677733,-0.021712,0.000293,0.223588,-0.002411,9.951534
15:49:19.588,6.700,134,5.532114,8.441620,-4.809862,1,0.000000,0.000000,2.582278,0.076116,0.209143,-0.032873,0,0.000000,0.000000,0.000000,0,1,4.803026,5.474897,-1.571761,-4.786131,-1.272888,-0.683679,-0.022034,0.000854,0.223481,-0.002634,10.013573
15:49:19.638,6.750,135,5.468690,8.481588,-4.812077,1,0.000000,0.000000,2.562766,0.063488,0.209941,-0.009124,0,0.000000,0.000000,0.000000,0,1,4.890248,5.409868,-1.595664,-4.817031,-1.279906,-0.690069,-0.055921,0.001315,0.223382,-0.002769,10.077426
15:49:19.689,6.800,136,5.404969,8.521080,-4.814302,1,0.000000,0.000000,2.585344,0.003577,0.228376,0.024490,0,0.000000,0.000000,0.000000,0,1,4.770008,5.344816,-1.630319,-4.819758,-1.286120,-0.699540,-0.055891,0.001331,0.223418,-0.002573,10.151579
15:49:19.739,6.850,137,5.340953,8.560093,-4.816538,1,0.000000,0.000000,2.571788,-0.005400,0.245057,0.002363,0,0.000000,0.000000,0.000000,0,1,4.775394,5.277304,-1.667784,-4.822542,-1.292950,-0.709694,-0.055987,0.001283,0.223575,-0.002537,10.228077
15:49:19.789,6.900,138,5.276647,8.598624,-4.818783,1,0.000000,0.000000,2.597172,0.023436,0.198840,0.005431,0,0.000000,0.000000,0.000000,0,1,4.822910,5.215213,-1.698603,-4.824622,-1.298282,-0.717722,-0.055272,0.001442,0.223397,-0.002479,10.297412
15:49:19.839,6.950,139,5.212054,8.636671,-4.821039,1,0.000000,0.000000,2.591819,0.027885,0.241527,-0.003839,0,0.000000,0.000000,0.000000,0,1,4.761917,5.145755,-1.731518,-4.827392,-1.305555,-0.726536,-0.055404,0.001631,0.223526,-0.002488,10.368402
15:49:19.889,7.000,140,5.147177,8.674232,-4.823304,1,0.000000,0.000000,2.608970,0.001051,0.200638,0.049660,0,0.000000,0.000000,0.000000,0,1,4.855212,5.084052,-1.766866,-4.830015,-1.310339,-0.735605,-0.055197,0.001627,0.223364,-0.002123,10.441292
15:49:19.939,7.050,141,5.082021,8.711306,-4.825580,1,0.000000,0.000000,2.620489,0.009523,0.250254,-0.015610,0,0.000000,0.000000,0.000000,0,1,4.842168,5.013581,-1.804170,-4.835523,-1.317268,-0.745564,-0.058452,0.001682,0.223553,-0.002225,10.515703
15:49:19.989,7.100,142,5.016588,8.747889,-4.827865,1,0.000000,0.000000,2.650975,-0.027198,0.223220,-0.016875,0,0.000000,0.000000,0.000000,0,1,4.749665,4.949338,-1.846378,-4.838485,-1.321904,-0.756566,-0.058650,0.001480,0.223551,-0.002326,10.594486
15:49:20.039,7.150,143,4.950883,8.783981,-4.830159,1,0.000000,0.000000,2.668043,-0.019705,0.206402,0.034045,0,0.000000,0.000000,0.000000,0,1,4.873111,4.887185,-1.886901,-4.841318,-1.325853,-0.766936,-0.058540,0.001333,0.223432,-0.002077,10.671078
15:49:20.089,7.200,144,4.884910,8.819578,-4.832463,1,0.000000,0.000000,2.642814,-0.037419,0.234134,-0.013155,0,0.000000,0.000000,0.000000,0,1,4.802051,4.821336,-1.932522,-4.832074,-1.330755,-0.778561,-0.044895,0.001066,0.223506,-0.002118,10.752288
15:49:20.139,7.250,145,4.818672,8.854679,-4.834776,1,0.000000,0.000000,2.673083,0.016681,0.224644,-0.014859,0,0.000000,0.000000,0.000000,0,1,4.831158,4.753527,-1.969182,-4.834354,-1.336276,-0.787898,-0.045075,0.001173,0.223514,-0.002204,10.824057
15:49:20.190,7.300,146,4.752172,8.889282,-4.837098,1,0.000000,0.000000,2.635583,-0.073733,0.170271,0.007825,0,0.000000,0.000000,0.000000,0,1,4.817643,4.700087,-2.017992,-4.836582,-1.337742,-0.799390,-0.045124,0.000663,0.223151,-0.002137,10.907399
15:49:20.240,7.350,147,4.685415,8.923386,-4.839429,1,0.000000,0.000000,2.678036,0.003524,0.277658,0.010806,0,0.000000,0.000000,0.000000,0,1,4.814885,4.623769,-2.061156,-4.831888,-1.345043,-0.810582,-0.037321,0.000683,0.223520,-0.002032,10.984717
15:49:20.290,7.400,148,4.618404,8.956987,-4.841770,1,0.000000,0.000000,2.656746,0.013751,0.218793,-0.024545,0,0.000000,0.000000,0.000000,0,1,4.805928,4.556350,-2.099431,-4.833811,-1.350414,-0.819808,-0.037551,0.000770,0.223488,-0.002181,11.056595
15:49:20.340,7.450,149,4.551143,8.990084,-4.844118,1,0.000000,0.000000,2.689635,0.001581,0.251427,-0.017855,0,0.000000,0.000000,0.000000,0,1,4.900166,4.483927,-2.142336,-4.835734,-1.356476,-0.830506,-0.037754,0.000776,0.223674,-0.002284,11.132626
15:49:20.390,7.500,150,4.483636,9.022676,-4.846476,1,0.000000,0.000000,2.671797,-0.017286,0.219826,0.026694,0,0.000000,0.000000,0.000000,0,1,4.882111,4.417809,-2.186931,-4.850422,-1.360967,-0.841091,-0.052272,0.000656,0.223649,-0.002129,11.209801
15:49:20.440,7.550,151,4.415887,9.054760,-4.848842,1,0.000000,0.000000,2.719079,0.012447,0.197443,-0.074359,0,0.000000,0.000000,0.000000,0,1,4.769611,4.353347,-2.225493,-4.853211,-1.364828,-0.850145,-0.052781,0.000734,0.223476,-0.002598,11.280427
15:49:20.490,7.600,152,4.347899,9.086335,-4.851216,1,0.000000,0.000000,2.738754,-0.016259,0.204315,-0.003184,0,0.000000,0.000000,0.000000,0,1,4.847759,4.289425,-2.269895,-4.855855,-1.368047,-0.860604,-0.052915,0.000623,0.223351,-0.002601,11.356381
15:49:20.540,7.650,153,4.279676,9.117399,-4.853598,1,0.000000,0.000000,2.710154,-0.022856,0.264537,0.038048,0,0.000000,0.000000,0.000000,0,1,4.802764,4.215382,-2.320023,-4.842307,-1.373789,-0.872718,-0.034595,0.000470,0.223619,-0.002299,11.437608
15:49:20.590,7.700,154,4.211222,9.147950,-4.855989,1,0.000000,0.000000,2.685289,0.015179,0.215639,-0.010850,0,0.000000,0.000000,0.000000,0,1,4.871632,4.146945,-2.360809,-4.844060,-1.378796,-0.881956,-0.034756,0.000565,0.223567,-0.002354,11.508945
15:49:20.640,7.750,155,4.142542,9.177986,-4.858387,1,0.000000,0.000000,2.729126,0.004446,0.176088,0.026992,0,0.000000,0.000000,0.000000,0,1,4.887991,4.085906,-2.401191,-4.845724,-1.381522,-0.890813,-0.034705,0.000590,0.223263,-0.002168,11.579322
15:49:20.690,7.800,156,4.073638,9.207506,-4.860793,1,0.000000,0.000000,2.758582,0.002591,0.237965,0.001757,0,0.000000,0.000000,0.000000,0,1,4.918924,4.014007,-2.446672,-4.868110,-1.386353,-0.901457,-0.058177,0.000603,0.223356,-0.002196,11.654333
15:49:20.741,7.850,157,4.004514,9.236508,-4.863207,1,0.000000,0.000000,2.737952,-0.029401,0.292544,-0.014054,0,0.000000,0.000000,0.000000,0,1,4.854829,3.934524,-2.502205,-4.871049,-1.392711,-0.914690,-0.058351,0.000413,0.223794,-0.002270,11.738925
15:49:20.791,7.900,158,3.935176,9.264991,-4.865628,1,0.000000,0.000000,2.764087,0.034157,0.231673,-0.010109,0,0.000000,0.000000,0.000000,0,1,4.801224,3.860962,-2.542793,-4.873990,-1.398043,-0.923967,-0.058509,0.000625,0.223844,-0.002319,11.808020
15:49:20.841,7.950,159,3.865625,9.292952,-4.868057,1,0.000000,0.000000,2.749608,-0.039761,0.196109,0.025024,0,0.000000,0.000000,0.000000,0,1,4.937700,3.798825,-2.594414,-4.894432,-1.400206,-0.935150,-0.078376,0.000373,0.223670,-0.002194,11.887583
15:49:20.891,8.000,160,3.795868,9.320391,-4.870493,1,0.000000,0.000000,2.760466,0.039580,0.250566,-0.006107,0,0.000000,0.000000,0.000000,0,1,4.847119,3.721017,-2.636405,-4.898362,-1.406463,-0.944705,-0.078506,0.000616,0.223838,-0.002218,11.957063
15:49:20.941,8.050,161,3.725906,9.347305,-4.872936,1,0.000000,0.000000,2.751957,0.006840,0.247997,0.007163,0,0.000000,0.000000,0.000000,0,1,4.889351,3.645786,-2.684582,-4.902267,-1.411845,-0.955443,-0.078565,0.000655,0.223987,-0.002161,12.032190
15:49:20.991,8.100,162,3.655745,9.373694,-4.875386,1,0.000000,0.000000,2.797146,0.008746,0.268674,-0.031005,0,0.000000,0.000000,0.000000,0,1,4.860491,3.566428,-2.734526,-4.893043,-1.417602,-0.966848,-0.063860,0.000704,0.224261,-0.002303,12.108562
15:49:21.041,8.150,163,3.585388,9.399555,-4.877843,1,0.000000,0.000000,2.785786,-0.030975,0.153932,-0.026921,0,0.000000,0.000000,0.000000,0,1,4.936686,3.510608,-2.783509,-4.896294,-1.417983,-0.976691,-0.064102,0.000511,0.223832,-0.002451,12.183308
15:49:21.091,8.200,164,3.514839,9.424888,-4.880307,1,0.000000,0.000000,2.845041,-0.013577,0.246626,0.024232,0,0.000000,0.000000,0.000000,0,1,4.800351,3.436564,-2.836933,-4.899436,-1.421776,-0.988539,-0.064080,0.000426,0.223970,-0.002292,12.262086
15:49:21.141,8.250,165,3.444102,9.449691,-4.882777,1,0.000000,0.000000,2.773890,0.028037,0.222482,0.045218,0,0.000000,0.000000,0.000000,0,1,4.948602,3.363493,-2.881457,-4.915835,-1.426508,-0.997884,-0.079003,0.000592,0.223961,-0.002042,12.331455
15:49:21.191,8.300,166,3.373181,9.473962,-4.885254,1,0.000000,0.000000,2.807404,0.047109,0.152867,-0.015377,0,0.000000,0.000000,0.000000,0,1,4.892248,3.301462,-2.917466,-4.919817,-1.428755,-1.004753,-0.079173,0.000871,0.223535,-0.002120,12.391683
15:49:21.241,8.350,167,3.302080,9.497700,-4.887737,1,0.000000,0.000000,2.830001,-0.005428,0.275366,0.015167,0,0.000000,0.000000,0.000000,0,1,4.857587,3.220880,-2.973264,-4.923736,-1.434022,-1.017027,-0.079186,0.000833,0.223844,-0.002019,12.471280
15:49:21.291,8.400,168,3.230804,9.520903,-4.890226,1,0.000000,0.000000,2.824325,-0.030155,0.280282,0.052081,0,0.000000,0.000000,0.000000,0,1,4.889952,3.141134,-3.034673,-4.916685,-1.438846,-1.030363,-0.066683,0.000650,0.224178,-0.001677,12.555924
15:49:21.341,8.450,169,3.159355,9.543572,-4.892721,1,0.000000,0.000000,2.806934,-0.016064,0.233295,-0.036208,0,0.000000,0.000000,0.000000,0,1,4.916254,3.068765,-3.090308,-4.920095,-1.442445,-1.041821,-0.066938,0.000551,0.224232,-0.001878,12.634234
15:49:21.391,8.500,170,3.087739,9.565703,-4.895222,1,0.000000,0.000000,2.849086,-0.056536,0.209945,-0.038468,0,0.000000,0.000000,0.000000,0,1,4.960592,3.003936,-3.152156,-4.923531,-1.443594,-1.054303,-0.067224,0.000218,0.224148,-0.002089,12.718167
15:49:21.441,8.550,171,3.015958,9.587297,-4.897728,1,0.000000,0.000000,2.831618,0.009233,0.251479,0.002567,0,0.000000,0.000000,0.000000,0,1,4.799487,2.925791,-3.205723,-4.890061,-1.448297,-1.065391,-0.025624,0.000270,0.224307,-0.001976,12.793340
15:49:21.492,8.600,172,2.944018,9.608351,-4.900240,1,0.000000,0.000000,2.848928,-0.067179,0.173155,0.028926,0,0.000000,0.000000,0.000000,0,1,4.966338,2.868613,-3.267661,-4.891280,-1.447761,-1.077226,-0.025572,-0.000120,0.224011,-0.001800,12.876236
15:49:21.542,8.650,173,2.871922,9.628864,-4.902758,1,0.000000,0.000000,2.835545,-0.011859,0.232990,0.020926,0,0.000000,0.000000,0.000000,0,1,4.904874,2.795441,-3.324775,-4.892508,-1.451137,-1.088595,-0.025545,-0.000187,0.224063,-0.001671,12.953869
15:49:21.592,8.700,174,2.799674,9.648836,-4.905281,1,0.000000,0.000000,2.844030,0.007111,0.231329,-0.010083,0,0.000000,0.000000,0.000000,0,1,4.988000,2.720794,-3.378711,-4.921033,-1.454887,-1.099241,-0.056488,-0.000146,0.224104,-0.001781,13.027795
15:49:21.642,8.750,175,2.727279,9.668266,-4.907809,1,0.000000,0.000000,2.886599,-0.027720,0.233215,0.033507,0,0.000000,0.000000,0.000000,0,1,4.962507,2.648639,-3.439995,-4.923787,-1.457267,-1.111362,-0.056408,-0.000302,0.224156,-0.001583,13.108506
15:49:21.692,8.800,176,2.654740,9.687151,-4.910342,1,0.000000,0.000000,2.890855,-0.016330,0.232971,0.015966,0,0.000000,0.000000,0.000000,0,1,4.825187,2.575427,-3.499678,-4.926569,-1.459906,-1.123062,-0.056398,-0.000393,0.224206,-0.001486,13.187078
15:49:21.742,8.850,177,2.582062,9.705492,-4.912880,1,0.000000,0.000000,2.885827,0.010171,0.198739,-0.043618,0,0.000000,0.000000,0.000000,0,1,4.947071,2.506319,-3.551811,-4.934577,-1.462088,-1.132803,-0.062445,-0.000334,0.224063,-0.001730,13.257537
15:49:21.792,8.900,178,2.509248,9.723286,-4.915423,1,0.000000,0.000000,2.901348,-0.005460,0.200394,0.005607,0,0.000000,0.000000,0.000000,0,1,4.883574,2.438176,-3.607590,-4.937686,-1.463726,-1.143202,-0.062497,-0.000362,0.223931,-0.001690,13.331084
15:49:21.842,8.950,179,2.436303,9.740534,-4.917970,1,0.000000,0.000000,2.892493,0.015350,0.210881,-0.004345,0,0.000000,0.000000,0.000000,0,1,4.930644,2.366026,-3.660795,-4.940819,-1.466442,-1.153113,-0.062595,-0.000275,0.223858,-0.001705,13.401533
15:49:21.892,9.000,180,2.363230,9.757234,-4.920522,1,0.000000,0.000000,2.909478,-0.030498,0.233791,-0.022735,0,0.000000,0.000000,0.000000,0,1,4.859864,2.293474,-3.725510,-4.919685,-1.468497,-1.165390,-0.035265,-0.000442,0.223913,-0.001765,13.482924
15:49:21.942,9.050,181,2.290035,9.773385,-4.923078,1,0.000000,0.000000,2.906863,0.006402,0.232390,0.036318,0,0.000000,0.000000,0.000000,0,1,4.884884,2.217697,-3.783500,-4.921375,-1.471583,-1.176281,-0.035176,-0.000404,0.223960,-0.001559,13.557078
15:49:21.992,9.100,182,2.216720,9.788986,-4.925638,1,0.000000,0.000000,2.898547,-0.003319,0.256210,-0.002649,0,0.000000,0.000000,0.000000,0,1,4.942310,2.138004,-3.846169,-4.923138,-1.475336,-1.188191,-0.035259,-0.000420,0.224136,-0.001565,13.635382
15:49:22.042,9.150,183,2.143291,9.804036,-4.928202,1,0.000000,0.000000,2.929176,-0.004701,0.191484,-0.002688,0,0.000000,0.000000,0.000000,0,1,4.938198,2.071005,-3.903615,-4.928747,-1.476382,-1.198357,-0.039691,-0.000443,0.223958,-0.001579,13.707841
15:49:22.092,9.200,184,2.069751,9.818535,-4.930770,1,0.000000,0.000000,2.970825,-0.017844,0.233144,-0.028734,0,0.000000,0.000000,0.000000,0,1,4.921262,1.996983,-3.968119,-4.930787,-1.478085,-1.210285,-0.039894,-0.000538,0.224008,-0.001724,13.786846
15:49:22.143,9.250,185,1.996104,9.832482,-4.933342,1,0.000000,0.000000,2.956071,0.010563,0.209145,-0.006746,0,0.000000,0.000000,0.000000,0,1,4.961778,1.924904,-4.025279,-4.932795,-1.479920,-1.220469,-0.040005,-0.000478,0.223928,-0.001751,13.857944
15:49:22.193,9.300,186,1.922355,9.845876,-4.935918,1,0.000000,0.000000,2.959433,-0.077592,0.198971,0.005555,0,0.000000,0.000000,0.000000,0,1,4.906374,1.863313,-4.099486,-4.926570,-1.478778,-1.233486,-0.030763,-0.000890,0.223795,-0.001694,13.945490
15:49:22.243,9.350,187,1.848507,9.858716,-4.938496,1,0.000000,0.000000,2.952749,-0.026209,0.211561,0.014786,0,0.000000,0.000000,0.000000,0,1,4.911307,1.794248,-4.165287,-4.928079,-1.479657,-1.245019,-0.030774,-0.001025,0.223730,-0.001608,14.024112
15:49:22.293,9.400,188,1.774565,9.871001,-4.941079,1,0.000000,0.000000,2.955664,0.020360,0.209800,0.008237,0,0.000000,0.000000,0.000000,0,1,4.936095,1.720886,-4.222151,-4.929598,-1.481817,-1.254859,-0.030808,-0.000912,0.223656,-0.001557,14.093259
15:49:22.343,9.450,189,1.700534,9.882731,-4.943664,1,0.000000,0.000000,2.971171,-0.028240,0.213466,-0.019796,0,0.000000,0.000000,0.000000,0,1,4.942892,1.651530,-4.289641,-4.934568,-1.482501,-1.266543,-0.034806,-0.001056,0.223602,-0.001658,14.172460
15:49:22.393,9.500,190,1.626416,9.893905,-4.946252,1,0.000000,0.000000,2.995746,-0.031518,0.303483,0.045221,0,0.000000,0.000000,0.000000,0,1,4.941173,1.564335,-4.367454,-4.936221,-1.485954,-1.281051,-0.034681,-0.001215,0.224020,-0.001417,14.261498
15:49:22.443,9.550,191,1.552217,9.904523,-4.948843,1,0.000000,0.000000,2.992717,-0.037362,0.259015,0.012585,0,0.000000,0.000000,0.000000,0,1,4.948839,1.486602,-4.442664,-4.937927,-1.487693,-1.294438,-0.034687,-0.001403,0.224203,-0.001345,14.347341
15:49:22.493,9.600,192,1.477940,9.914583,-4.951437,1,0.000000,0.000000,3.017622,0.040766,0.223492,0.057042,0,0.000000,0.000000,0.000000,0,1,4.939754,1.407989,-4.499031,-4.939592,-1.490248,-1.304090,-0.034542,-0.001185,0.224199,-0.001047,14.413789
15:49:22.543,9.650,193,1.403590,9.924086,-4.954033,1,0.000000,0.000000,3.003253,0.010212,0.227266,0.020282,0,0.000000,0.000000,0.000000,0,1,4.961980,1.331631,-4.562510,-4.941280,-1.492183,-1.314901,-0.034501,-0.001126,0.224215,-0.000938,14.486781
15:49:22.593,9.700,194,1.329171,9.933031,-4.956632,1,0.000000,0.000000,3.021890,-0.020761,0.211818,-0.019548,0,0.000000,0.000000,0.000000,0,1,4.996165,1.261581,-4.631246,-4.943045,-1.492449,-1.326338,-0.034634,-0.001227,0.224151,-0.001032,14.564440
15:49:22.643,9.750,195,1.254687,9.941417,-4.959233,1,0.000000,0.000000,3.053774,-0.037554,0.193127,0.012610,0,0.000000,0.000000,0.000000,0,1,4.987292,1.197140,-4.702007,-4.957043,-1.491212,-1.337810,-0.048536,-0.001412,0.223993,-0.000989,14.643537
15:49:22.693,9.800,196,1.180142,9.949243,-4.961836,1,0.000000,0.000000,3.038945,0.018900,0.191288,-0.008200,0,0.000000,0.000000,0.000000,0,1,4.865380,1.127110,-4.761507,-4.959484,-1.491793,-1.347274,-0.048617,-0.001309,0.223827,-0.001025,14.710846
15:49:22.743,9.850,197,1.105540,9.956511,-4.964441,1,0.000000,0.000000,3.040016,0.021510,0.297350,0.016230,0,0.000000,0.000000,0.000000,0,1,4.932323,1.034865,-4.832364,-4.961881,-1.496048,-1.359881,-0.048590,-0.001194,0.224198,-0.000939,14.789043
15:49:22.793,9.900,198,1.030887,9.963218,-4.967048,1,0.000000,0.000000,3.044913,-0.025181,0.216845,0.009206,0,0.000000,0.000000,0.000000,0,1,4.906454,0.964167,-4.904802,-4.947574,-1.496089,-1.371628,-0.029672,-0.001314,0.224161,-0.000855,14.868182
15:49:22.844,9.950,199,0.956185,9.969364,-4.969657,1,0.000000,0.000000,3.048443,0.023007,0.228959,-0.029370,0,0.000000,0.000000,0.000000,0,1,4.959093,0.885674,-4.969139,-4.949111,-1.497973,-1.382124,-0.029835,-0.001193,0.224185,-0.000996,14.938684
15:49:22.894,10.000,200,0.881439,9.974950,-4.972267,1,0.000000,0.000000,3.087038,-0.005200,0.229433,-0.049776,0,0.000000,0.000000,0.000000,0,1,4.983141,0.810112,-5.039941,-4.950702,-1.498577,-1.393615,-0.030102,-0.001213,0.224211,-0.001235,15.015075
15:49:22.944,10.050,201,0.806653,9.979975,-4.974879,1,0.000000,0.000000,3.057006,0.010289,0.266828,-0.039925,0,0.000000,0.000000,0.000000,0,1,4.950815,0.724975,-5.112258,-4.951868,-1.501236,-1.405722,-0.029861,-0.001156,0.224422,-0.001423,15.092471
15:49:22.994,10.100,202,0.731832,9.984438,-4.977492,1,0.000000,0.000000,3.098601,-0.024137,0.257208,-0.026814,0,0.000000,0.000000,0.000000,0,1,4.956216,0.645623,-5.191334,-4.953408,-1.502036,-1.418711,-0.030038,-0.001269,0.224584,-0.001546,15.176036
15:49:23.044,10.150,203,0.656979,9.988340,-4.980106,1,0.000000,0.000000,3.051168,-0.002140,0.262797,0.004708,0,0.000000,0.000000,0.000000,0,1,4.984345,0.562567,-5.267076,-4.954899,-1.504220,-1.431114,-0.030088,-0.001273,0.224771,-0.001516,15.255729
15:49:23.094,10.200,204,0.582099,9.991679,-4.982720,1,0.000000,0.000000,3.085153,-0.034569,0.252602,-0.076673,0,0.000000,0.000000,0.000000,0,1,4.928589,0.485294,-5.349121,-4.948485,-1.504668,-1.444298,-0.021358,-0.001436,0.224907,-0.001861,15.341144
15:49:23.144,10.250,205,0.507196,9.994457,-4.985336,1,0.000000,0.000000,3.077322,0.007212,0.203716,-0.062973,0,0.000000,0.000000,0.000000,0,1,5.116797,0.413523,-5.417338,-4.949663,-1.504896,-1.454580,-0.021702,-0.001394,0.224804,-0.002154,15.412121
15:49:23.194,10.300,206,0.432275,9.996673,-4.987952,1,0.000000,0.000000,3.117854,-0.033048,0.267901,-0.046456,0,0.000000,0.000000,0.000000,0,1,4.942915,0.332831,-5.502086,-4.950837,-1.505505,-1.468198,-0.022001,-0.001547,0.225012,-0.002364,15.499122
15:49:23.244,10.350,207,0.357339,9.998326,-4.990569,1,0.000000,0.000000,3.088487,-0.001776,0.218679,-0.001206,0,0.000000,0.000000,0.000000,0,1,4.954755,0.258916,-5.575080,-4.952752,-1.505812,-1.479245,-0.023036,-0.001548,0.224982,-0.002360,15.573763
15:49:23.294,10.400,208,0.282393,9.999417,-4.993186,1,0.000000,0.000000,3.132711,-0.029110,0.259549,-0.013872,0,0.000000,0.000000,0.000000,0,1,4.974990,0.179528,-5.659301,-4.953927,-1.506082,-1.492471,-0.023200,-0.001680,0.225147,-0.002415,15.659105
15:49:23.344,10.450,209,0.207441,9.999946,-4.995804,1,0.000000,0.000000,3.156002,0.035473,0.241119,-0.037611,0,0.000000,0.000000,0.000000,0,1,4.985049,0.096369,-5.728176,-4.955158,-1.507521,-1.503038,-0.023471,-0.001503,0.225223,-0.002580,15.728566
15:49:23.394,10.500,210,0.132486,9.999912,-4.998421,1,0.000000,0.000000,3.139292,-0.038043,0.254603,0.004302,0,0.000000,0.000000,0.000000,0,1,4.999102,0.019108,-5.814987,-4.968684,-1.507253,-1.516396,-0.037562,-0.001676,0.225363,-0.002571,15.815333
15:49:23.444,10.550,211,0.057535,9.999315,-5.001039,1,0.000000,0.000000,3.147522,0.000564,0.250395,-0.023381,0,0.000000,0.000000,0.000000,0,1,4.911097,-0.061904,-5.893654,-4.970600,-1.507969,-1.528387,-0.037773,-0.001665,0.225481,-0.002668,15.893447
15:49:23.494,10.600,212,-0.017410,9.998156,-5.003656,1,0.000000,0.000000,3.142502,0.021060,0.213916,0.049982,0,0.000000,0.000000,0.000000,0,1,4.994642,-0.137597,-5.964039,-4.972392,-1.508233,-1.538574,-0.037685,-0.001559,0.225426,-0.002424,15.962678
15:49:23.544,10.650,213,-0.092345,9.996435,-5.006272,1,0.000000,0.000000,3.145247,0.024750,0.251257,0.026699,0,0.000000,0.000000,0.000000,0,1,4.981099,-0.221841,-6.038762,-4.976206,-1.509766,-1.549841,-0.039928,-0.001436,0.225547,-0.002294,16.035747
15:49:23.595,10.700,214,-0.167264,9.994151,-5.008889,1,0.000000,0.000000,3.175843,-0.051681,0.247874,-0.014910,0,0.000000,0.000000,0.000000,0,1,4.980889,-0.295886,-6.130205,-4.978227,-1.508401,-1.563398,-0.040093,-0.001669,0.225651,-0.002352,16.124898
15:49:23.645,10.750,215,-0.242164,9.991305,-5.011504,1,0.000000,0.000000,3.166927,-0.020354,0.241314,-0.042770,0,0.000000,0.000000,0.000000,0,1,5.056228,-0.372349,-6.214684,-4.980310,-1.507920,-1.575760,-0.040378,-0.001756,0.225723,-0.002536,16.206542
15:49:23.695,10.800,216,-0.317041,9.987897,-5.014119,1,0.000000,0.000000,3.181315,0.065673,0.189197,0.010003,0,0.000000,0.000000,0.000000,0,1,4.943178,-0.448328,-6.274442,-4.970999,-1.508420,-1.583767,-0.027653,-0.001445,0.225555,-0.002458,16.262926
15:49:23.745,10.850,217,-0.391890,9.983928,-5.016733,1,0.000000,0.000000,3.213830,0.015261,0.259056,0.015965,0,0.000000,0.000000,0.000000,0,1,5.043473,-0.533175,-6.354547,-4.972354,-1.509106,-1.595574,-0.027705,-0.001368,0.225709,-0.002375,16.339146
15:49:23.795,10.900,218,-0.466707,9.979397,-5.019346,1,0.000000,0.000000,3.199329,0.022387,0.228879,0.003984,0,0.000000,0.000000,0.000000,0,1,5.010064,-0.612367,-6.429818,-4.973730,-1.509252,-1.606210,-0.027798,-0.001260,0.225723,-0.002347,16.409924
15:49:23.845,10.950,219,-0.541489,9.974304,-5.021957,1,0.000000,0.000000,3.213394,0.008297,0.210206,0.013163,0,0.000000,0.000000,0.000000,0,1,4.978149,-0.685645,-6.506298,-4.975975,-1.508215,-1.616668,-0.028848,-0.001217,0.225653,-0.002279,16.481297
15:49:23.895,11.000,220,-0.616229,9.968650,-5.024567,1,0.000000,0.000000,3.202017,0.044131,0.262938,-0.012431,0,0.000000,0.000000,0.000000,0,1,4.984450,-0.775171,-6.582323,-4.977437,-1.510079,-1.627758,-0.029001,-0.001011,0.225821,-0.002324,16.551804
15:49:23.945,11.050,221,-0.690926,9.962436,-5.027175,1,0.000000,0.000000,3.208607,0.051065,0.255100,0.024302,0,0.000000,0.000000,0.000000,0,1,5.128933,-0.863979,-6.656379,-4.978841,-1.511854,-1.638399,-0.029010,-0.000777,0.225953,-0.002206,16.619786
15:49:23.995,11.100,222,-0.765574,9.955661,-5.029782,1,0.000000,0.000000,3.213419,-0.053644,0.245448,-0.010891,0,0.000000,0.000000,0.000000,0,1,5.063195,-0.936827,-6.752852,-5.004264,-1.509866,-1.651892,-0.056263,-0.001014,0.226041,-0.002287,16.709410
15:49:24.045,11.150,223,-0.840168,9.948326,-5.032387,1,0.000000,0.000000,3.221967,0.043902,0.246447,-0.065464,0,0.000000,0.000000,0.000000,0,1,5.016624,-1.022834,-6.828517,-5.007182,-1.510988,-1.662476,-0.056616,-0.000813,0.226132,-0.002565,16.777857
15:49:24.095,11.200,224,-0.914706,9.940432,-5.034990,1,0.000000,0.000000,3.245400,-0.015936,0.185679,0.010433,0,0.000000,0.000000,0.000000,0,1,5.060735,-1.087333,-6.909815,-5.009993,-1.508075,-1.672842,-0.056693,-0.000881,0.225952,-0.002508,16.851150
15:49:24.145,11.250,225,-0.989183,9.931979,-5.037591,1,0.000000,0.000000,3.251419,-0.004576,0.239023,0.006403,0,0.000000,0.000000,0.000000,0,1,5.071145,-1.165109,-6.996339,-5.029670,-1.507059,-1.684605,-0.075857,-0.000897,0.226010,-0.002499,16.929233
15:49:24.195,11.300,226,-1.063594,9.922966,-5.040189,1,0.000000,0.000000,3.249110,0.012773,0.208558,0.002682,0,0.000000,0.000000,0.000000,0,1,5.032642,-1.238415,-7.075409,-5.033457,-1.505738,-1.694858,-0.075963,-0.000837,0.225933,-0.002477,16.999276
15:49:24.245,11.350,227,-1.137935,9.913396,-5.042785,1,0.000000,0.000000,3.259992,-0.059805,0.214559,0.027503,0,0.000000,0.000000,0.000000,0,1,5.059138,-1.302978,-7.172035,-5.037205,-1.502082,-1.707424,-0.075969,-0.001095,0.225883,-0.002347,17.086229
15:49:24.295,11.400,228,-1.212203,9.903268,-5.045379,1,0.000000,0.000000,3.295882,0.000156,0.235426,-0.024339,0,0.000000,0.000000,0.000000,0,1,4.986324,-1.380349,-7.258733,-5.025235,-1.500612,-1.718855,-0.058280,-0.001090,0.225925,-0.002414,17.162837
15:49:24.345,11.450,229,-1.286392,9.892583,-5.047970,1,0.000000,0.000000,3.255607,0.014992,0.259080,-0.026845,0,0.000000,0.000000,0.000000,0,1,5.128535,-1.465040,-7.345999,-5.028191,-1.500767,-1.730705,-0.058491,-0.001020,0.226069,-0.002519,17.239519
15:49:24.396,11.500,230,-1.360500,9.881342,-5.050557,1,0.000000,0.000000,3.270534,0.008035,0.199620,0.010355,0,0.000000,0.000000,0.000000,0,1,5.011568,-1.535374,-7.427041,-5.031096,-1.498801,-1.740767,-0.058567,-0.000981,0.225954,-0.002464,17.309277
15:49:24.446,11.550,231,-1.434521,9.869544,-5.053142,1,0.000000,0.000000,3.264901,0.052381,0.182177,0.004238,0,0.000000,0.000000,0.000000,0,1,5.023554,-1.608011,-7.496104,-5.030992,-1.497883,-1.748984,-0.055242,-0.000751,0.225766,-0.002430,17.366529
15:49:24.496,11.600,232,-1.508451,9.857192,-5.055724,1,0.000000,0.000000,3.310209,-0.011509,0.298742,0.025441,0,0.000000,0.000000,0.000000,0,1,4.962340,-1.697790,-7.596726,-5.033713,-1.497676,-1.762848,-0.055262,-0.000797,0.226079,-0.002312,17.454959
15:49:24.546,11.650,233,-1.582287,9.844285,-5.058302,1,0.000000,0.000000,3.293685,0.032394,0.240929,-0.008060,0,0.000000,0.000000,0.000000,0,1,5.029018,-1.780785,-7.679784,-5.036489,-1.497455,-1.773569,-0.055400,-0.000655,0.226142,-0.002337,17.525207
15:49:24.596,11.700,234,-1.656024,9.830824,-5.060877,1,0.000000,0.000000,3.338347,0.021302,0.219691,0.012285,0,0.000000,0.000000,0.000000,0,1,5.074260,-1.857334,-7.762824,-5.049356,-1.495766,-1.783816,-0.066912,-0.000562,0.226115,-0.002292,17.594804
15:49:24.646,11.750,235,-1.729658,9.816811,-5.063449,1,0.000000,0.000000,3.335023,-0.001684,0.231617,-0.015217,0,0.000000,0.000000,0.000000,0,1,5.058991,-1.933153,-7.853353,-5.052724,-1.493682,-1.795121,-0.067073,-0.000566,0.226138,-0.002346,17.671339
15:49:24.696,11.800,236,-1.803185,9.802245,-5.066016,1,0.000000,0.000000,3.350630,0.004953,0.243024,-0.002248,0,0.000000,0.000000,0.000000,0,1,5.126201,-2.012435,-7.944623,-5.056080,-1.491965,-1.806590,-0.067190,-0.000543,0.226209,-0.002346,17.748104
15:49:24.746,11.850,237,-1.876601,9.787128,-5.068580,1,0.000000,0.000000,3.369281,0.028452,0.207523,-0.032594,0,0.000000,0.000000,0.000000,0,1,4.991705,-2.087020,-8.025838,-5.039909,-1.489844,-1.816168,-0.045258,-0.000421,0.226131,-0.002438,17.814232
15:49:24.796,11.900,238,-1.949901,9.771460,-5.071140,1,0.000000,0.000000,3.340961,0.058569,0.280455,-0.028865,0,0.000000,0.000000,0.000000,0,1,5.044732,-2.182698,-8.111585,-5.042215,-1.491074,-1.827453,-0.045473,-0.000174,0.226358,-0.002547,17.884583
15:49:24.846,11.950,239,-2.023082,9.755242,-5.073695,1,0.000000,0.000000,3.342926,0.015412,0.208198,0.027604,0,0.000000,0.000000,0.000000,0,1,5.179092,-2.255390,-8.196929,-5.044441,-1.488831,-1.837499,-0.045488,-0.000109,0.226283,-0.002423,17.953698
15:49:24.896,12.000,240,-2.096139,9.738476,-5.076247,1,0.000000,0.000000,3.339924,-0.009452,0.212163,-0.001589,0,0.000000,0.000000,0.000000,0,1,5.037753,-2.325120,-8.289078,-5.044127,-1.485895,-1.848367,-0.042674,-0.000148,0.226224,-0.002416,18.029037
