timestamp,sim_time,iteration,true_pos_x,true_pos_y,true_pos_z,imu_valid,imu_roll,imu_pitch,imu_yaw,imu_acc_x,imu_acc_y,imu_acc_z,usbl_valid,usbl_pos_x,usbl_pos_y,usbl_pos_z,usbl_fix_used,depth_valid,depth_measurement,kf_pos_x,kf_pos_y,kf_pos_z,kf_vel_x,kf_vel_y,kf_vel_z,kf_acc_x,kf_acc_y,kf_acc_z,error_norm
17:18:31,0.000,0,10.168406,0.000000,-4.647959,1,0.000000,0.000000,1.564926,0.031786,0.277758,-0.036397,0,0.000000,0.000000,0.000000,0,1,4.583904,10.168059,0.000042,-4.584063,-0.013866,0.001669,0.001371,0.031757,0.277509,-0.036364,0.063897
17:18:31,0.050,1,10.168125,0.074999,-4.647969,1,0.000000,0.000000,1.557225,0.023470,0.236032,-0.012025,0,0.000000,0.000000,0.000000,0,1,4.635407,10.167123,0.000148,-4.583995,-0.025650,0.003011,0.000769,0.027615,0.256780,-0.024200,0.098470
17:18:31,0.100,2,10.167281,0.149994,-4.647998,1,0.000000,0.000000,1.568243,-0.015423,0.218536,-0.032932,0,0.000000,0.000000,0.000000,0,1,4.746737,10.165662,0.000171,-4.584015,-0.036589,0.002259,-0.000878,0.013274,0.244036,-0.027109,0.162921
17:18:31,0.150,3,10.165876,0.224981,-4.648048,1,0.000000,0.000000,1.573558,0.018009,0.221005,-0.009679,0,0.000000,0.000000,0.000000,0,1,4.669069,10.163642,0.000323,-4.661331,-0.047641,0.003120,-0.465014,0.014457,0.238279,-0.022766,0.225061
17:18:32,0.200,4,10.163909,0.299955,-4.648116,1,0.000000,0.000000,1.593915,0.026113,0.239067,0.011454,0,0.000000,0.000000,0.000000,0,1,4.647880,10.160958,0.000563,-4.684557,-0.059608,0.004150,-0.465141,0.016788,0.238437,-0.015923,0.301616
17:18:32,0.250,5,10.161380,0.374912,-4.648205,1,0.000000,0.000000,1.596972,-0.002445,0.293870,0.029719,0,0.000000,0.000000,0.000000,0,1,4.649676,10.157263,0.000641,-4.707708,-0.074314,0.003702,-0.464433,0.013583,0.247674,-0.008317,0.378994
17:18:32,0.300,6,10.158289,0.449848,-4.648312,1,0.000000,0.000000,1.588402,-0.004379,0.194415,-0.016262,0,0.000000,0.000000,0.000000,0,1,4.695931,10.153703,0.000680,-4.702697,-0.084039,0.003283,-0.354497,0.011017,0.240067,-0.009442,0.452472
17:18:32,0.350,7,10.154636,0.524759,-4.648440,1,0.000000,0.000000,1.639710,0.005905,0.250796,0.041293,0,0.000000,0.000000,0.000000,0,1,4.685805,10.149094,0.000786,-4.720341,-0.096584,0.002743,-0.353634,0.010378,0.241408,-0.003101,0.528912
17:18:32,0.400,8,10.150422,0.599640,-4.648587,1,0.000000,0.000000,1.618932,0.051474,0.245836,-0.023726,0,0.000000,0.000000,0.000000,0,1,4.590047,10.143910,0.001383,-4.738087,-0.108925,0.004730,-0.354386,0.014944,0.241900,-0.005393,0.604949
17:18:32,0.450,9,10.145647,0.674488,-4.648754,1,0.000000,0.000000,1.645749,-0.051963,0.233355,-0.022714,0,0.000000,0.000000,0.000000,0,1,4.598390,10.138275,0.000781,-4.647146,-0.120534,0.001237,-0.046282,0.008254,0.241045,-0.007053,0.673749
17:18:32,0.500,10,10.140311,0.749297,-4.648940,1,0.000000,0.000000,1.627957,-0.017486,0.226460,0.048010,0,0.000000,0.000000,0.000000,0,1,4.678789,10.132151,0.000484,-4.649342,-0.131827,-0.000305,-0.045229,0.005914,0.239720,-0.002048,0.748857
17:18:32,0.550,11,10.134415,0.824064,-4.649146,1,0.000000,0.000000,1.659174,0.007445,0.196904,-0.065879,0,0.000000,0.000000,0.000000,0,1,4.687594,10.125902,0.000482,-4.651822,-0.141657,-0.000924,-0.047091,0.006042,0.236152,-0.007367,0.823631
17:18:32,0.600,12,10.127958,0.898785,-4.649372,1,0.000000,0.000000,1.656484,-0.039921,0.201979,0.005082,0,0.000000,0.000000,0.000000,0,1,4.648139,10.119092,-0.000319,-4.650556,-0.151657,-0.003866,-0.039122,0.002506,0.233523,-0.006405,0.899149
17:18:32,0.650,13,10.120941,0.973456,-4.649617,1,0.000000,0.000000,1.682181,-0.008349,0.242890,-0.023597,0,0.000000,0.000000,0.000000,0,1,4.673033,10.111059,-0.000735,-4.652569,-0.163720,-0.005601,-0.039876,0.001731,0.234192,-0.007633,0.974245
17:18:32,0.700,14,10.113365,1.048072,-4.649881,1,0.000000,0.000000,1.687876,0.004800,0.232747,-0.015623,0,0.000000,0.000000,0.000000,0,1,4.667808,10.102608,-0.000989,-4.654604,-0.175295,-0.006726,-0.040472,0.001936,0.234096,-0.008166,1.049126
17:18:32,0.750,15,10.105230,1.122628,-4.650165,1,0.000000,0.000000,1.714005,0.008372,0.215288,-0.022649,0,0.000000,0.000000,0.000000,0,1,4.640233,10.093925,-0.001226,-4.648078,-0.185972,-0.007931,-0.025346,0.002338,0.232921,-0.009057,1.123913
17:18:32,0.800,16,10.096536,1.197122,-4.650469,1,0.000000,0.000000,1.702088,0.023943,0.222106,-0.012041,0,0.000000,0.000000,0.000000,0,1,4.580765,10.084554,-0.001192,-4.649366,-0.197056,-0.008231,-0.025874,0.003609,0.232284,-0.009232,1.198375
17:18:32,0.850,17,10.087284,1.271548,-4.650792,1,0.000000,0.000000,1.699308,0.003470,0.250237,-0.011444,0,0.000000,0.000000,0.000000,0,1,4.708728,10.074009,-0.001653,-4.650682,-0.209492,-0.009603,-0.026394,0.003601,0.233282,-0.009355,1.273270
17:18:32,0.900,18,10.077474,1.345903,-4.651135,1,0.000000,0.000000,1.704907,0.012913,0.259288,0.037857,0,0.000000,0.000000,0.000000,0,1,4.561383,10.062620,-0.001969,-4.609501,-0.222401,-0.010604,0.041674,0.004091,0.234650,-0.006774,1.348597
17:18:32,0.950,19,10.067108,1.420182,-4.651497,1,0.000000,0.000000,1.683837,0.017935,0.208571,-0.011134,0,0.000000,0.000000,0.000000,0,1,4.636730,10.051846,-0.002156,-4.607443,-0.232830,-0.010947,0.041227,0.004783,0.233347,-0.006992,1.423102
17:18:32,1.000,20,10.056185,1.494381,-4.651878,1,0.000000,0.000000,1.716426,-0.015767,0.191746,-0.012901,0,0.000000,0.000000,0.000000,0,1,4.628923,10.041027,-0.003233,-4.605421,-0.242263,-0.013279,0.040724,0.003805,0.231366,-0.007273,1.498411
17:18:32,1.050,21,10.044706,1.568496,-4.652279,1,0.000000,0.000000,1.708825,0.029550,0.207524,0.023119,0,0.000000,0.000000,0.000000,0,1,4.542275,10.029249,-0.003196,-4.577404,-0.252656,-0.013312,0.077732,0.004975,0.230282,-0.005815,1.573551
17:18:33,1.100,22,10.032672,1.642523,-4.652699,1,0.000000,0.000000,1.736078,-0.017053,0.219114,-0.022588,0,0.000000,0.000000,0.000000,0,1,4.644150,10.016682,-0.004520,-4.573601,-0.263412,-0.016014,0.077029,0.004017,0.229796,-0.006544,1.649019
17:18:33,1.150,23,10.020083,1.716458,-4.653139,1,0.000000,0.000000,1.740372,0.036418,0.236918,0.027565,0,0.000000,0.000000,0.000000,0,1,4.611042,10.002966,-0.004405,-4.569567,-0.275258,-0.016173,0.077577,0.005367,0.230093,-0.005123,1.722976
17:18:33,1.200,24,10.006941,1.790296,-4.653598,1,0.000000,0.000000,1.741197,-0.057650,0.230509,0.012387,0,0.000000,0.000000,0.000000,0,1,4.641024,9.989009,-0.007220,-4.594926,-0.286394,-0.020995,0.039735,0.002847,0.230110,-0.004533,1.798563
17:18:33,1.250,25,9.993246,1.864033,-4.654076,1,0.000000,0.000000,1.724814,-0.016532,0.194048,-0.058866,0,0.000000,0.000000,0.000000,0,1,4.601849,9.975607,-0.008874,-4.593220,-0.295907,-0.023424,0.038187,0.002101,0.228723,-0.006622,1.873979
17:18:33,1.300,26,9.978998,1.937665,-4.654573,1,0.000000,0.000000,1.729559,0.002172,0.209098,0.004543,0,0.000000,0.000000,0.000000,0,1,4.596375,9.961189,-0.010047,-4.591251,-0.306240,-0.025036,0.038138,0.002104,0.227996,-0.006209,1.948823
17:18:33,1.350,27,9.964199,2.011189,-4.655090,1,0.000000,0.000000,1.770974,-0.020988,0.185842,-0.027561,0,0.000000,0.000000,0.000000,0,1,4.567981,9.947116,-0.012070,-4.581712,-0.315230,-0.028148,0.046749,0.001279,0.226491,-0.006935,2.024661
17:18:33,1.400,28,9.948849,2.084599,-4.655626,1,0.000000,0.000000,1.777623,0.008625,0.214817,-0.068462,1,9.932598,2.191842,-4.897160,1,1,4.609741,9.932587,2.175977,-4.593186,-0.325622,0.993929,0.029774,0.001303,0.226489,-0.007005,0.111862
17:18:33,1.450,29,9.932949,2.157892,-4.656181,1,0.000000,0.000000,1.759176,-0.040402,0.295559,-0.005986,1,9.932598,2.191842,-4.897160,0,1,4.557538,9.915902,2.225526,-4.591699,-0.338971,0.990142,0.029449,-0.000135,0.228871,-0.006970,0.094989
17:18:33,1.500,30,9.916500,2.231064,-4.656756,1,0.000000,0.000000,1.815498,0.022782,0.169407,-0.010202,1,9.932598,2.191842,-4.897160,0,1,4.704013,9.898880,2.275071,-4.627964,-0.348091,0.988430,-0.015075,0.000629,0.226889,-0.007286,0.055463
17:18:33,1.550,31,9.899504,2.304110,-4.657349,1,0.000000,0.000000,1.773091,0.012026,0.261960,0.016487,1,9.932598,2.191842,-4.897160,0,1,4.681492,9.881008,2.324473,-4.628582,-0.360508,0.986424,-0.014866,0.000996,0.228020,-0.006520,0.039804
17:18:33,1.600,32,9.881960,2.377026,-4.657962,1,0.000000,0.000000,1.816303,0.008742,0.177327,0.040156,1,9.932598,2.191842,-4.897160,0,1,4.675758,9.863044,2.373822,-4.629003,-0.369797,0.984226,-0.014029,0.001238,0.226436,-0.005063,0.034738
17:18:33,1.650,33,9.863870,2.449809,-4.658594,1,0.000000,0.000000,1.823822,-0.071438,0.254566,-0.012299,1,9.932598,2.191842,-4.897160,0,1,4.650073,9.844122,2.422325,-4.636255,-0.381424,0.978672,-0.021876,-0.000964,0.227288,-0.005322,0.040551
17:18:33,1.700,34,9.845236,2.522454,-4.659245,1,0.000000,0.000000,1.849126,-0.011482,0.258736,0.024227,1,9.932598,2.191842,-4.897160,0,1,4.590638,9.824479,2.471035,-4.637163,-0.393433,0.974950,-0.021448,-0.001273,0.228213,-0.004455,0.059686
17:18:33,1.750,35,9.826057,2.594957,-4.659914,1,0.000000,0.000000,1.835411,-0.071161,0.226787,0.065807,1,9.932598,2.191842,-4.897160,0,1,4.720686,9.804655,2.518908,-4.637714,-0.403988,0.969330,-0.019966,-0.003270,0.228172,-0.002450,0.082063
17:18:33,1.800,36,9.806335,2.667314,-4.660603,1,0.000000,0.000000,1.829139,-0.020476,0.252675,0.002381,1,9.932598,2.191842,-4.897160,0,1,4.660280,9.783894,2.567031,-4.645375,-0.415790,0.965474,-0.027522,-0.003748,0.228853,-0.002362,0.103886
17:18:33,1.850,37,9.786072,2.739521,-4.661311,1,0.000000,0.000000,1.814668,-0.018823,0.244982,0.057346,1,9.932598,2.191842,-4.897160,0,1,4.643989,9.762625,2.614981,-4.646347,-0.427365,0.961867,-0.026282,-0.004155,0.229289,-0.000752,0.127609
17:18:33,1.900,38,9.765268,2.811575,-4.662037,1,0.000000,0.000000,1.850081,0.013100,0.275493,-0.080891,1,9.932598,2.191842,-4.897160,0,1,4.549736,9.740207,2.663161,-4.648285,-0.440183,0.958876,-0.028200,-0.003701,0.230505,-0.002856,0.151141
17:18:33,1.950,39,9.743925,2.883469,-4.662782,1,0.000000,0.000000,1.858201,0.010370,0.280599,-0.031578,1,9.932598,2.191842,-4.897160,0,1,4.664901,9.717016,2.711139,-4.654483,-0.453181,0.955650,-0.034119,-0.003340,0.231789,-0.003624,0.174616
17:18:33,2.000,40,9.722043,2.955202,-4.663547,1,0.000000,0.000000,1.869090,-0.000471,0.227934,-0.013873,1,9.932598,2.191842,-4.897160,0,1,4.676403,9.694146,2.758897,-4.656265,-0.464081,0.952220,-0.034525,-0.003269,0.231693,-0.003879,0.198411
17:18:34,2.050,41,9.699624,3.026769,-4.664329,1,0.000000,0.000000,1.880772,-0.000468,0.234552,0.031495,1,9.932598,2.191842,-4.897160,0,1,4.716468,9.670601,2.806464,-4.657716,-0.475193,0.948619,-0.033920,-0.003200,0.231763,-0.003019,0.222306
17:18:34,2.100,42,9.676669,3.098165,-4.665131,1,0.000000,0.000000,1.868284,0.006323,0.217463,-0.027695,1,9.932598,2.191842,-4.897160,0,1,4.613213,9.646845,2.854060,-4.645791,-0.485737,0.945538,-0.019135,-0.002974,0.231422,-0.003501,0.246679
17:18:34,2.150,43,9.653180,3.169387,-4.665951,1,0.000000,0.000000,1.888321,0.014093,0.239338,-0.018569,1,9.932598,2.191842,-4.897160,0,1,4.697155,9.622040,2.901610,-4.646860,-0.497114,0.942393,-0.019626,-0.002577,0.231606,-0.003850,0.270256
17:18:34,2.200,44,9.629158,3.240430,-4.666790,1,0.000000,0.000000,1.871058,-0.018169,0.194558,-0.017095,1,9.932598,2.191842,-4.897160,0,1,4.680787,9.597878,2.948400,-4.647952,-0.506571,0.938506,-0.020104,-0.002931,0.230764,-0.004150,0.294304
17:18:34,2.250,45,9.604604,3.311292,-4.667648,1,0.000000,0.000000,1.919202,0.047444,0.230814,-0.011373,1,9.932598,2.191842,-4.897160,0,1,4.741077,9.572071,2.996530,-4.676162,-0.517749,0.936412,-0.050927,-0.001812,0.230765,-0.004518,0.316552
17:18:34,2.300,46,9.579519,3.381967,-4.668524,1,0.000000,0.000000,1.923523,0.006940,0.197965,0.053869,1,9.932598,2.191842,-4.897160,0,1,4.548907,9.546772,3.043633,-4.678299,-0.527316,0.932941,-0.049988,-0.001621,0.230052,-0.003254,0.340055
17:18:34,2.350,47,9.553906,3.452452,-4.669418,1,0.000000,0.000000,1.937923,-0.032043,0.207376,0.014083,1,9.932598,2.191842,-4.897160,0,1,4.661416,9.520932,3.089408,-4.680664,-0.536881,0.927710,-0.049794,-0.002269,0.229570,-0.002887,0.364711
17:18:34,2.400,48,9.527764,3.522742,-4.670331,1,0.000000,0.000000,1.901043,0.076378,0.253622,-0.027799,1,9.932598,2.191842,-4.897160,0,1,4.696231,9.492701,3.137943,-4.687138,-0.549302,0.926818,-0.054698,-0.000630,0.230071,-0.003433,0.386758
17:18:34,2.450,49,9.501097,3.592835,-4.671262,1,0.000000,0.000000,1.938529,0.013950,0.203021,-0.027865,1,9.932598,2.191842,-4.897160,0,1,4.676972,9.465741,3.184782,-4.690050,-0.559065,0.923462,-0.055332,-0.000333,0.229519,-0.003929,0.410012
17:18:34,2.500,50,9.473905,3.662725,-4.672212,1,0.000000,0.000000,1.955781,-0.071391,0.237205,-0.047040,1,9.932598,2.191842,-4.897160,0,1,4.698944,9.437669,3.228474,-4.693160,-0.569395,0.916221,-0.056372,-0.001754,0.229673,-0.004787,0.436264
17:18:34,2.550,51,9.446190,3.732410,-4.673179,1,0.000000,0.000000,1.948270,-0.014423,0.222481,-0.006174,1,9.932598,2.191842,-4.897160,0,1,4.678960,9.409254,3.273787,-4.691035,-0.579637,0.911460,-0.051041,-0.002002,0.229532,-0.004776,0.460454
17:18:34,2.600,52,9.417954,3.801884,-4.674166,1,0.000000,0.000000,1.920946,-0.001215,0.185901,-0.059785,1,9.932598,2.191842,-4.897160,0,1,4.724598,9.381547,3.319560,-4.693974,-0.588629,0.907850,-0.052266,-0.001987,0.228693,-0.005829,0.484101
17:18:34,2.650,53,9.389197,3.871145,-4.675170,1,0.000000,0.000000,1.985388,0.002137,0.235990,0.044917,1,9.932598,2.191842,-4.897160,0,1,4.687828,9.351559,3.364939,-4.696204,-0.599388,0.903254,-0.051617,-0.001909,0.228830,-0.004876,0.508039
17:18:34,2.700,54,9.359923,3.940188,-4.676192,1,0.000000,0.000000,1.945579,-0.033385,0.208525,-0.042163,1,9.932598,2.191842,-4.897160,0,1,4.676768,9.322317,3.408935,-4.692620,-0.608884,0.897888,-0.045237,-0.002492,0.228454,-0.005515,0.532835
17:18:34,2.750,55,9.330131,4.009009,-4.677232,1,0.000000,0.000000,1.975789,-0.009639,0.251874,-0.020192,1,9.932598,2.191842,-4.897160,0,1,4.649653,9.290739,3.453262,-4.694987,-0.620218,0.892760,-0.045762,-0.002622,0.228880,-0.005780,0.557424
17:18:34,2.800,56,9.299825,4.077605,-4.678291,1,0.000000,0.000000,1.991239,-0.018232,0.231735,-0.042491,1,9.932598,2.191842,-4.897160,0,1,4.731500,9.259471,3.497122,-4.697557,-0.630577,0.887305,-0.046694,-0.002901,0.228931,-0.006432,0.582202
17:18:34,2.850,57,9.269005,4.145971,-4.679367,1,0.000000,0.000000,1.965292,-0.067208,0.235108,0.055459,1,9.932598,2.191842,-4.897160,0,1,4.637174,9.227931,3.538619,-4.681350,-0.640708,0.880083,-0.025462,-0.004029,0.229039,-0.005221,0.608743
17:18:34,2.900,58,9.237673,4.214104,-4.680461,1,0.000000,0.000000,1.990164,0.031095,0.186916,-0.028267,1,9.932598,2.191842,-4.897160,0,1,4.683337,9.197171,3.584376,-4.682780,-0.649713,0.877097,-0.026091,-0.003423,0.228313,-0.005616,0.631034
17:18:34,2.950,59,9.205832,4.282000,-4.681573,1,0.000000,0.000000,1.997411,0.060133,0.241168,-0.013883,1,9.932598,2.191842,-4.897160,0,1,4.727316,9.163302,3.630837,-4.684151,-0.661211,0.874693,-0.026509,-0.002346,0.228531,-0.005755,0.652556
17:18:35,3.000,60,9.173483,4.349655,-4.682703,1,0.000000,0.000000,1.997456,0.001167,0.142999,0.049128,1,9.932598,2.191842,-4.897160,0,1,4.705538,9.133883,3.675385,-4.690986,-0.668086,0.870890,-0.032589,-0.002288,0.227105,-0.004888,0.675483
17:18:35,3.050,61,9.140628,4.417066,-4.683850,1,0.000000,0.000000,2.045076,-0.055405,0.232810,-0.014742,1,9.932598,2.191842,-4.897160,0,1,4.632783,9.100458,3.716234,-4.692683,-0.677808,0.863356,-0.032982,-0.003158,0.227199,-0.005048,0.702038
17:18:35,3.100,62,9.107268,4.484228,-4.685015,1,0.000000,0.000000,1.997531,0.033041,0.235644,-0.009716,1,9.932598,2.191842,-4.897160,0,1,4.746053,9.065546,3.760955,-4.694371,-0.688821,0.859912,-0.033307,-0.002575,0.227335,-0.005123,0.724536
17:18:35,3.150,63,9.073406,4.551138,-4.686197,1,0.000000,0.000000,2.059096,-0.023089,0.188601,-0.027346,1,9.932598,2.191842,-4.897160,0,1,4.740925,9.032994,3.803187,-4.709163,-0.696976,0.854044,-0.048614,-0.002900,0.226720,-0.005560,0.749394
17:18:35,3.200,64,9.039043,4.617792,-4.687397,1,0.000000,0.000000,2.072850,-0.019345,0.233165,0.015487,1,9.932598,2.191842,-4.897160,0,1,4.723490,8.997743,3.844841,-4.711474,-0.706926,0.847710,-0.048592,-0.003157,0.226821,-0.005234,0.774428
17:18:35,3.250,65,9.004182,4.684186,-4.688615,1,0.000000,0.000000,2.033686,0.052058,0.239671,0.044614,1,9.067774,4.656308,-4.394744,1,1,4.608716,9.065817,4.642060,-4.701509,-0.662800,1.237261,-0.034697,-0.003128,0.226811,-0.005151,0.075761
17:18:35,3.300,66,8.968824,4.750317,-4.689849,1,0.000000,0.000000,2.032218,0.026633,0.167321,-0.073026,1,9.067774,4.656308,-4.394744,0,1,4.685267,9.032512,4.703874,-4.698534,-0.672162,1.232884,-0.030080,-0.002670,0.225895,-0.006153,0.079300
17:18:35,3.350,67,8.932971,4.816180,-4.691101,1,0.000000,0.000000,2.059997,0.011943,0.245971,-0.006910,1,9.067774,4.656308,-4.394744,0,1,4.653631,8.998595,4.765402,-4.700050,-0.682475,1.227560,-0.030397,-0.002449,0.226200,-0.006165,0.083457
17:18:35,3.400,68,8.896626,4.881772,-4.692371,1,0.000000,0.000000,2.056385,-0.022048,0.264779,0.031988,1,9.067774,4.656308,-4.394744,0,1,4.723024,8.964121,4.826540,-4.701337,-0.692911,1.221605,-0.030169,-0.002741,0.226775,-0.005600,0.087673
17:18:35,3.450,69,8.859790,4.947090,-4.693657,1,0.000000,0.000000,2.086342,-0.029952,0.209287,0.004622,1,9.067774,4.656308,-4.394744,0,1,4.585169,8.929339,4.887395,-4.669371,-0.702234,1.215567,0.007804,-0.003141,0.226518,-0.005241,0.094818
17:18:35,3.500,70,8.822466,5.012130,-4.694960,1,0.000000,0.000000,2.080609,-0.025548,0.215444,0.003244,1,9.067774,4.656308,-4.394744,0,1,4.683665,8.894073,4.947945,-4.668941,-0.711698,1.209604,0.007651,-0.003466,0.226358,-0.005119,0.099621
17:18:35,3.550,71,8.784655,5.076888,-4.696281,1,0.000000,0.000000,2.112510,0.048498,0.201546,-0.009182,1,9.067774,4.656308,-4.394744,0,1,4.671292,8.858277,5.008613,-4.668589,-0.721261,1.204697,0.007340,-0.002724,0.226003,-0.005177,0.104156
17:18:35,3.600,72,8.746359,5.141360,-4.697618,1,0.000000,0.000000,2.127511,-0.002664,0.146268,-0.057035,1,9.067774,4.656308,-4.394744,0,1,4.747668,8.822477,5.068889,-4.691198,-0.729382,1.199219,-0.019456,-0.002723,0.224880,-0.006037,0.105296
17:18:35,3.650,73,8.707582,5.205543,-4.698972,1,0.000000,0.000000,2.111785,-0.002223,0.286738,-0.045579,1,9.067774,4.656308,-4.394744,0,1,4.640453,8.785329,5.128535,-4.692388,-0.740063,1.192834,-0.020243,-0.002716,0.225739,-0.006581,0.109628
17:18:35,3.700,74,8.668325,5.269433,-4.700343,1,0.000000,0.000000,2.099581,0.009545,0.239003,-0.000731,1,9.067774,4.656308,-4.394744,0,1,4.714487,8.747941,5.188086,-4.693374,-0.750082,1.187139,-0.020497,-0.002548,0.225921,-0.006501,0.114038
17:18:35,3.750,75,8.628589,5.333027,-4.701731,1,0.000000,0.000000,2.121807,0.025708,0.180061,-0.009847,1,9.067774,4.656308,-4.394744,0,1,4.749353,8.710498,5.247699,-4.710214,-0.759022,1.182025,-0.038865,-0.002166,0.225301,-0.006636,0.118583
17:18:35,3.800,76,8.588379,5.396320,-4.703135,1,0.000000,0.000000,2.148445,-0.017607,0.207744,-0.004547,1,9.067774,4.656308,-4.394744,0,1,4.684774,8.672539,5.306565,-4.712155,-0.767936,1.175642,-0.039173,-0.002372,0.225067,-0.006609,0.123371
17:18:35,3.850,77,8.547695,5.459311,-4.704556,1,0.000000,0.000000,2.141759,-0.023391,0.216421,-0.007830,1,9.067774,4.656308,-4.394744,0,1,4.618775,8.634086,5.365012,-4.714129,-0.776988,1.169134,-0.039518,-0.002648,0.224954,-0.006625,0.128247
17:18:35,3.900,78,8.506540,5.521994,-4.705993,1,0.000000,0.000000,2.141860,-0.010007,0.169619,-0.011251,1,9.067774,4.656308,-4.394744,0,1,4.718239,8.595654,5.423489,-4.716746,-0.785233,1.163302,-0.040596,-0.002744,0.224235,-0.006688,0.133267
17:18:36,3.950,79,8.464916,5.584366,-4.707446,1,0.000000,0.000000,2.140798,0.031257,0.196010,0.007591,1,9.067774,4.656308,-4.394744,0,1,4.833309,8.556325,5.482050,-4.718715,-0.794355,1.158072,-0.040771,-0.002308,0.223873,-0.006506,0.137664
17:18:36,4.000,80,8.422826,5.646425,-4.708916,1,0.000000,0.000000,2.181224,-0.004902,0.198151,-0.017919,1,9.067774,4.656308,-4.394744,0,1,4.642301,8.516724,5.539898,-4.720823,-0.802920,1.151755,-0.041230,-0.002341,0.223548,-0.006649,0.142501
17:18:36,4.050,81,8.380272,5.708166,-4.710402,1,0.000000,0.000000,2.170812,-0.031208,0.228132,-0.017981,1,9.067774,4.656308,-4.394744,0,1,4.686965,8.476456,5.596904,-4.712563,-0.811890,1.144715,-0.029881,-0.002702,0.223605,-0.006735,0.147089
17:18:36,4.100,82,8.337256,5.769585,-4.711904,1,0.000000,0.000000,2.169219,-0.030472,0.230612,-0.036226,1,9.067774,4.656308,-4.394744,0,1,4.631122,8.435705,5.653532,-4.714202,-0.820917,1.137663,-0.030532,-0.003045,0.223692,-0.007095,0.152203
17:18:36,4.150,83,8.293782,5.830680,-4.713422,1,0.000000,0.000000,2.201213,-0.010615,0.193348,-0.009322,1,9.067774,4.656308,-4.394744,0,1,4.746580,8.394953,5.710334,-4.715749,-0.829152,1.131101,-0.030912,-0.003137,0.223322,-0.007122,0.157239
17:18:36,4.200,84,8.249850,5.891448,-4.714957,1,0.000000,0.000000,2.196861,0.058617,0.182454,0.036371,1,9.067774,4.656308,-4.394744,0,1,4.730639,8.353494,5.768017,-4.720985,-0.837895,1.126160,-0.035221,-0.002393,0.222829,-0.006623,0.161287
17:18:36,4.250,85,8.205465,5.951883,-4.716507,1,0.000000,0.000000,2.202571,0.022602,0.217372,0.006262,1,9.067774,4.656308,-4.394744,0,1,4.765055,8.311280,5.824627,-4.722697,-0.846967,1.120075,-0.035420,-0.002095,0.222764,-0.006472,0.165618
17:18:36,4.300,86,8.160627,6.011984,-4.718072,1,0.000000,0.000000,2.180810,0.011217,0.186398,0.043772,1,9.067774,4.656308,-4.394744,0,1,4.648229,8.269251,5.881000,-4.724228,-0.855399,1.114292,-0.035207,-0.001939,0.222336,-0.005887,0.170276
17:18:36,4.350,87,8.115341,6.071747,-4.719654,1,0.000000,0.000000,2.201183,-0.009556,0.221424,-0.006660,1,9.067774,4.656308,-4.394744,0,1,4.728085,8.226339,5.936413,-4.726603,-0.864217,1.107505,-0.036194,-0.002027,0.222326,-0.005899,0.175169
17:18:36,4.400,88,8.069607,6.131169,-4.721251,1,0.000000,0.000000,2.211272,-0.034680,0.252929,-0.032252,1,9.067774,4.656308,-4.394744,0,1,4.635814,8.182597,5.990703,-4.728533,-0.873371,1.099717,-0.036748,-0.002403,0.222678,-0.006198,0.180416
17:18:36,4.450,89,8.023430,6.190245,-4.722863,1,0.000000,0.000000,2.212801,0.082935,0.286054,0.056895,1,9.067774,4.656308,-4.394744,0,1,4.747959,8.136600,6.046679,-4.730079,-0.884608,1.094112,-0.036409,-0.001433,0.223398,-0.005489,0.182950
17:18:36,4.500,90,7.976811,6.248973,-4.724491,1,0.000000,0.000000,2.244223,0.010097,0.242035,-0.011575,1,9.067774,4.656308,-4.394744,0,1,4.752111,8.091639,6.101271,-4.737774,-0.893847,1.087128,-0.043362,-0.001303,0.223607,-0.005584,0.187557
17:18:36,4.550,91,7.929753,6.307350,-4.726135,1,0.000000,0.000000,2.237842,0.090849,0.279760,0.025987,1,9.067774,4.656308,-4.394744,0,1,4.602940,8.044518,6.156928,-4.739819,-0.904963,1.081564,-0.043343,-0.000280,0.224231,-0.005237,0.189697
17:18:36,4.600,92,7.882259,6.365372,-4.727793,1,0.000000,0.000000,2.260992,-0.028900,0.192545,-0.055536,1,9.067774,4.656308,-4.394744,0,1,4.800365,8.000100,6.210508,-4.742222,-0.912530,1.074151,-0.044103,-0.000594,0.223883,-0.005783,0.195135
17:18:36,4.650,93,7.834332,6.423036,-4.729467,1,0.000000,0.000000,2.259265,-0.015603,0.224542,-0.047607,1,9.067774,4.656308,-4.394744,0,1,4.654583,7.954413,6.263668,-4.718592,-0.920984,1.066664,-0.015313,-0.000757,0.223890,-0.006117,0.199839
17:18:36,4.700,94,7.785973,6.480338,-4.731156,1,0.000000,0.000000,2.270146,-0.015118,0.214643,0.007237,1,9.067774,4.656308,-4.394744,0,1,4.712407,7.908551,6.316571,-4.719312,-0.929131,1.059215,-0.015497,-0.000912,0.223790,-0.005976,0.204903
17:18:36,4.750,95,7.737187,6.537276,-4.732859,1,0.000000,0.000000,2.294299,-0.030551,0.200833,-0.026870,1,9.067774,4.656308,-4.394744,0,1,4.687034,7.862846,6.368864,-4.720186,-0.936573,1.051380,-0.015996,-0.001227,0.223546,-0.006195,0.210508
17:18:36,4.800,96,7.687975,6.593847,-4.734578,1,0.000000,0.000000,2.317923,0.003966,0.250512,0.020594,1,9.067774,4.656308,-4.394744,0,1,4.716534,7.815025,6.421033,-4.719612,-0.945430,1.043509,-0.014620,-0.001172,0.223830,-0.005911,0.215012
17:18:37,4.850,97,7.638340,6.650046,-4.736311,1,0.000000,0.000000,2.328950,0.026030,0.217663,-0.055709,1,9.067774,4.656308,-4.394744,0,1,4.733128,7.767357,6.473849,-4.720541,-0.953733,1.036492,-0.015355,-0.000889,0.223766,-0.006424,0.218951
17:18:37,4.900,98,7.588286,6.705872,-4.738059,1,0.000000,0.000000,2.318468,-0.015866,0.211217,0.011675,1,9.067774,4.656308,-4.394744,0,1,4.764060,7.720033,6.525231,-4.721240,-0.961407,1.028668,-0.015509,-0.001043,0.223637,-0.006239,0.224212
17:18:37,4.950,99,7.537815,6.761320,-4.739821,1,0.000000,0.000000,2.315357,0.015141,0.225794,-0.014141,1,9.067774,4.656308,-4.394744,0,1,4.772287,7.671460,6.576918,-4.736585,-0.969868,1.021407,-0.032345,-0.000878,0.223659,-0.006379,0.227762
17:18:37,5.000,100,7.486929,6.816388,-4.741598,1,0.000000,0.000000,2.300570,-0.013476,0.194339,-0.008297,1,9.067774,4.656308,-4.394744,0,1,4.704709,7.623836,6.627860,-4.738218,-0.977298,1.014026,-0.032680,-0.001005,0.223362,-0.006398,0.233019
17:18:37,5.050,101,7.435632,6.871072,-4.743390,1,0.000000,0.000000,2.343182,0.013650,0.210736,-0.026184,1,9.067774,4.656308,-4.394744,0,1,4.739163,7.574938,6.679019,-4.739941,-0.985166,1.006727,-0.033178,-0.000859,0.223236,-0.006594,0.237281
17:18:37,5.100,102,7.383927,6.925370,-4.745195,1,0.000000,0.000000,2.323504,0.009933,0.218718,0.008382,1,7.252805,6.818637,-4.635497,1,1,4.702476,7.296723,6.804226,-4.727341,-1.073941,1.025517,-0.017352,-0.000812,0.223284,-0.006536,0.150330
17:18:37,5.150,103,7.331816,6.979278,-4.747015,1,0.000000,0.000000,2.327496,0.035021,0.208536,0.031585,1,7.252805,6.818637,-4.635497,0,1,4.718399,7.242801,6.855566,-4.728083,-1.082164,1.018508,-0.017364,-0.000457,0.223138,-0.006163,0.153580
17:18:37,5.200,104,7.279302,7.032794,-4.748849,1,0.000000,0.000000,2.327123,-0.005370,0.168096,-0.075686,1,7.252805,6.818637,-4.635497,0,1,4.744599,7.188871,6.906463,-4.729230,-1.089375,1.011318,-0.018275,-0.000505,0.222599,-0.006837,0.156596
17:18:37,5.250,105,7.226389,7.085914,-4.750697,1,0.000000,0.000000,2.331943,-0.000014,0.273952,-0.033603,1,7.252805,6.818637,-4.635497,0,1,4.748567,7.133824,6.956633,-4.735444,-1.098214,1.003097,-0.024747,-0.000501,0.223097,-0.007114,0.159733
17:18:37,5.300,106,7.173079,7.138636,-4.752558,1,0.000000,0.000000,2.337442,-0.026811,0.260321,0.027757,1,7.252805,6.818637,-4.635497,0,1,4.784886,7.078534,7.006216,-4.736570,-1.106533,0.994535,-0.024821,-0.000753,0.223454,-0.006782,0.163492
17:18:37,5.350,107,7.119376,7.190956,-4.754434,1,0.000000,0.000000,2.358540,0.047477,0.216927,-0.008747,1,7.252805,6.818637,-4.635497,0,1,4.746761,7.022827,7.056197,-4.737827,-1.114808,0.987423,-0.025177,-0.000294,0.223392,-0.006801,0.166606
17:18:37,5.400,108,7.065282,7.242872,-4.756323,1,0.000000,0.000000,2.355940,-0.013341,0.208148,-0.072466,1,7.252805,6.818637,-4.635497,0,1,4.818805,6.967104,7.105331,-4.762011,-1.122309,0.979477,-0.051891,-0.000417,0.223249,-0.007499,0.169082
17:18:37,5.450,109,7.010800,7.294380,-4.758225,1,0.000000,0.000000,2.388259,-0.044172,0.223541,0.012898,1,7.252805,6.818637,-4.635497,0,1,4.787280,6.911058,7.153656,-4.764546,-1.129440,0.970610,-0.052105,-0.000826,0.223251,-0.007311,0.172602
17:18:37,5.500,110,6.955934,7.345478,-4.760141,1,0.000000,0.000000,2.393750,-0.002578,0.249913,0.049093,1,7.252805,6.818637,-4.635497,0,1,4.820647,6.854119,7.201788,-4.766950,-1.137416,0.962061,-0.052004,-0.000842,0.223498,-0.006795,0.176236
17:18:37,5.550,111,6.900686,7.396163,-4.762070,1,0.000000,0.000000,2.372653,-0.045087,0.266001,0.021023,1,7.252805,6.818637,-4.635497,0,1,4.774816,6.796875,7.248879,-4.770983,-1.145336,0.952770,-0.053858,-0.001248,0.223888,-0.006549,0.180412
17:18:37,5.600,112,6.845060,7.446431,-4.764013,1,0.000000,0.000000,2.399838,-0.002675,0.263738,0.010537,1,7.252805,6.818637,-4.635497,0,1,4.820045,6.738942,7.295991,-4.773628,-1.153500,0.943973,-0.054054,-0.001261,0.224250,-0.006395,0.184352
17:18:37,5.650,113,6.789058,7.496281,-4.765969,1,0.000000,0.000000,2.426467,-0.005328,0.248892,-0.014737,1,7.252805,6.818637,-4.635497,0,1,4.781242,6.680797,7.342724,-4.776369,-1.161169,0.935096,-0.054441,-0.001297,0.224471,-0.006470,0.188171
17:18:38,5.700,114,6.732685,7.545709,-4.767937,1,0.000000,0.000000,2.425167,-0.013517,0.183040,0.000485,1,7.252805,6.818637,-4.635497,0,1,4.708602,6.623230,7.389457,-4.758798,-1.167636,0.926898,-0.031639,-0.001406,0.224102,-0.006335,0.190994
17:18:38,5.750,115,6.675943,7.594713,-4.769919,1,0.000000,0.000000,2.415460,-0.036877,0.221135,0.020924,1,7.252805,6.818637,-4.635497,0,1,4.721211,6.565032,7.435106,-4.760300,-1.174523,0.917904,-0.031752,-0.001720,0.224075,-0.006097,0.194597
17:18:38,5.800,116,6.618835,7.643289,-4.771913,1,0.000000,0.000000,2.447805,0.007310,0.223428,0.027495,1,7.252805,6.818637,-4.635497,0,1,4.800864,6.506050,7.480928,-4.761776,-1.181726,0.909400,-0.031793,-0.001641,0.224070,-0.005806,0.197951
17:18:38,5.850,117,6.561364,7.691436,-4.773920,1,0.000000,0.000000,2.409205,-0.003759,0.245851,-0.026436,1,7.252805,6.818637,-4.635497,0,1,4.793382,6.446453,7.525930,-4.772085,-1.189507,0.900691,-0.042060,-0.001659,0.224259,-0.006014,0.201495
17:18:38,5.900,118,6.503535,7.739150,-4.775939,1,0.000000,0.000000,2.450835,-0.023278,0.297910,0.005219,1,7.252805,6.818637,-4.635497,0,1,4.748649,6.385811,7.569586,-4.774160,-1.197586,0.890636,-0.042278,-0.001845,0.224893,-0.005918,0.206432
17:18:38,5.950,119,6.445349,7.786428,-4.777971,1,0.000000,0.000000,2.431696,-0.034429,0.290046,-0.013651,1,7.252805,6.818637,-4.635497,0,1,4.874234,6.324992,7.612590,-4.776308,-1.205551,0.880591,-0.042633,-0.002124,0.225450,-0.005983,0.211444
17:18:38,6.000,120,6.386810,7.833269,-4.780015,1,0.000000,0.000000,2.449224,0.035310,0.225471,0.002600,1,7.252805,6.818637,-4.635497,0,1,4.822814,6.264085,7.657078,-4.791236,-1.213181,0.872510,-0.057415,-0.001807,0.225450,-0.005955,0.215013
17:18:38,6.050,121,6.327923,7.879669,-4.782072,1,0.000000,0.000000,2.439123,0.006461,0.200018,0.035419,1,7.252805,6.818637,-4.635497,0,1,4.816132,6.203620,7.700964,-4.793988,-1.220057,0.864350,-0.057419,-0.001737,0.225237,-0.005612,0.218010
17:18:38,6.100,122,6.268689,7.925626,-4.784140,1,0.000000,0.000000,2.446735,-0.041431,0.215287,-0.016548,1,7.252805,6.818637,-4.635497,0,1,4.860857,6.143159,7.743319,-4.796903,-1.226459,0.855072,-0.057781,-0.002068,0.225154,-0.005702,0.221713
17:18:38,6.150,123,6.209112,7.971137,-4.786221,1,0.000000,0.000000,2.494287,0.025727,0.259989,-0.007482,1,7.252805,6.818637,-4.635497,0,1,4.784157,6.080576,7.785929,-4.795284,-1.234195,0.846030,-0.052953,-0.001838,0.225441,-0.005702,0.225622
17:18:38,6.200,124,6.149195,8.016199,-4.788313,1,0.000000,0.000000,2.515058,-0.033974,0.242398,-0.054811,1,7.252805,6.818637,-4.635497,0,1,4.924091,6.018810,7.827080,-4.798084,-1.240569,0.836014,-0.053578,-0.002101,0.225580,-0.006099,0.229918
17:18:38,6.250,125,6.088943,8.060811,-4.790417,1,0.000000,0.000000,2.506278,-0.005848,0.236663,-0.030166,1,7.252805,6.818637,-4.635497,0,1,4.873655,5.956431,7.868404,-4.800850,-1.247325,0.826641,-0.054058,-0.002132,0.225670,-0.006292,0.233857
17:18:38,6.300,126,6.028358,8.104969,-4.792533,1,0.000000,0.000000,2.505424,0.003325,0.189637,-0.054547,1,7.252805,6.818637,-4.635497,0,1,4.749513,5.894626,7.910195,-4.788062,-1.253363,0.818142,-0.036982,-0.002088,0.225380,-0.006625,0.236308
17:18:38,6.350,127,5.967444,8.148672,-4.794660,1,0.000000,0.000000,2.528799,-0.053104,0.222765,-0.013268,1,7.252805,6.818637,-4.635497,0,1,4.814869,5.832690,7.949726,-4.789939,-1.258935,0.807963,-0.037358,-0.002496,0.225359,-0.006678,0.240334
17:18:38,6.400,128,5.906204,8.191916,-4.796799,1,0.000000,0.000000,2.534337,-0.021911,0.247637,0.007954,1,7.252805,6.818637,-4.635497,0,1,4.807078,5.769379,7.989048,-4.791768,-1.265375,0.797935,-0.037588,-0.002650,0.225536,-0.006563,0.244748
17:18:38,6.450,129,5.844641,8.234699,-4.798948,1,0.000000,0.000000,2.536091,0.011584,0.209888,-0.048449,1,7.252805,6.818637,-4.635497,0,1,4.909254,5.706089,8.029338,-4.827181,-1.271616,0.789097,-0.076023,-0.002538,0.225413,-0.006994,0.249332
17:18:38,6.500,130,5.782760,8.277019,-4.801109,1,0.000000,0.000000,2.517342,0.031242,0.191360,0.015340,1,7.252805,6.818637,-4.635497,0,1,4.750751,5.642598,8.070043,-4.830928,-1.277999,0.781047,-0.076225,-0.002274,0.225147,-0.006822,0.251741
17:18:38,6.550,131,5.720563,8.318873,-4.803281,1,0.000000,0.000000,2.537925,0.027738,0.205419,0.002110,1,7.252805,6.818637,-4.635497,0,1,4.774118,5.578491,8.110020,-4.834720,-1.284406,0.772594,-0.076504,-0.002042,0.224994,-0.006753,0.254543
17:18:39,6.600,132,5.658054,8.360260,-4.805464,1,0.000000,0.000000,2.562178,-0.033285,0.239757,-0.014177,1,7.252805,6.818637,-4.635497,0,1,4.838761,5.514332,8.147284,-4.838632,-1.290252,0.762297,-0.076955,-0.002282,0.225107,-0.006810,0.259065
17:18:39,6.650,133,5.595236,8.401176,-4.807658,1,0.000000,0.000000,2.538089,0.003378,0.208353,0.005265,1,7.252805,6.818637,-4.635497,0,1,4.800557,5.450011,8.185660,-4.842454,-1.296322,0.753347,-0.077217,-0.002239,0.224980,-0.006719,0.262199
17:18:39,6.700,134,5.532114,8.441620,-4.809862,1,0.000000,0.000000,2.584381,-0.013016,0.196972,-0.023560,1,7.252805,6.818637,-4.635497,0,1,4.830802,5.386069,8.223365,-4.846376,-1.301466,0.744001,-0.077668,-0.002320,0.224768,-0.006845,0.265136
17:18:39,6.750,135,5.468690,8.481588,-4.812077,1,0.000000,0.000000,2.574610,-0.024741,0.186344,-0.080925,1,7.252805,6.818637,-4.635497,0,1,4.804499,5.322449,8.260501,-4.837216,-1.306297,0.734678,-0.063478,-0.002489,0.224479,-0.007354,0.266267
17:18:39,6.800,136,5.404969,8.521080,-4.814302,1,0.000000,0.000000,2.577172,0.022373,0.262794,0.035896,1,7.252805,6.818637,-4.635497,0,1,4.836453,5.255290,8.296888,-4.840282,-1.313349,0.724951,-0.063572,-0.002303,0.224765,-0.007036,0.270815
17:18:39,6.850,137,5.340953,8.560093,-4.816538,1,0.000000,0.000000,2.594572,0.042645,0.209304,0.032544,1,5.545445,8.742408,-4.834364,1,1,4.761314,5.454638,8.637941,-4.843116,-1.232750,0.814728,-0.063522,-0.002258,0.224556,-0.007035,0.140325
17:18:39,6.900,138,5.276647,8.598624,-4.818783,1,0.000000,0.000000,2.578344,-0.022892,0.242712,0.004411,1,5.545445,8.742408,-4.834364,0,1,4.822400,5.392834,8.678149,-4.839558,-1.238620,0.804713,-0.056189,-0.002411,0.224690,-0.006931,0.142321
17:18:39,6.950,139,5.212054,8.636671,-4.821039,1,0.000000,0.000000,2.623872,-0.000497,0.249601,0.011145,1,5.545445,8.742408,-4.834364,0,1,4.877418,5.330531,8.717982,-4.842329,-1.244397,0.794611,-0.056425,-0.002397,0.224873,-0.006800,0.145264
17:18:39,7.000,140,5.147177,8.674232,-4.823304,1,0.000000,0.000000,2.620820,-0.072294,0.221138,-0.005572,1,5.545445,8.742408,-4.834364,0,1,4.754865,5.268736,8.756834,-4.845155,-1.248977,0.784000,-0.056757,-0.002905,0.224846,-0.006791,0.148584
17:18:39,7.050,141,5.082021,8.711306,-4.825580,1,0.000000,0.000000,2.598428,-0.018918,0.226551,0.017016,1,5.545445,8.742408,-4.834364,0,1,4.782787,5.206258,8.795618,-4.829455,-1.254482,0.774084,-0.035917,-0.003021,0.224858,-0.006567,0.150195
17:18:39,7.100,142,5.016588,8.747889,-4.827865,1,0.000000,0.000000,2.619571,-0.019617,0.210436,0.028240,1,5.545445,8.742408,-4.834364,0,1,4.796482,5.143693,8.834027,-4.831169,-1.259568,0.764245,-0.036034,-0.003140,0.224755,-0.006321,0.153578
17:18:39,7.150,143,4.950883,8.783981,-4.830159,1,0.000000,0.000000,2.611824,0.019282,0.240638,-0.015810,1,5.545445,8.742408,-4.834364,0,1,4.829297,5.080192,8.872096,-4.833006,-1.265600,0.754538,-0.036410,-0.002981,0.224868,-0.006387,0.156503
17:18:39,7.200,144,4.884910,8.819578,-4.832463,1,0.000000,0.000000,2.625943,-0.041335,0.289059,0.048879,1,5.545445,8.742408,-4.834364,0,1,4.829623,5.016410,8.908498,-4.833221,-1.271305,0.743355,-0.034723,-0.003252,0.225322,-0.005997,0.158744
17:18:39,7.250,145,4.818672,8.854679,-4.834776,1,0.000000,0.000000,2.637613,0.025228,0.198186,0.029561,1,5.545445,8.742408,-4.834364,0,1,4.932016,4.952744,8.946047,-4.834875,-1.276647,0.734133,-0.034811,-0.003052,0.225131,-0.005750,0.162245
17:18:39,7.300,146,4.752172,8.889282,-4.837098,1,0.000000,0.000000,2.657367,0.040641,0.197150,0.014579,1,5.545445,8.742408,-4.834364,0,1,4.772242,4.888656,8.983367,-4.836565,-1.281997,0.725034,-0.034971,-0.002747,0.224936,-0.005610,0.165771
17:18:39,7.350,147,4.685415,8.923386,-4.839429,1,0.000000,0.000000,2.647630,0.061809,0.228499,0.014359,1,5.545445,8.742408,-4.834364,0,1,4.894694,4.823626,9.020183,-4.854451,-1.288150,0.715836,-0.053553,-0.002300,0.224961,-0.005518,0.169404
17:18:39,7.400,148,4.618404,8.956987,-4.841770,1,0.000000,0.000000,2.705678,0.025347,0.289443,-0.025039,1,5.545445,8.742408,-4.834364,0,1,4.871603,4.757874,9.055307,-4.857185,-1.294007,0.705034,-0.053943,-0.002110,0.225404,-0.005651,0.171337
17:18:40,7.450,149,4.551143,8.990084,-4.844118,1,0.000000,0.000000,2.681921,-0.035705,0.206699,0.055418,1,5.545445,8.742408,-4.834364,0,1,4.823778,4.693752,9.090065,-4.859719,-1.298192,0.694724,-0.053851,-0.002339,0.225277,-0.005238,0.174863
17:18:40,7.500,150,4.483636,9.022676,-4.846476,1,0.000000,0.000000,2.691915,0.011573,0.249315,-0.042764,1,5.545445,8.742408,-4.834364,0,1,4.858647,4.628177,9.124428,-4.861415,-1.303494,0.684359,-0.053082,-0.002245,0.225440,-0.005487,0.177395
17:18:40,7.550,151,4.415887,9.054760,-4.848842,1,0.000000,0.000000,2.662528,-0.015706,0.241747,0.020360,1,5.545445,8.742408,-4.834364,0,1,4.934541,4.562815,9.157956,-4.864012,-1.308603,0.673890,-0.053208,-0.002336,0.225550,-0.005315,0.180187
17:18:40,7.600,152,4.347899,9.086335,-4.851216,1,0.000000,0.000000,2.695687,-0.014622,0.168611,0.031197,1,5.545445,8.742408,-4.834364,0,1,4.813571,4.498356,9.192043,-4.866580,-1.312438,0.664355,-0.053254,-0.002418,0.225168,-0.005073,0.184520
17:18:40,7.650,153,4.279676,9.117399,-4.853598,1,0.000000,0.000000,2.709682,-0.072946,0.226261,-0.016550,1,5.545445,8.742408,-4.834364,0,1,4.882255,4.433692,9.223823,-4.873025,-1.315988,0.653143,-0.057829,-0.002887,0.225176,-0.005159,0.188215
17:18:40,7.700,154,4.211222,9.147950,-4.855989,1,0.000000,0.000000,2.731118,-0.007472,0.227608,-0.008991,1,5.545445,8.742408,-4.834364,0,1,4.878707,4.367816,9.256104,-4.875932,-1.320310,0.642665,-0.058108,-0.002917,0.225192,-0.005184,0.191355
17:18:40,7.750,155,4.142542,9.177986,-4.858387,1,0.000000,0.000000,2.765544,-0.008911,0.258427,-0.019886,1,5.545445,8.742408,-4.834364,0,1,4.813592,4.301217,9.287310,-4.878884,-1.324653,0.631543,-0.058454,-0.002956,0.225410,-0.005279,0.193778
17:18:40,7.800,156,4.073638,9.207506,-4.860793,1,0.000000,0.000000,2.721220,0.000421,0.222897,0.047771,1,5.545445,8.742408,-4.834364,0,1,4.789192,4.234860,9.318734,-4.854952,-1.329137,0.621278,-0.028106,-0.002934,0.225393,-0.004867,0.195955
17:18:40,7.850,157,4.004514,9.236508,-4.863207,1,0.000000,0.000000,2.765874,-0.022901,0.221331,0.016099,1,5.545445,8.742408,-4.834364,0,1,4.845005,4.168741,9.349235,-4.856314,-1.332764,0.610541,-0.028234,-0.003064,0.225367,-0.004733,0.199312
17:18:40,7.900,158,3.935176,9.264991,-4.865628,1,0.000000,0.000000,2.737824,0.008800,0.202778,0.012744,1,5.545445,8.742408,-4.834364,0,1,4.930437,4.102206,9.380155,-4.857686,-1.336942,0.600640,-0.028369,-0.002987,0.225222,-0.004622,0.203039
17:18:40,7.950,159,3.865625,9.292952,-4.868057,1,0.000000,0.000000,2.755663,0.029017,0.189296,0.005969,1,5.545445,8.742408,-4.834364,0,1,4.873079,4.035341,9.411257,-4.863125,-1.341088,0.591163,-0.033120,-0.002783,0.224992,-0.004565,0.206939
17:18:40,8.000,160,3.795868,9.320391,-4.870493,1,0.000000,0.000000,2.778065,0.001724,0.219419,-0.018568,1,5.545445,8.742408,-4.834364,0,1,4.908240,3.968212,9.440755,-4.864819,-1.344958,0.580751,-0.033424,-0.002754,0.224957,-0.004653,0.210291
17:18:40,8.050,161,3.725906,9.347305,-4.872936,1,0.000000,0.000000,2.757407,0.012887,0.221029,-0.011929,1,5.545445,8.742408,-4.834364,0,1,4.893824,3.900616,9.469938,-4.866515,-1.349255,0.570546,-0.033698,-0.002655,0.224932,-0.004699,0.213550
17:18:40,8.100,162,3.655745,9.373694,-4.875386,1,0.000000,0.000000,2.770951,-0.065467,0.300601,0.012038,1,5.545445,8.742408,-4.834364,0,1,4.843354,3.832797,9.495226,-4.860989,-1.353156,0.557897,-0.025715,-0.003049,0.225407,-0.004577,0.215232
17:18:40,8.150,163,3.585388,9.399555,-4.877843,1,0.000000,0.000000,2.801133,0.016218,0.262148,0.001890,1,5.545445,8.742408,-4.834364,0,1,4.874213,3.763815,9.522456,-4.862265,-1.357598,0.546853,-0.025910,-0.002929,0.225636,-0.004537,0.217217
17:18:40,8.200,164,3.514839,9.424888,-4.880307,1,0.000000,0.000000,2.791610,-0.008933,0.214973,-0.004067,1,5.545445,8.742408,-4.834364,0,1,4.903791,3.696219,9.549643,-4.863565,-1.361081,0.536308,-0.026134,-0.002967,0.225570,-0.004534,0.220778
17:18:40,8.250,165,3.444102,9.449691,-4.882777,1,0.000000,0.000000,2.797864,0.004588,0.198502,-0.041367,1,5.545445,8.742408,-4.834364,0,1,4.979872,3.628515,9.577009,-4.898189,-1.364511,0.526213,-0.064166,-0.002920,0.225403,-0.004840,0.224623
17:18:40,8.300,166,3.373181,9.473962,-4.885254,1,0.000000,0.000000,2.779336,0.027631,0.225503,-0.040282,1,5.545445,8.742408,-4.834364,0,1,4.897384,3.559442,9.603769,-4.901482,-1.368908,0.516033,-0.064592,-0.002733,0.225404,-0.005055,0.227611
17:18:41,8.350,167,3.302080,9.497700,-4.887737,1,0.000000,0.000000,2.814503,-0.035523,0.216281,0.042022,1,5.545445,8.742408,-4.834364,0,1,4.794100,3.491956,9.628746,-4.904601,-1.371693,0.505036,-0.064588,-0.002932,0.225348,-0.004772,0.231323
17:18:41,8.400,168,3.230804,9.520903,-4.890226,1,0.000000,0.000000,2.819976,0.028918,0.156310,-0.064477,1,5.545445,8.742408,-4.834364,0,1,4.785354,3.424152,9.656303,-4.872552,-1.374756,0.495972,-0.025049,-0.002740,0.224931,-0.005042,0.236705
17:18:41,8.450,169,3.159355,9.543572,-4.892721,1,0.000000,0.000000,2.810700,0.001261,0.238224,-0.014988,1,5.545445,8.742408,-4.834364,0,1,4.850700,3.354886,9.680580,-4.873832,-1.378533,0.485104,-0.025352,-0.002716,0.225010,-0.005101,0.239501
17:18:41,8.500,170,3.087739,9.565703,-4.895222,1,0.000000,0.000000,2.837843,-0.040073,0.230963,0.007582,1,5.545445,8.742408,-4.834364,0,1,4.808972,3.286752,9.703447,-4.875076,-1.381163,0.473713,-0.025539,-0.002939,0.225046,-0.005026,0.242870
17:18:41,8.550,171,3.015958,9.587297,-4.897728,1,0.000000,0.000000,2.807217,0.001442,0.249211,-0.018960,1,5.545445,8.742408,-4.834364,0,1,4.889216,3.216851,9.726298,-4.880101,-1.385126,0.462648,-0.030062,-0.002913,0.225190,-0.005117,0.244928
17:18:41,8.600,172,2.944018,9.608351,-4.900240,1,0.000000,0.000000,2.851858,-0.036782,0.188231,-0.012060,1,2.979065,9.843029,-4.946296,1,1,4.886736,3.026710,9.816479,-4.883857,-1.428175,0.474046,-0.032877,-0.002829,0.225210,-0.005122,0.224553
17:18:41,8.650,173,2.871922,9.628864,-4.902758,1,0.000000,0.000000,2.891313,0.012241,0.237852,-0.055769,1,2.979065,9.843029,-4.946296,0,1,4.928692,2.955002,9.839916,-4.885625,-1.431102,0.463059,-0.033397,-0.002740,0.225284,-0.005418,0.227461
17:18:41,8.700,174,2.799674,9.648836,-4.905281,1,0.000000,0.000000,2.848973,-0.024789,0.211369,0.007381,1,2.979065,9.843029,-4.946296,0,1,4.973817,2.883690,9.862747,-4.911665,-1.433847,0.452243,-0.061300,-0.002869,0.225203,-0.005401,0.229907
17:18:41,8.750,175,2.727279,9.668266,-4.907809,1,0.000000,0.000000,2.861370,-0.012272,0.211813,-0.040545,1,2.979065,9.843029,-4.946296,0,1,4.852033,2.812130,9.885140,-4.914809,-1.436606,0.441480,-0.061742,-0.002924,0.225125,-0.005604,0.232988
17:18:41,8.800,176,2.654740,9.687151,-4.910342,1,0.000000,0.000000,2.912287,-0.004464,0.241749,-0.054108,1,2.979065,9.843029,-4.946296,0,1,4.987946,2.740109,9.906752,-4.918016,-1.439126,0.430263,-0.062273,-0.002933,0.225221,-0.005882,0.235735
17:18:41,8.850,177,2.582062,9.705492,-4.912880,1,0.000000,0.000000,2.866393,-0.006098,0.209860,0.056003,1,2.979065,9.843029,-4.946296,0,1,4.882538,2.668255,9.928134,-4.910052,-1.441890,0.419560,-0.049796,-0.002951,0.225133,-0.005504,0.238761
17:18:41,8.900,178,2.509248,9.723286,-4.915423,1,0.000000,0.000000,2.896836,-0.046830,0.171951,0.028202,1,2.979065,9.843029,-4.946296,0,1,4.924180,2.597112,9.949041,-4.912480,-1.443501,0.408974,-0.049907,-0.003202,0.224828,-0.005313,0.242269
17:18:41,8.950,179,2.436303,9.740534,-4.917970,1,0.000000,0.000000,2.922667,0.001326,0.285396,0.014723,1,2.979065,9.843029,-4.946296,0,1,4.934869,2.524230,9.968517,-4.914935,-1.446300,0.397192,-0.050071,-0.003176,0.225173,-0.005200,0.244370
17:18:41,9.000,180,2.363230,9.757234,-4.920522,1,0.000000,0.000000,2.917222,-0.012770,0.193601,-0.001571,1,2.979065,9.843029,-4.946296,0,1,4.880169,2.452300,9.988410,-4.906778,-1.448283,0.386536,-0.038176,-0.003231,0.224994,-0.005155,0.248122
17:18:41,9.050,181,2.290035,9.773385,-4.923078,1,0.000000,0.000000,2.942076,-0.021058,0.222780,0.001743,1,2.979065,9.843029,-4.946296,0,1,4.985827,2.380097,10.007304,-4.908679,-1.450093,0.375373,-0.038401,-0.003331,0.224982,-0.005117,0.251071
17:18:41,9.100,182,2.216720,9.788986,-4.925638,1,0.000000,0.000000,2.930273,-0.034369,0.246407,0.039888,1,2.979065,9.843029,-4.946296,0,1,5.046392,2.307743,10.025161,-4.910503,-1.452019,0.363807,-0.038430,-0.003504,0.225102,-0.004868,0.253561
17:18:41,9.150,183,2.143291,9.804036,-4.928202,1,0.000000,0.000000,2.930273,-0.034369,0.246407,0.039888,1,2.979065,9.843029,-4.946296,0,1,5.046392,2.235305,10.042420,-4.950831,-1.453934,0.352231,-0.082250,-0.003676,0.225220,-0.004708,0.256526
17:18:42,9.200,184,2.069751,9.818535,-4.930770,1,0.000000,0.000000,2.948568,-0.031294,0.206211,0.036844,1,2.979065,9.843029,-4.946296,0,1,4.952756,2.163198,10.059731,-4.954865,-1.455375,0.341207,-0.082290,-0.003829,0.225115,-0.004481,0.259785
17:18:42,9.250,185,1.996104,9.832482,-4.933342,1,0.000000,0.000000,2.951679,0.003416,0.254793,0.021865,1,2.979065,9.843029,-4.946296,0,1,4.931900,2.089918,10.076126,-4.958926,-1.457641,0.329742,-0.082384,-0.003789,0.225278,-0.004337,0.262331
17:18:42,9.300,186,1.922355,9.845876,-4.935918,1,0.000000,0.000000,2.958346,-0.006374,0.248969,-0.082798,1,2.979065,9.843029,-4.946296,0,1,4.984708,2.016747,10.091911,-4.969428,-1.459650,0.318264,-0.090033,-0.003803,0.225408,-0.004776,0.265643
17:18:42,9.350,187,1.848507,9.858716,-4.938496,1,0.000000,0.000000,2.963848,0.046210,0.228621,0.049343,1,2.979065,9.843029,-4.946296,0,1,4.880020,1.942818,10.108108,-4.973829,-1.462224,0.307470,-0.090021,-0.003531,0.225425,-0.004484,0.268960
17:18:42,9.400,188,1.774565,9.871001,-4.941079,1,0.000000,0.000000,2.981253,-0.003385,0.227134,0.035938,1,2.979065,9.843029,-4.946296,0,1,4.945679,1.869641,10.123174,-4.978246,-1.463864,0.296291,-0.090049,-0.003530,0.225434,-0.004268,0.272051
17:18:42,9.450,189,1.700534,9.882731,-4.943664,1,0.000000,0.000000,2.973962,-0.026761,0.228371,-0.046319,1,2.979065,9.843029,-4.946296,0,1,4.848953,1.796798,10.137354,-4.944218,-1.465239,0.284926,-0.046632,-0.003655,0.225450,-0.004408,0.272213
17:18:42,9.500,190,1.626416,9.893905,-4.946252,1,0.000000,0.000000,3.001403,-0.006801,0.211486,-0.052423,1,2.979065,9.843029,-4.946296,0,1,4.953334,1.723748,10.151547,-4.946649,-1.466478,0.273930,-0.047071,-0.003672,0.225376,-0.004662,0.275414
17:18:42,9.550,191,1.552217,9.904523,-4.948843,1,0.000000,0.000000,3.033985,0.019513,0.293440,-0.054718,1,2.979065,9.843029,-4.946296,0,1,4.946250,1.649012,10.163924,-4.949117,-1.468385,0.261820,-0.047544,-0.003549,0.225738,-0.004926,0.276873
17:18:42,9.600,192,1.477940,9.914583,-4.951437,1,0.000000,0.000000,2.995064,-0.027531,0.292853,-0.038223,1,2.979065,9.843029,-4.946296,0,1,4.944374,1.575117,10.175022,-4.949499,-1.469987,0.249386,-0.045598,-0.003676,0.226093,-0.005096,0.277985
17:18:42,9.650,193,1.403590,9.924086,-4.954033,1,0.000000,0.000000,3.041257,0.039455,0.227012,0.034857,1,2.979065,9.843029,-4.946296,0,1,4.915460,1.500665,10.187802,-4.951708,-1.471633,0.238431,-0.045674,-0.003448,0.226098,-0.004888,0.281025
17:18:42,9.700,194,1.329171,9.933031,-4.956632,1,0.000000,0.000000,3.024249,0.005937,0.180306,-0.035569,1,2.979065,9.843029,-4.946296,0,1,4.994371,1.427512,10.200584,-4.954064,-1.472590,0.227995,-0.046063,-0.003399,0.225858,-0.005047,0.285065
17:18:42,9.750,195,1.254687,9.941417,-4.959233,1,0.000000,0.000000,3.008393,-0.022012,0.216337,-0.053081,1,2.979065,9.843029,-4.946296,0,1,4.972119,1.354412,10.211643,-4.961004,-1.473546,0.216794,-0.051668,-0.003496,0.225808,-0.005304,0.288046
17:18:42,9.800,196,1.180142,9.949243,-4.961836,1,0.000000,0.000000,3.033157,-0.019574,0.185003,0.041874,1,2.979065,9.843029,-4.946296,0,1,4.948229,1.281699,10.222911,-4.963505,-1.474021,0.206103,-0.051726,-0.003580,0.225597,-0.005062,0.291909
17:18:42,9.850,197,1.105540,9.956511,-4.964441,1,0.000000,0.000000,3.021938,-0.027002,0.231476,-0.001750,1,2.979065,9.843029,-4.946296,0,1,4.954369,1.208442,10.232434,-4.966090,-1.474843,0.194608,-0.051964,-0.003700,0.225627,-0.005045,0.294491
17:18:42,9.900,198,1.030887,9.963218,-4.967048,1,0.000000,0.000000,3.055022,0.008222,0.213572,-0.012600,1,2.979065,9.843029,-4.946296,0,1,5.033621,1.134574,10.242368,-4.987471,-1.475744,0.183645,-0.073487,-0.003639,0.225565,-0.005122,0.298485
17:18:42,9.950,199,0.956185,9.969364,-4.969657,1,0.000000,0.000000,3.053477,0.070267,0.262448,-0.038798,1,2.979065,9.843029,-4.946296,0,1,5.032890,1.058294,10.251511,-4.991214,-1.478090,0.172322,-0.073890,-0.003262,0.225754,-0.005292,0.300829
17:18:42,10.000,200,0.881439,9.974950,-4.972267,1,0.000000,0.000000,3.043668,0.014234,0.204862,-0.016504,1,2.979065,9.843029,-4.946296,0,1,4.931826,0.984248,10.260678,-4.994939,-1.479175,0.161563,-0.074205,-0.003173,0.225648,-0.005349,0.304507
17:18:42,10.050,201,0.806653,9.979975,-4.974879,1,0.000000,0.000000,3.084196,-0.032269,0.270924,-0.021028,1,2.979065,9.843029,-4.946296,0,1,4.975806,0.910310,10.266774,-4.992078,-1.479497,0.149287,-0.067063,-0.003320,0.225876,-0.005414,0.305441
17:18:43,10.100,202,0.731832,9.984438,-4.977492,1,0.000000,0.000000,3.051809,-0.031804,0.243875,0.027837,1,2.979065,9.843029,-4.946296,0,1,4.963561,0.836798,10.272978,-4.995377,-1.479980,0.137497,-0.067192,-0.003463,0.225967,-0.005248,0.307560
17:18:43,10.150,203,0.656979,9.988340,-4.980106,1,0.000000,0.000000,3.094005,-0.009556,0.257903,-0.053483,1,2.979065,9.843029,-4.946296,0,1,4.995567,0.762415,10.278559,-4.998841,-1.480475,0.125593,-0.067671,-0.003494,0.226127,-0.005487,0.309347
17:18:43,10.200,204,0.582099,9.991679,-4.982720,1,0.000000,0.000000,3.075447,-0.016727,0.226414,-0.021833,1,2.979065,9.843029,-4.946296,0,1,4.942887,0.688758,10.284318,-4.985108,-1.480814,0.114197,-0.048605,-0.003560,0.226128,-0.005533,0.311479
17:18:43,10.250,205,0.507196,9.994457,-4.985336,1,0.000000,0.000000,3.112516,0.020983,0.221999,-0.021216,1,2.979065,9.843029,-4.946296,0,1,4.998485,0.614053,10.290303,-4.987574,-1.481376,0.103146,-0.048948,-0.003438,0.226108,-0.005610,0.314560
17:18:43,10.300,206,0.432275,9.996673,-4.987952,1,0.000000,0.000000,3.105129,0.053321,0.231557,-0.027839,1,2.979065,9.843029,-4.946296,0,1,5.019698,0.538141,10.296032,-4.990073,-1.482686,0.092160,-0.049327,-0.003158,0.226134,-0.005718,0.317534
17:18:43,10.350,207,0.357339,9.998326,-4.990569,1,0.000000,0.000000,3.108964,0.024524,0.248286,0.009568,1,2.979065,9.843029,-4.946296,0,1,4.945866,0.462727,10.300168,-4.979033,-1.483566,0.080652,-0.034290,-0.003022,0.226243,-0.005618,0.319919
17:18:43,10.400,208,0.282393,9.999417,-4.993186,1,0.000000,0.000000,3.115921,-0.008787,0.211044,0.021025,1,2.979065,9.843029,-4.946296,0,1,4.906587,0.389013,10.304299,-4.980707,-1.483488,0.069578,-0.034461,-0.003051,0.226169,-0.005489,0.323229
17:18:43,10.450,209,0.207441,9.999946,-4.995804,1,0.000000,0.000000,3.139504,-0.004301,0.174196,-0.030580,1,0.133269,10.190604,-4.755818,1,1,4.928511,0.182996,10.222616,-4.973656,-1.526742,0.030276,-0.024738,-0.003009,0.226249,-0.005472,0.225101
17:18:43,10.500,210,0.132486,9.999912,-4.998421,1,0.000000,0.000000,3.127103,-0.014143,0.215302,0.072320,1,0.133269,10.190604,-4.755818,0,1,5.042088,0.106823,10.223893,-4.993656,-1.526603,0.019051,-0.046111,-0.003063,0.226196,-0.005135,0.225497
17:18:43,10.550,211,0.057535,9.999315,-5.001039,1,0.000000,0.000000,3.136987,0.026342,0.291080,-0.012411,1,0.133269,10.190604,-4.755818,0,1,4.990015,0.029849,10.224069,-4.995981,-1.527009,0.007098,-0.046398,-0.002921,0.226509,-0.005170,0.226509
17:18:43,10.600,212,-0.017410,9.998156,-5.003656,1,0.000000,0.000000,3.137061,0.027352,0.239667,-0.016556,1,0.133269,10.190604,-4.755818,0,1,4.927315,-0.046892,10.224168,-4.998329,-1.527294,-0.004294,-0.046705,-0.002776,0.226572,-0.005224,0.227989
17:18:43,10.650,213,-0.092345,9.996435,-5.006272,1,0.000000,0.000000,3.162937,0.016342,0.235346,0.054891,1,0.133269,10.190604,-4.755818,0,1,4.920756,-0.123509,10.223681,-4.977926,-1.527158,-0.015666,-0.020968,-0.002685,0.226614,-0.004895,0.231118
17:18:43,10.700,214,-0.167264,9.994151,-5.008889,1,0.000000,0.000000,3.197796,-0.022133,0.200439,-0.009787,1,0.133269,10.190604,-4.755818,0,1,5.001534,-0.199472,10.222807,-4.978989,-1.526089,-0.026717,-0.021232,-0.002777,0.226489,-0.004919,0.232841
17:18:43,10.750,215,-0.242164,9.991305,-5.011504,1,0.000000,0.000000,3.187109,0.010568,0.248664,-0.001021,1,0.133269,10.190604,-4.755818,0,1,5.040155,-0.276052,10.220997,-4.980049,-1.525653,-0.038252,-0.021462,-0.002714,0.226594,-0.004900,0.234299
17:18:43,10.800,216,-0.317041,9.987897,-5.014119,1,0.000000,0.000000,3.209974,0.015041,0.242728,0.004029,1,0.133269,10.190604,-4.755818,0,1,5.034743,-0.352633,10.218703,-4.996418,-1.525000,-0.049693,-0.039096,-0.002631,0.226670,-0.004888,0.234204
17:18:43,10.850,217,-0.391890,9.983928,-5.016733,1,0.000000,0.000000,3.190205,-0.000646,0.213976,-0.003757,1,0.133269,10.190604,-4.755818,0,1,4.991389,-0.428815,10.216116,-4.998377,-1.524309,-0.060846,-0.039336,-0.002621,0.226611,-0.004883,0.235821
17:18:43,10.900,218,-0.466707,9.979397,-5.019346,1,0.000000,0.000000,3.204023,0.017318,0.233135,0.014126,1,0.133269,10.190604,-4.755818,0,1,5.022848,-0.505325,10.212824,-5.000314,-1.523736,-0.072176,-0.039501,-0.002528,0.226641,-0.004795,0.237364
17:18:43,10.950,219,-0.541489,9.974304,-5.021957,1,0.000000,0.000000,3.217512,-0.018622,0.246361,0.029018,1,0.133269,10.190604,-4.755818,0,1,5.018211,-0.581380,10.208549,-5.006810,-1.522599,-0.083755,-0.044810,-0.002603,0.226732,-0.004648,0.238099
17:18:44,11.000,220,-0.616229,9.968650,-5.024567,1,0.000000,0.000000,3.219212,-0.066603,0.223683,-0.040340,1,0.133269,10.190604,-4.755818,0,1,4.998535,-0.656509,10.203717,-5.009116,-1.520765,-0.095172,-0.045182,-0.002899,0.226718,-0.004811,0.238993
17:18:44,11.050,221,-0.690926,9.962436,-5.027175,1,0.000000,0.000000,3.208766,0.033306,0.244218,0.005049,1,0.133269,10.190604,-4.755818,0,1,5.006108,-0.733199,10.198639,-5.011363,-1.520372,-0.106608,-0.045382,-0.002732,0.226799,-0.004766,0.240476
17:18:44,11.100,222,-0.765574,9.955661,-5.029782,1,0.000000,0.000000,3.243108,-0.000827,0.174336,-0.004871,1,0.133269,10.190604,-4.755818,0,1,5.007078,-0.808873,10.193883,-5.011750,-1.518982,-0.117183,-0.043475,-0.002723,0.226559,-0.004763,0.242795
17:18:44,11.150,223,-0.840168,9.948326,-5.032387,1,0.000000,0.000000,3.235061,-0.072097,0.224626,-0.002771,1,0.133269,10.190604,-4.755818,0,1,5.020713,-0.883623,10.187313,-5.013927,-1.516863,-0.128593,-0.043705,-0.003039,0.226550,-0.004754,0.243606
17:18:44,11.200,224,-0.914706,9.940432,-5.034990,1,0.000000,0.000000,3.228763,-0.031498,0.211675,0.015455,1,0.133269,10.190604,-4.755818,0,1,5.048992,-0.958847,10.180667,-5.016080,-1.515307,-0.139733,-0.043861,-0.003168,0.226482,-0.004663,0.244988
17:18:44,11.250,225,-0.989183,9.931979,-5.037591,1,0.000000,0.000000,3.257577,-0.016652,0.239512,0.020058,1,0.133269,10.190604,-4.755818,0,1,5.029832,-1.034423,10.173075,-5.021575,-1.513687,-0.151172,-0.047786,-0.003229,0.226541,-0.004559,0.245827
17:18:44,11.300,226,-1.063594,9.922966,-5.040189,1,0.000000,0.000000,3.253386,-0.027428,0.230235,0.001736,1,0.133269,10.190604,-4.755818,0,1,5.065530,-1.109651,10.165000,-5.023959,-1.511938,-0.162518,-0.047990,-0.003338,0.226558,-0.004531,0.246911
17:18:44,11.350,227,-1.137935,9.913396,-5.042785,1,0.000000,0.000000,3.278849,0.004107,0.172449,0.046041,1,0.133269,10.190604,-4.755818,0,1,5.087505,-1.184969,10.157678,-5.026272,-1.510202,-0.172946,-0.048012,-0.003305,0.226316,-0.004306,0.249316
17:18:44,11.400,228,-1.212203,9.903268,-5.045379,1,0.000000,0.000000,3.293329,-0.012432,0.197770,0.001430,1,0.133269,10.190604,-4.755818,0,1,5.007980,-1.260050,10.149249,-5.022694,-1.508135,-0.183725,-0.041432,-0.003345,0.226189,-0.004270,0.251616
17:18:44,11.450,229,-1.286392,9.892583,-5.047970,1,0.000000,0.000000,3.271754,-0.015734,0.172245,0.042525,1,0.133269,10.190604,-4.755818,0,1,4.997084,-1.334779,10.140789,-5.024695,-1.506205,-0.194176,-0.041469,-0.003400,0.225950,-0.004065,0.253948
17:18:44,11.500,230,-1.360500,9.881342,-5.050557,1,0.000000,0.000000,3.315706,-0.015254,0.235186,0.001707,1,0.133269,10.190604,-4.755818,0,1,5.071017,-1.409855,10.130524,-5.026763,-1.503930,-0.205432,-0.041649,-0.003453,0.225990,-0.004039,0.255135
17:18:44,11.550,231,-1.434521,9.869544,-5.053142,1,0.000000,0.000000,3.288558,0.009093,0.207092,0.016059,1,0.133269,10.190604,-4.755818,0,1,5.087500,-1.485138,10.120473,-5.045765,-1.502247,-0.216283,-0.060973,-0.003398,0.225907,-0.003982,0.256089
17:18:44,11.600,232,-1.508451,9.857192,-5.055724,1,0.000000,0.000000,3.305895,-0.035060,0.237026,-0.040958,1,0.133269,10.190604,-4.755818,0,1,5.103629,-1.559579,10.108900,-5.048878,-1.499789,-0.227628,-0.061310,-0.003536,0.225956,-0.004142,0.256940
17:18:44,11.650,233,-1.582287,9.844285,-5.058302,1,0.000000,0.000000,3.304475,0.023530,0.238853,0.019994,1,0.133269,10.190604,-4.755818,0,1,5.242613,-1.635233,10.097148,-5.051906,-1.498211,-0.238884,-0.061422,-0.003418,0.226012,-0.004038,0.258426
17:18:44,11.700,234,-1.656024,9.830824,-5.060877,1,0.000000,0.000000,3.318127,0.032337,0.220229,-0.012400,1,0.133269,10.190604,-4.755818,0,1,5.150130,-1.710885,10.085331,-5.082488,-1.496583,-0.249821,-0.092778,-0.003263,0.225987,-0.004122,0.261248
17:18:44,11.750,235,-1.729658,9.816811,-5.063449,1,0.000000,0.000000,3.329853,0.018538,0.204104,0.023827,1,0.133269,10.190604,-4.755818,0,1,5.036786,-1.786018,10.073257,-5.087087,-1.494596,-0.260516,-0.092881,-0.003169,0.225892,-0.004003,0.263628
17:18:44,11.800,236,-1.803185,9.802245,-5.066016,1,0.000000,0.000000,3.371622,-0.001520,0.260407,0.003025,1,0.133269,10.190604,-4.755818,0,1,5.081402,-1.860984,10.059114,-5.091724,-1.491957,-0.272002,-0.093054,-0.003162,0.226041,-0.003973,0.264544
17:18:44,11.850,237,-1.876601,9.787128,-5.068580,1,0.000000,0.000000,3.348221,-0.016257,0.230650,0.016283,1,0.133269,10.190604,-4.755818,0,1,5.100401,-1.935222,10.045020,-5.097515,-1.489290,-0.283126,-0.094497,-0.003218,0.226061,-0.003889,0.266050
17:18:45,11.900,238,-1.949901,9.771460,-5.071140,1,0.000000,0.000000,3.339289,-0.000406,0.208316,0.011536,1,0.133269,10.190604,-4.755818,0,1,5.106827,-2.009563,10.031073,-5.102221,-1.486924,-0.293896,-0.094636,-0.003206,0.225985,-0.003823,0.268187
17:18:45,11.950,239,-2.023082,9.755242,-5.073695,1,0.000000,0.000000,3.364261,0.048844,0.228459,-0.025939,1,0.133269,10.190604,-4.755818,0,1,5.015337,-2.085256,10.016444,-5.106996,-1.485095,-0.304829,-0.094912,-0.002985,0.225995,-0.003917,0.270557
17:18:45,12.000,240,-2.096139,9.738476,-5.076247,1,0.000000,0.000000,3.389684,-0.020671,0.172696,-0.004420,1,0.133269,10.190604,-4.755818,0,1,5.094899,-2.158533,10.002254,-5.106879,-1.481806,-0.314931,-0.089601,-0.003060,0.225770,-0.003910,0.272782
17:18:45,12.050,241,-2.169069,9.721162,-5.078793,1,0.000000,0.000000,3.380163,0.008640,0.240292,0.022208,1,0.133269,10.190604,-4.755818,0,1,5.000491,-2.232997,9.985918,-5.111324,-1.479200,-0.326077,-0.089703,-0.003010,0.225831,-0.003801,0.274300
17:18:45,12.100,242,-2.241867,9.703302,-5.081335,1,0.000000,0.000000,3.395479,0.044338,0.231634,0.016259,1,0.133269,10.190604,-4.755818,0,1,5.162532,-2.308293,9.969552,-5.115779,-1.476992,-0.336989,-0.089817,-0.002812,0.225856,-0.003718,0.276565
17:18:45,12.150,243,-2.314528,9.684895,-5.083873,1,0.000000,0.000000,3.416471,-0.023835,0.188379,0.052422,1,0.133269,10.190604,-4.755818,0,1,5.098704,-2.381142,9.953369,-5.113966,-1.473393,-0.347241,-0.082764,-0.002900,0.225699,-0.003475,0.278247
