timestamp,sim_time,iteration,true_pos_x,true_pos_y,true_pos_z,imu_valid,imu_roll,imu_pitch,imu_yaw,imu_acc_x,imu_acc_y,imu_acc_z,usbl_valid,usbl_pos_x,usbl_pos_y,usbl_pos_z,usbl_fix_used,depth_valid,depth_measurement,kf_pos_x,kf_pos_y,kf_pos_z,kf_vel_x,kf_vel_y,kf_vel_z,kf_acc_x,kf_acc_y,kf_acc_z,error_norm
17:16:46,0.000,0,10.168406,0.000000,-4.647959,1,0.000000,0.000000,1.555092,0.044498,0.232628,0.047140,0,0.000000,0.000000,0.000000,0,1,4.630050,10.168116,0.000060,-4.630094,-0.011585,0.002405,0.003243,0.044458,0.232419,0.047098,0.017867
17:16:46,0.050,1,10.168125,0.074999,-4.647969,1,0.000000,0.000000,1.555018,0.026474,0.241991,-0.013218,0,0.000000,0.000000,0.000000,0,1,4.611044,10.167223,0.000196,-4.629986,-0.023662,0.003920,0.002585,0.035470,0.237203,0.016954,0.076940
17:16:46,0.100,2,10.167281,0.149994,-4.647998,1,0.000000,0.000000,1.571777,-0.007807,0.195822,-0.056128,0,0.000000,0.000000,0.000000,0,1,4.535106,10.165896,0.000272,-4.630079,-0.033477,0.003498,-0.000218,0.021049,0.223413,-0.007400,0.150798
17:16:46,0.150,3,10.165876,0.224981,-4.648048,1,0.000000,0.000000,1.575417,0.040828,0.203570,0.003696,0,0.000000,0.000000,0.000000,0,1,4.677020,10.164043,0.000569,-4.672747,-0.043654,0.005481,-0.256084,0.025992,0.218454,-0.004633,0.225774
17:16:47,0.200,4,10.163909,0.299955,-4.648116,1,0.000000,0.000000,1.571008,-0.028193,0.235135,-0.032970,0,0.000000,0.000000,0.000000,0,1,4.688364,10.161480,0.000538,-4.685601,-0.055425,0.004074,-0.257153,0.015157,0.221790,-0.010300,0.301764
17:16:47,0.250,5,10.161380,0.374912,-4.648205,1,0.000000,0.000000,1.600944,-0.017374,0.188443,-0.002860,0,0.000000,0.000000,0.000000,0,1,4.699595,10.158679,0.000507,-4.698451,-0.064864,0.002872,-0.257423,0.009736,0.216233,-0.009060,0.377772
17:16:47,0.300,6,10.158289,0.449848,-4.648312,1,0.000000,0.000000,1.608003,-0.008920,0.284697,-0.009743,0,0.000000,0.000000,0.000000,0,1,4.675488,10.154566,0.000492,-4.682411,-0.079103,0.002004,-0.144718,0.007071,0.226012,-0.009148,0.450664
17:16:47,0.350,7,10.154636,0.524759,-4.648440,1,0.000000,0.000000,1.642720,0.013313,0.229338,-0.008681,0,0.000000,0.000000,0.000000,0,1,4.597500,10.150295,0.000643,-4.689657,-0.090571,0.001854,-0.145163,0.007852,0.226428,-0.009089,0.525752
17:16:47,0.400,8,10.150422,0.599640,-4.648587,1,0.000000,0.000000,1.629609,0.052035,0.216064,0.003771,0,0.000000,0.000000,0.000000,0,1,4.707010,10.145598,0.001226,-4.696889,-0.101420,0.003798,-0.145246,0.012760,0.225276,-0.007661,0.600380
17:16:47,0.450,9,10.145647,0.674488,-4.648754,1,0.000000,0.000000,1.638429,-0.037131,0.233045,-0.049160,0,0.000000,0.000000,0.000000,0,1,4.705119,10.140152,0.000789,-4.704875,-0.113029,0.001171,-0.148466,0.007772,0.226053,-0.011810,0.676055
17:16:47,0.500,10,10.140311,0.749297,-4.648940,1,0.000000,0.000000,1.616390,-0.030979,0.244090,0.001642,0,0.000000,0.000000,0.000000,0,1,4.673572,10.133976,0.000309,-4.712282,-0.125189,-0.000915,-0.148713,0.004249,0.227693,-0.010588,0.751688
17:16:47,0.550,11,10.134415,0.824064,-4.649146,1,0.000000,0.000000,1.634054,0.029544,0.246326,-0.016613,0,0.000000,0.000000,0.000000,0,1,4.683092,10.127148,0.000626,-4.719751,-0.137531,-0.000186,-0.149408,0.006357,0.229245,-0.011090,0.826491
17:16:47,0.600,12,10.127958,0.898785,-4.649372,1,0.000000,0.000000,1.645610,0.014825,0.228166,0.036693,0,0.000000,0.000000,0.000000,0,1,4.512033,10.120000,0.000741,-4.598761,-0.148945,-0.000301,0.137540,0.007008,0.229162,-0.007274,0.899504
17:16:47,0.650,13,10.120941,0.973456,-4.649617,1,0.000000,0.000000,1.644200,0.008319,0.185335,-0.038112,0,0.000000,0.000000,0.000000,0,1,4.681149,10.113033,0.000751,-4.591982,-0.158212,-0.000649,0.136399,0.007102,0.226032,-0.009476,0.974443
17:16:47,0.700,14,10.113365,1.048072,-4.649881,1,0.000000,0.000000,1.715281,-0.026860,0.239980,0.038927,0,0.000000,0.000000,0.000000,0,1,4.597992,10.104593,0.000045,-4.584983,-0.170070,-0.003649,0.137225,0.004838,0.226962,-0.006250,1.050071
17:16:47,0.750,15,10.105230,1.122628,-4.650165,1,0.000000,0.000000,1.670086,0.014488,0.229196,0.003464,0,0.000000,0.000000,0.000000,0,1,4.587867,10.095757,0.000032,-4.583208,-0.181520,-0.004057,0.127719,0.005441,0.227101,-0.005651,1.124631
17:16:47,0.800,16,10.096536,1.197122,-4.650469,1,0.000000,0.000000,1.691918,0.001837,0.249276,0.003495,0,0.000000,0.000000,0.000000,0,1,4.577093,10.085930,-0.000287,-4.576798,-0.193922,-0.005395,0.127665,0.005229,0.228406,-0.005113,1.199721
17:16:47,0.850,17,10.087284,1.271548,-4.650792,1,0.000000,0.000000,1.680360,-0.039574,0.263057,0.027847,0,0.000000,0.000000,0.000000,0,1,4.574484,10.075200,-0.001611,-4.570273,-0.206910,-0.008712,0.128280,0.002740,0.230331,-0.003282,1.275761
17:16:47,0.900,18,10.077474,1.345903,-4.651135,1,0.000000,0.000000,1.723926,-0.006889,0.234598,0.084599,0,0.000000,0.000000,0.000000,0,1,4.742805,10.064476,-0.002319,-4.647262,-0.218497,-0.010826,-0.002946,0.002233,0.230555,0.001151,1.348291
17:16:47,0.950,19,10.067108,1.420182,-4.651497,1,0.000000,0.000000,1.679868,-0.015792,0.227364,0.015752,0,0.000000,0.000000,0.000000,0,1,4.639823,10.053359,-0.003336,-4.647350,-0.229754,-0.012858,-0.002526,0.001332,0.230396,0.001881,1.423591
17:16:47,1.000,20,10.056185,1.494381,-4.651878,1,0.000000,0.000000,1.728759,0.038481,0.225675,-0.004822,0,0.000000,0.000000,0.000000,0,1,4.610619,10.041674,-0.003045,-4.647508,-0.241028,-0.012738,-0.002606,0.003101,0.230171,0.001562,1.497503
17:16:47,1.050,21,10.044706,1.568496,-4.652279,1,0.000000,0.000000,1.728863,-0.014787,0.228942,-0.001940,0,0.000000,0.000000,0.000000,0,1,4.682062,10.029391,-0.004213,-4.662227,-0.252294,-0.015283,-0.023259,0.002288,0.230115,0.001359,1.572815
17:16:47,1.100,22,10.032672,1.642523,-4.652699,1,0.000000,0.000000,1.729991,0.034499,0.197466,-0.001696,0,0.000000,0.000000,0.000000,0,1,4.667796,10.017389,-0.004055,-4.663402,-0.262166,-0.015270,-0.023266,0.003688,0.228696,0.001226,1.646684
17:16:48,1.150,23,10.020083,1.716458,-4.653139,1,0.000000,0.000000,1.704166,0.010865,0.259990,-0.051106,0,0.000000,0.000000,0.000000,0,1,4.672172,10.003051,-0.004680,-4.664856,-0.275109,-0.016370,-0.024548,0.003987,0.230000,-0.000954,1.721262
17:16:48,1.200,24,10.006941,1.790296,-4.653598,1,0.000000,0.000000,1.762204,0.007155,0.170189,0.013143,0,0.000000,0.000000,0.000000,0,1,4.664493,9.990872,-0.005360,-4.665408,-0.283475,-0.017962,-0.023464,0.004114,0.227607,-0.000388,1.795766
17:16:48,1.250,25,9.993246,1.864033,-4.654076,1,0.000000,0.000000,1.760846,-0.023639,0.168287,0.036533,0,0.000000,0.000000,0.000000,0,1,4.693380,9.978386,-0.007108,-4.666395,-0.291621,-0.021037,-0.022586,0.003047,0.225326,0.001031,1.871240
17:16:48,1.300,26,9.978998,1.937665,-4.654573,1,0.000000,0.000000,1.742920,-0.012420,0.176319,-0.033724,0,0.000000,0.000000,0.000000,0,1,4.662878,9.965204,-0.008636,-4.667735,-0.300243,-0.023368,-0.023412,0.002474,0.223511,-0.000255,1.946395
17:16:48,1.350,27,9.964199,2.011189,-4.655090,1,0.000000,0.000000,1.769710,0.021491,0.260882,0.006606,0,0.000000,0.000000,0.000000,0,1,4.642259,9.948576,-0.009267,-4.659226,-0.313167,-0.024683,-0.011531,0.003153,0.224845,0.000033,2.020520
17:16:48,1.400,28,9.948849,2.084599,-4.655626,1,0.000000,0.000000,1.731848,0.019992,0.213751,0.041654,1,10.171423,1.917928,-4.759423,1,1,4.630998,10.169705,1.904054,-4.664130,-0.213381,0.869394,-0.016743,0.003174,0.224842,0.000011,0.285388
17:16:48,1.450,29,9.932949,2.157892,-4.656181,1,0.000000,0.000000,1.789556,-0.039363,0.199210,-0.044235,1,10.171423,1.917928,-4.759423,0,1,4.669418,10.158820,1.947390,-4.665256,-0.223329,0.865744,-0.017864,0.001707,0.223958,-0.001513,0.308887
17:16:48,1.500,30,9.916500,2.231064,-4.656756,1,0.000000,0.000000,1.792487,0.022216,0.276724,-0.007138,1,10.171423,1.917928,-4.759423,0,1,4.578795,10.147182,1.990669,-4.637226,-0.236210,0.863854,0.015789,0.002391,0.225717,-0.001541,0.333743
17:16:48,1.550,31,9.899504,2.304110,-4.657349,1,0.000000,0.000000,1.778352,-0.053197,0.280921,0.046655,1,10.171423,1.917928,-4.759423,0,1,4.589547,10.134841,2.033483,-4.636145,-0.248984,0.859422,0.016873,0.000597,0.227497,0.000012,0.359266
17:16:48,1.600,32,9.881960,2.377026,-4.657962,1,0.000000,0.000000,1.804515,-0.003451,0.222077,0.006971,1,10.171423,1.917928,-4.759423,0,1,4.576697,10.122155,2.076366,-4.635252,-0.259843,0.856697,0.017047,0.000471,0.227328,0.000229,0.385495
17:16:48,1.650,33,9.863870,2.449809,-4.658594,1,0.000000,0.000000,1.827727,0.031495,0.193112,0.046676,1,10.171423,1.917928,-4.759423,0,1,4.617438,10.109143,2.119425,-4.628725,-0.269756,0.855128,0.024302,0.001411,0.226291,0.001668,0.412558
17:16:48,1.700,34,9.845236,2.522454,-4.659245,1,0.000000,0.000000,1.811957,0.060637,0.226250,-0.007724,1,10.171423,1.917928,-4.759423,0,1,4.657500,10.095305,2.162703,-4.627569,-0.281067,0.854665,0.024165,0.003153,0.226290,0.001392,0.439271
17:16:48,1.750,35,9.826057,2.594957,-4.659914,1,0.000000,0.000000,1.821370,-0.002936,0.200885,0.028787,1,10.171423,1.917928,-4.759423,0,1,4.674549,10.081277,2.205338,-4.626153,-0.291095,0.851924,0.024899,0.002979,0.225564,0.002174,0.466990
17:16:48,1.800,36,9.806335,2.667314,-4.660603,1,0.000000,0.000000,1.826932,-0.039007,0.202690,0.003625,1,10.171423,1.917928,-4.759423,0,1,4.700983,10.066817,2.247361,-4.648490,-0.300954,0.847774,-0.001562,0.001813,0.224929,0.002053,0.494326
17:16:48,1.850,37,9.786072,2.739521,-4.661311,1,0.000000,0.000000,1.830671,0.058495,0.234676,0.042090,1,10.171423,1.917928,-4.759423,0,1,4.659466,10.051245,2.290481,-4.648293,-0.312542,0.847046,-0.000548,0.003345,0.225192,0.003133,0.521655
17:16:48,1.900,38,9.765268,2.811575,-4.662037,1,0.000000,0.000000,1.861293,0.011337,0.184743,-0.011855,1,10.171423,1.917928,-4.759423,0,1,4.605111,10.035975,2.332973,-4.648433,-0.321895,0.844528,-0.000743,0.003555,0.224128,0.002740,0.550024
17:16:48,1.950,39,9.743925,2.883469,-4.662782,1,0.000000,0.000000,1.859725,0.001467,0.243748,-0.010320,1,10.171423,1.917928,-4.759423,0,1,4.691649,10.019274,2.375040,-4.661638,-0.333422,0.841303,-0.015562,0.003501,0.224631,0.002311,0.578204
17:16:48,2.000,40,9.722043,2.955202,-4.663547,1,0.000000,0.000000,1.849634,-0.022864,0.226872,-0.021553,1,10.171423,1.917928,-4.759423,0,1,4.727064,10.002360,2.416528,-4.662581,-0.344184,0.837354,-0.015969,0.002842,0.224687,0.001716,0.607247
17:16:48,2.050,41,9.699624,3.026769,-4.664329,1,0.000000,0.000000,1.857291,0.006161,0.289310,-0.055562,1,10.171423,1.917928,-4.759423,0,1,4.620219,9.983559,2.458196,-4.663832,-0.357518,0.834016,-0.017177,0.002923,0.226263,0.000323,0.635526
17:16:49,2.100,42,9.676669,3.098165,-4.665131,1,0.000000,0.000000,1.850326,0.030263,0.222408,0.015173,1,10.171423,1.917928,-4.759423,0,1,4.699687,9.965406,2.500429,-4.675034,-0.368468,0.832123,-0.028552,0.003574,0.226171,0.000596,0.663893
17:16:49,2.150,43,9.653180,3.169387,-4.665951,1,0.000000,0.000000,1.880363,0.016421,0.267127,-0.025461,1,10.171423,1.917928,-4.759423,0,1,4.715193,9.945719,2.542109,-4.676646,-0.380982,0.829063,-0.029068,0.003873,0.227124,-0.000008,0.692222
17:16:49,2.200,44,9.629158,3.240430,-4.666790,1,0.000000,0.000000,1.859518,-0.010550,0.202272,-0.027976,1,10.171423,1.917928,-4.759423,0,1,4.646344,9.927061,2.583224,-4.678323,-0.390845,0.825627,-0.029673,0.003545,0.226559,-0.000641,0.721664
17:16:49,2.250,45,9.604604,3.311292,-4.667648,1,0.000000,0.000000,1.894517,-0.004831,0.196360,-0.037732,1,10.171423,1.917928,-4.759423,0,1,4.676700,9.908066,2.624324,-4.679124,-0.400389,0.822083,-0.029393,0.003359,0.225888,-0.001455,0.751096
17:16:49,2.300,46,9.579519,3.381967,-4.668524,1,0.000000,0.000000,1.906079,0.054115,0.247167,-0.030846,1,10.171423,1.917928,-4.759423,0,1,4.680900,9.886978,2.666636,-4.680805,-0.412335,0.820374,-0.030052,0.004462,0.226350,-0.002091,0.778704
17:16:49,2.350,47,9.553906,3.452452,-4.669418,1,0.000000,0.000000,1.915175,-0.049968,0.192066,0.005264,1,10.171423,1.917928,-4.759423,0,1,4.715834,9.867328,2.706158,-4.682251,-0.421279,0.814866,-0.030005,0.003304,0.225621,-0.001935,0.809539
17:16:49,2.400,48,9.527764,3.522742,-4.670331,1,0.000000,0.000000,1.895219,0.040206,0.242032,-0.007322,1,10.171423,1.917928,-4.759423,0,1,4.728078,9.845321,2.747846,-4.696756,-0.432971,0.812769,-0.044793,0.004073,0.225963,-0.002147,0.837857
17:16:49,2.450,49,9.501097,3.592835,-4.671262,1,0.000000,0.000000,1.928048,0.003385,0.234431,-0.022063,1,10.171423,1.917928,-4.759423,0,1,4.608834,9.823144,2.788325,-4.699138,-0.443961,0.808913,-0.045278,0.004059,0.226136,-0.002551,0.867022
17:16:49,2.500,50,9.473905,3.662725,-4.672212,1,0.000000,0.000000,1.936352,-0.025999,0.257750,-0.007222,1,10.171423,1.917928,-4.759423,0,1,4.594965,9.799807,2.827514,-4.701442,-0.455614,0.803590,-0.045497,0.003458,0.226768,-0.002644,0.897019
17:16:49,2.550,51,9.446190,3.732410,-4.673179,1,0.000000,0.000000,1.973904,-0.000806,0.224956,-0.024531,1,10.171423,1.917928,-4.759423,0,1,4.709719,9.776850,2.867451,-4.705602,-0.466002,0.799145,-0.047979,0.003374,0.226732,-0.003085,0.926575
17:16:49,2.600,52,9.417954,3.801884,-4.674166,1,0.000000,0.000000,1.967315,-0.009834,0.240635,-0.002861,1,10.171423,1.917928,-4.759423,0,1,4.622447,9.752874,2.906749,-4.708003,-0.476970,0.794267,-0.048129,0.003120,0.227000,-0.003080,0.956339
17:16:49,2.650,53,9.389197,3.871145,-4.675170,1,0.000000,0.000000,1.958472,0.021310,0.235600,0.041572,1,10.171423,1.917928,-4.759423,0,1,4.717753,9.728327,2.946974,-4.710070,-0.488048,0.790781,-0.047456,0.003463,0.227162,-0.002242,0.985048
17:16:49,2.700,54,9.359923,3.940188,-4.676192,1,0.000000,0.000000,1.943585,0.033285,0.257830,-0.016184,1,10.171423,1.917928,-4.759423,0,1,4.637366,9.702287,2.987344,-4.690727,-0.500206,0.787738,-0.023140,0.004016,0.227730,-0.002336,1.012588
17:16:49,2.750,55,9.330131,4.009009,-4.677232,1,0.000000,0.000000,1.976044,-0.015423,0.215560,-0.015303,1,10.171423,1.917928,-4.759423,0,1,4.697230,9.677631,3.025942,-4.691974,-0.510073,0.782755,-0.023476,0.003662,0.227509,-0.002571,1.042782
17:16:49,2.800,56,9.299825,4.077605,-4.678291,1,0.000000,0.000000,2.034953,-0.043544,0.314586,0.043760,1,10.171423,1.917928,-4.759423,0,1,4.607884,9.648668,3.062383,-4.692805,-0.523430,0.775071,-0.022793,0.002819,0.229063,-0.001748,1.073581
17:16:49,2.850,57,9.269005,4.145971,-4.679367,1,0.000000,0.000000,1.991711,0.025847,0.204756,0.011972,1,10.171423,1.917928,-4.759423,0,1,4.593475,9.623079,3.102182,-4.664733,-0.533171,0.771698,0.010329,0.003223,0.228637,-0.001298,1.102306
17:16:49,2.900,58,9.237673,4.214104,-4.680461,1,0.000000,0.000000,2.002713,0.050509,0.211891,0.003528,1,10.171423,1.917928,-4.759423,0,1,4.756430,9.596502,3.142840,-4.664187,-0.543403,0.769161,0.010341,0.004039,0.228348,-0.001215,1.129880
17:16:49,2.950,59,9.205832,4.282000,-4.681573,1,0.000000,0.000000,1.993032,0.016946,0.266400,0.028628,1,10.171423,1.917928,-4.759423,0,1,4.688258,9.567258,3.181440,-4.663456,-0.555592,0.764812,0.010775,0.004257,0.228993,-0.000713,1.158529
17:16:50,3.000,60,9.173483,4.349655,-4.682703,1,0.000000,0.000000,2.016466,-0.007413,0.202583,0.050757,1,10.171423,1.917928,-4.759423,0,1,4.755482,9.540536,3.219259,-4.689449,-0.564810,0.759861,-0.018923,0.004063,0.228553,-0.000049,1.188516
17:16:50,3.050,61,9.140628,4.417066,-4.683850,1,0.000000,0.000000,2.023554,0.031068,0.290033,-0.030841,1,10.171423,1.917928,-4.759423,0,1,4.672645,9.508880,3.257842,-4.690588,-0.577989,0.755512,-0.019389,0.004506,0.229561,-0.000550,1.216329
17:16:50,3.100,62,9.107268,4.484228,-4.685015,1,0.000000,0.000000,2.015554,-0.094872,0.231725,0.027691,1,10.171423,1.917928,-4.759423,0,1,4.655796,9.480568,3.290651,-4.691363,-0.587478,0.746657,-0.018975,0.002903,0.229596,-0.000098,1.250607
17:16:50,3.150,63,9.073406,4.551138,-4.686197,1,0.000000,0.000000,2.055313,-0.007458,0.216538,-0.054309,1,10.171423,1.917928,-4.759423,0,1,4.621180,9.451692,3.327467,-4.672001,-0.597053,0.741152,0.003649,0.002738,0.229389,-0.000813,1.280887
17:16:50,3.200,64,9.039043,4.617792,-4.687397,1,0.000000,0.000000,2.035744,0.031020,0.226113,0.011841,1,10.171423,1.917928,-4.759423,0,1,4.693056,9.421456,3.365879,-4.671744,-0.607543,0.737337,0.003789,0.003180,0.229337,-0.000617,1.309110
17:16:50,3.250,65,9.004182,4.684186,-4.688615,1,0.000000,0.000000,2.056367,-0.013455,0.186266,-0.020496,1,10.171423,1.917928,-4.759423,0,1,4.804130,9.393259,3.402207,-4.671687,-0.615789,0.731921,0.003464,0.002924,0.228675,-0.000920,1.339827
17:16:50,3.300,66,8.968824,4.750317,-4.689849,1,0.000000,0.000000,2.082851,-0.058565,0.182529,-0.028606,1,9.124280,4.746952,-4.379867,1,1,4.687889,9.128469,4.723916,-4.667017,-0.745017,1.381744,0.008521,0.002976,0.228673,-0.000891,0.163416
17:16:50,3.350,67,8.932971,4.816180,-4.691101,1,0.000000,0.000000,2.055716,0.047833,0.223681,0.028433,1,9.124280,4.746952,-4.379867,0,1,4.708160,9.090950,4.792952,-4.666426,-0.755404,1.377259,0.008872,0.003656,0.228598,-0.000450,0.161572
17:16:50,3.400,68,8.896626,4.881772,-4.692371,1,0.000000,0.000000,2.057621,-0.044993,0.225604,-0.037261,1,9.124280,4.746952,-4.379867,0,1,4.754378,9.052971,4.861569,-4.666214,-0.765231,1.371332,0.008333,0.002930,0.228553,-0.000995,0.159801
17:16:50,3.450,69,8.859790,4.947090,-4.693657,1,0.000000,0.000000,2.068347,0.011305,0.226705,0.018890,1,9.124280,4.746952,-4.379867,0,1,4.675298,9.014454,4.930032,-4.668391,-0.775370,1.366153,0.005462,0.003053,0.228526,-0.000722,0.157639
17:16:50,3.500,70,8.822466,5.012130,-4.694960,1,0.000000,0.000000,2.049174,0.024396,0.203881,-0.015312,1,9.124280,4.746952,-4.379867,0,1,4.585684,8.975496,4.998331,-4.668199,-0.785325,1.361551,0.005238,0.003362,0.228169,-0.000932,0.155965
17:16:50,3.550,71,8.784655,5.076888,-4.696281,1,0.000000,0.000000,2.075363,-0.046541,0.198477,0.000586,1,9.124280,4.746952,-4.379867,0,1,4.681659,8.936206,5.066092,-4.667929,-0.794535,1.355555,0.005212,0.002650,0.227745,-0.000910,0.154558
17:16:50,3.600,72,8.746359,5.141360,-4.697618,1,0.000000,0.000000,2.101159,-0.015821,0.274293,0.009243,1,9.124280,4.746952,-4.379867,0,1,4.762149,8.896016,5.133529,-4.694588,-0.805089,1.349245,-0.025485,0.002389,0.228400,-0.000931,0.149892
17:16:50,3.650,73,8.707582,5.205543,-4.698972,1,0.000000,0.000000,2.081664,0.033849,0.176767,-0.027543,1,9.124280,4.746952,-4.379867,0,1,4.748798,8.855758,5.201178,-4.696004,-0.814442,1.344715,-0.025858,0.002826,0.227683,-0.001297,0.148270
17:16:50,3.700,74,8.668325,5.269433,-4.700343,1,0.000000,0.000000,2.125284,0.038300,0.259287,0.018819,1,9.124280,4.746952,-4.379867,0,1,4.653597,8.814469,5.268429,-4.697182,-0.825043,1.339227,-0.025666,0.003312,0.228116,-0.001024,0.146182
17:16:50,3.750,75,8.628589,5.333027,-4.701731,1,0.000000,0.000000,2.133307,0.052507,0.232532,0.011257,1,9.124280,4.746952,-4.379867,0,1,4.635770,8.772782,5.335616,-4.680417,-0.835263,1.334147,-0.005058,0.003977,0.228176,-0.000756,0.145783
17:16:50,3.800,76,8.588379,5.396320,-4.703135,1,0.000000,0.000000,2.124771,-0.082182,0.199081,-0.023063,1,9.124280,4.746952,-4.379867,0,1,4.692747,8.731332,5.401532,-4.680784,-0.843804,1.326958,-0.005357,0.002828,0.227788,-0.001051,0.144784
17:16:50,3.850,77,8.547695,5.459311,-4.704556,1,0.000000,0.000000,2.157186,-0.000170,0.198314,-0.023823,1,9.124280,4.746952,-4.379867,0,1,4.722137,8.689194,5.467812,-4.681181,-0.852786,1.320972,-0.005687,0.002789,0.227400,-0.001348,0.143669
17:16:50,3.900,78,8.506540,5.521994,-4.705993,1,0.000000,0.000000,2.150391,0.019735,0.309339,-0.023817,1,9.124280,4.746952,-4.379867,0,1,4.786777,8.645396,5.533530,-4.711899,-0.864099,1.314456,-0.040544,0.003009,0.228464,-0.001802,0.139460
17:16:51,3.950,79,8.464916,5.584366,-4.707446,1,0.000000,0.000000,2.165803,-0.021023,0.205534,0.012150,1,9.124280,4.746952,-4.379867,0,1,4.690199,8.602321,5.598935,-4.713861,-0.872976,1.307920,-0.040479,0.002701,0.228170,-0.001625,0.138324
17:16:51,4.000,80,8.422826,5.646425,-4.708916,1,0.000000,0.000000,2.179508,-0.034103,0.270998,0.032202,1,9.124280,4.746952,-4.379867,0,1,4.724390,8.558111,5.663511,-4.715705,-0.882913,1.300377,-0.040166,0.002235,0.228712,-0.001201,0.136528
17:16:51,4.050,81,8.380272,5.708166,-4.710402,1,0.000000,0.000000,2.177343,-0.019185,0.253381,-0.006280,1,9.124280,4.746952,-4.379867,0,1,4.736355,8.513530,5.727959,-4.723117,-0.892659,1.293284,-0.046398,0.001967,0.229021,-0.001292,0.135319
17:16:51,4.100,82,8.337256,5.769585,-4.711904,1,0.000000,0.000000,2.160713,0.016688,0.239993,0.010893,1,9.124280,4.746952,-4.379867,0,1,4.729001,8.468421,5.792602,-4.725382,-0.902597,1.287186,-0.046332,0.002149,0.229156,-0.001144,0.133849
17:16:51,4.150,83,8.293782,5.830680,-4.713422,1,0.000000,0.000000,2.209016,-0.011041,0.211565,0.060328,1,9.124280,4.746952,-4.379867,0,1,4.736247,8.423398,5.856713,-4.727384,-0.911369,1.280353,-0.045705,0.001988,0.228942,-0.000402,0.132940
17:16:51,4.200,84,8.249850,5.891448,-4.714957,1,0.000000,0.000000,2.184669,0.032861,0.291575,-0.026126,1,9.124280,4.746952,-4.379867,0,1,4.791535,8.376422,5.920618,-4.747655,-0.922404,1.273834,-0.066284,0.002360,0.229696,-0.000798,0.133942
17:16:51,4.250,85,8.205465,5.951883,-4.716507,1,0.000000,0.000000,2.196614,-0.005475,0.185080,0.000683,1,9.124280,4.746952,-4.379867,0,1,4.703648,8.330848,5.984339,-4.750964,-0.930761,1.267509,-0.066308,0.002267,0.229165,-0.000780,0.134021
17:16:51,4.300,86,8.160627,6.011984,-4.718072,1,0.000000,0.000000,2.200544,0.035342,0.175476,0.041114,1,9.124280,4.746952,-4.379867,0,1,4.736291,8.284741,6.048524,-4.754073,-0.939305,1.262134,-0.065899,0.002656,0.228533,-0.000293,0.134296
17:16:51,4.350,87,8.115341,6.071747,-4.719654,1,0.000000,0.000000,2.191298,-0.019112,0.202710,0.028241,1,9.124280,4.746952,-4.379867,0,1,4.620748,8.238181,6.111287,-4.717745,-0.947885,1.255415,-0.020824,0.002403,0.228233,0.000225,0.129061
17:16:51,4.400,88,8.069607,6.131169,-4.721251,1,0.000000,0.000000,2.223815,-0.012549,0.226918,-0.031328,1,9.124280,4.746952,-4.379867,0,1,4.730268,8.190712,6.173616,-4.718922,-0.956826,1.248267,-0.021123,0.002231,0.228218,-0.000134,0.128349
17:16:51,4.450,89,8.023430,6.190245,-4.722863,1,0.000000,0.000000,2.248367,-0.014438,0.246092,-0.018963,1,9.124280,4.746952,-4.379867,0,1,4.654253,8.142445,6.235363,-4.720067,-0.965986,1.240632,-0.021323,0.002042,0.228421,-0.000345,0.127311
17:16:51,4.500,90,7.976811,6.248973,-4.724491,1,0.000000,0.000000,2.225765,0.001694,0.179353,0.012073,1,9.124280,4.746952,-4.379867,0,1,4.743086,8.094930,6.297683,-4.727438,-0.974019,1.234320,-0.028426,0.002038,0.227870,-0.000237,0.127802
17:16:51,4.550,91,7.929753,6.307350,-4.726135,1,0.000000,0.000000,2.262613,0.003038,0.242658,0.001820,1,9.124280,4.746952,-4.379867,0,1,4.683297,8.045681,6.359093,-4.728851,-0.983199,1.226977,-0.028418,0.002049,0.228034,-0.000214,0.126980
17:16:51,4.600,92,7.882259,6.365372,-4.727793,1,0.000000,0.000000,2.236402,0.013250,0.221331,-0.068387,1,9.124280,4.746952,-4.379867,0,1,4.726473,7.996327,6.420588,-4.730583,-0.992215,1.220349,-0.029104,0.002172,0.227961,-0.000955,0.126760
17:16:51,4.650,93,7.834332,6.423036,-4.729467,1,0.000000,0.000000,2.262990,0.023843,0.183293,-0.009956,1,9.124280,4.746952,-4.379867,0,1,4.800179,7.947293,6.482418,-4.751782,-1.000316,1.214198,-0.051560,0.002407,0.227475,-0.001139,0.129555
17:16:51,4.700,94,7.785973,6.480338,-4.731156,1,0.000000,0.000000,2.298696,0.051351,0.257660,0.011800,1,9.124280,4.746952,-4.379867,0,1,4.733819,7.895775,6.543772,-4.754310,-1.010189,1.207457,-0.051499,0.002934,0.227800,-0.001001,0.128904
17:16:51,4.750,95,7.737187,6.537276,-4.732859,1,0.000000,0.000000,2.252829,-0.018576,0.257514,0.026000,1,9.124280,4.746952,-4.379867,0,1,4.659862,7.844559,6.603076,-4.756768,-1.019531,1.199519,-0.051291,0.002705,0.228116,-0.000717,0.128179
17:16:51,4.800,96,7.687975,6.593847,-4.734578,1,0.000000,0.000000,2.269356,-0.012880,0.221924,-0.004517,1,9.124280,4.746952,-4.379867,0,1,4.658433,7.793716,6.662546,-4.730162,-1.028007,1.192007,-0.018307,0.002541,0.228050,-0.000632,0.126176
17:16:52,4.850,97,7.638340,6.650046,-4.736311,1,0.000000,0.000000,2.324334,0.017176,0.274333,-0.017900,1,9.124280,4.746952,-4.379867,0,1,4.757793,7.740679,6.721742,-4.731144,-1.037678,1.184029,-0.018491,0.002693,0.228533,-0.000810,0.125061
17:16:52,4.900,98,7.588286,6.705872,-4.738059,1,0.000000,0.000000,2.278121,-0.006282,0.217378,0.011152,1,9.124280,4.746952,-4.379867,0,1,4.797489,7.689006,6.780664,-4.732019,-1.046070,1.176645,-0.018421,0.002601,0.228418,-0.000688,0.125598
17:16:52,4.950,99,7.537815,6.761320,-4.739821,1,0.000000,0.000000,2.303322,0.004933,0.270872,-0.001137,1,9.124280,4.746952,-4.379867,0,1,4.758455,7.635246,6.838776,-4.740321,-1.055679,1.168583,-0.026814,0.002624,0.228851,-0.000723,0.124469
17:16:52,5.000,100,7.486929,6.816388,-4.741598,1,0.000000,0.000000,2.321482,-0.022914,0.186415,-0.035473,1,9.124280,4.746952,-4.379867,0,1,4.762245,7.583870,6.896883,-4.741791,-1.062779,1.160854,-0.027147,0.002367,0.228422,-0.001070,0.126004
17:16:52,5.050,101,7.435632,6.871072,-4.743390,1,0.000000,0.000000,2.311890,0.059422,0.196398,0.006323,1,9.124280,4.746952,-4.379867,0,1,4.740465,7.530622,6.956946,-4.743120,-1.071320,1.155036,-0.027134,0.002937,0.228102,-0.000997,0.128053
17:16:52,5.100,102,7.383927,6.925370,-4.745195,1,0.000000,0.000000,2.311864,-0.026705,0.225195,0.034087,1,7.736149,6.879834,-4.780549,1,1,4.698401,7.692225,6.902646,-4.732691,-1.003454,1.107791,-0.013838,0.002880,0.228061,-0.000949,0.309388
17:16:52,5.150,103,7.331816,6.979278,-4.747015,1,0.000000,0.000000,2.330182,0.000429,0.248618,-0.025968,1,7.736149,6.879834,-4.780549,0,1,4.745025,7.641727,6.957763,-4.733472,-1.012109,1.099804,-0.014092,0.002856,0.228264,-0.001194,0.310953
17:16:52,5.200,104,7.279302,7.032794,-4.748849,1,0.000000,0.000000,2.335151,0.003019,0.168932,-0.012739,1,7.736149,6.879834,-4.780549,0,1,4.823147,7.591312,7.012774,-4.734223,-1.019539,1.092612,-0.014252,0.002858,0.227683,-0.001306,0.312993
17:16:52,5.250,105,7.226389,7.085914,-4.750697,1,0.000000,0.000000,2.378222,-0.013428,0.218580,-0.035207,1,7.736149,6.879834,-4.780549,0,1,4.714647,7.540269,7.067117,-4.729302,-1.027203,1.084328,-0.008049,0.002700,0.227595,-0.001608,0.315170
17:16:52,5.300,106,7.173079,7.138636,-4.752558,1,0.000000,0.000000,2.356416,-0.019036,0.238177,-0.010172,1,7.736149,6.879834,-4.780549,0,1,4.780831,7.488719,7.120910,-4.729736,-1.035278,1.075921,-0.008198,0.002491,0.227697,-0.001690,0.316960
17:16:52,5.350,107,7.119376,7.190956,-4.754434,1,0.000000,0.000000,2.356416,-0.019036,0.238177,-0.010172,1,7.736149,6.879834,-4.780549,0,1,4.780831,7.436768,7.174264,-4.730181,-1.043348,1.067501,-0.008355,0.002286,0.227796,-0.001769,0.318755
17:16:52,5.400,108,7.065282,7.242872,-4.756323,1,0.000000,0.000000,2.356416,-0.019036,0.238177,-0.010172,1,7.736149,6.879834,-4.780549,0,1,4.780831,7.384417,7.227178,-4.744943,-1.051411,1.059069,-0.024816,0.002085,0.227894,-0.001902,0.319724
17:16:52,5.450,109,7.010800,7.294380,-4.758225,1,0.000000,0.000000,2.372986,0.031059,0.214337,0.041108,1,7.736149,6.879834,-4.780549,0,1,4.794111,7.331610,7.280308,-4.746041,-1.059515,1.051574,-0.024572,0.002356,0.227768,-0.001505,0.321350
17:16:53,5.500,110,6.955934,7.345478,-4.760141,1,0.000000,0.000000,2.396122,-0.035405,0.301974,-0.008259,1,7.736149,6.879834,-4.780549,0,1,4.733418,7.277873,7.331777,-4.747296,-1.068107,1.041809,-0.024703,0.002006,0.228454,-0.001567,0.322486
17:16:53,5.550,111,6.900686,7.396163,-4.762070,1,0.000000,0.000000,2.418794,0.015664,0.226515,-0.015307,1,7.736149,6.879834,-4.780549,0,1,4.719395,7.224202,7.383828,-4.740223,-1.075867,1.033558,-0.015370,0.002132,0.228436,-0.001661,0.324488
17:16:53,5.600,112,6.845060,7.446431,-4.764013,1,0.000000,0.000000,2.418083,-0.008156,0.204832,-0.003526,1,7.736149,6.879834,-4.780549,0,1,4.847535,7.170589,7.435346,-4.741000,-1.082991,1.025180,-0.015467,0.002038,0.228222,-0.001677,0.326530
17:16:53,5.650,113,6.789058,7.496281,-4.765969,1,0.000000,0.000000,2.431763,-0.006512,0.256741,-0.029039,1,7.736149,6.879834,-4.780549,0,1,4.754477,7.115947,7.486045,-4.741875,-1.090880,1.016098,-0.015771,0.001961,0.228479,-0.001921,0.327935
17:16:53,5.700,114,6.732685,7.545709,-4.767937,1,0.000000,0.000000,2.432778,-0.046958,0.221839,0.030526,1,7.736149,6.879834,-4.780549,0,1,4.794592,7.061733,7.536014,-4.757511,-1.097667,1.006741,-0.032633,0.001525,0.228419,-0.001688,0.329356
17:16:53,5.750,115,6.675943,7.594713,-4.769919,1,0.000000,0.000000,2.409109,-0.075326,0.252140,0.047383,1,7.736149,6.879834,-4.780549,0,1,4.729507,7.007023,7.584799,-4.758988,-1.104791,0.996682,-0.032351,0.000845,0.228629,-0.001260,0.331409
17:16:53,5.800,116,6.618835,7.643289,-4.771913,1,0.000000,0.000000,2.441953,-0.047954,0.203761,-0.004530,1,7.736149,6.879834,-4.780549,0,1,4.828896,6.952458,7.633911,-4.760618,-1.111124,0.987442,-0.032439,0.000418,0.228411,-0.001288,0.333946
17:16:53,5.850,117,6.561364,7.691436,-4.773920,1,0.000000,0.000000,2.456515,-0.012272,0.191863,0.022867,1,7.736149,6.879834,-4.780549,0,1,4.758044,6.897440,7.683238,-4.760964,-1.117564,0.978871,-0.030961,0.000307,0.228094,-0.001077,0.336425
17:16:53,5.900,118,6.503535,7.739150,-4.775939,1,0.000000,0.000000,2.429250,0.034244,0.234974,0.016018,1,7.736149,6.879834,-4.780549,0,1,4.821413,6.840888,7.732461,-4.762460,-1.125604,0.970753,-0.030890,0.000600,0.228153,-0.000931,0.337688
17:16:53,5.950,119,6.445349,7.786428,-4.777971,1,0.000000,0.000000,2.433876,0.052113,0.216515,-0.065665,1,7.736149,6.879834,-4.780549,0,1,4.688402,6.784032,7.781819,-4.764230,-1.133537,0.963172,-0.031432,0.001040,0.228054,-0.001477,0.338993
17:16:53,6.000,120,6.386810,7.833269,-4.780015,1,0.000000,0.000000,2.472232,0.008641,0.304478,-0.038275,1,7.736149,6.879834,-4.780549,0,1,4.712817,6.725690,7.828968,-4.750602,-1.142116,0.953342,-0.014389,0.001104,0.228701,-0.001733,0.340181
17:16:53,6.050,121,6.327923,7.879669,-4.782072,1,0.000000,0.000000,2.456925,0.064662,0.212466,0.039529,1,7.736149,6.879834,-4.780549,0,1,4.729263,6.667903,7.877827,-4.751198,-1.149990,0.945883,-0.014183,0.001638,0.228564,-0.001391,0.341385
17:16:53,6.100,122,6.268689,7.925626,-4.784140,1,0.000000,0.000000,2.504535,0.011266,0.179881,-0.037356,1,7.736149,6.879834,-4.780549,0,1,4.790162,6.611064,7.925730,-4.752031,-1.156115,0.937611,-0.014520,0.001718,0.228159,-0.001687,0.343878
17:16:53,6.150,123,6.209112,7.971137,-4.786221,1,0.000000,0.000000,2.490267,0.038361,0.240874,0.042528,1,7.736149,6.879834,-4.780549,0,1,4.696085,6.552314,7.972958,-4.736263,-1.163858,0.929070,0.004255,0.002020,0.228264,-0.001272,0.346824
17:16:53,6.200,124,6.149195,8.016199,-4.788313,1,0.000000,0.000000,2.506974,0.021002,0.184682,0.026683,1,7.736149,6.879834,-4.780549,0,1,4.839264,6.494598,8.020218,-4.735969,-1.170192,0.920922,0.004385,0.002176,0.227907,-0.001046,0.349370
17:16:53,6.250,125,6.088943,8.060811,-4.790417,1,0.000000,0.000000,2.483542,-0.001021,0.229947,-0.043848,1,7.736149,6.879834,-4.780549,0,1,4.848681,6.435916,8.065939,-4.735892,-1.177237,0.911884,0.004021,0.002150,0.227924,-0.001389,0.351268
17:16:54,6.300,126,6.028358,8.104969,-4.792533,1,0.000000,0.000000,2.479789,-0.006050,0.176012,-0.022812,1,7.736149,6.879834,-4.780549,0,1,4.721991,6.378182,8.111942,-4.731787,-1.183248,0.903590,0.008302,0.002084,0.227505,-0.001547,0.355128
17:16:54,6.350,127,5.967444,8.148672,-4.794660,1,0.000000,0.000000,2.525621,0.004045,0.194614,0.027240,1,7.736149,6.879834,-4.780549,0,1,4.760905,6.319591,8.157475,-4.731291,-1.189327,0.894903,0.008419,0.002099,0.227242,-0.001320,0.357912
17:16:54,6.400,128,5.906204,8.191916,-4.796799,1,0.000000,0.000000,2.524061,0.034076,0.252657,-0.012593,1,7.736149,6.879834,-4.780549,0,1,4.793782,6.258801,8.202330,-4.730908,-1.196957,0.885901,0.008273,0.002353,0.227444,-0.001408,0.358852
17:16:54,6.450,129,5.844641,8.234699,-4.798948,1,0.000000,0.000000,2.540993,0.044700,0.233197,-0.013487,1,7.736149,6.879834,-4.780549,0,1,4.862304,6.197899,8.247344,-4.768633,-1.204251,0.877284,-0.035024,0.002686,0.227489,-0.001622,0.354782
17:16:54,6.500,130,5.782760,8.277019,-4.801109,1,0.000000,0.000000,2.526399,0.001390,0.228117,0.002092,1,7.736149,6.879834,-4.780549,0,1,4.862304,6.137527,8.290933,-4.770375,-1.210917,0.868038,-0.035080,0.002676,0.227494,-0.001593,0.356368
17:16:54,6.550,131,5.720563,8.318873,-4.803281,1,0.000000,0.000000,2.526769,-0.011728,0.233580,-0.000787,1,7.736149,6.879834,-4.780549,0,1,4.697943,6.076927,8.333610,-4.772129,-1.217470,0.858455,-0.035154,0.002565,0.227541,-0.001587,0.358027
17:16:54,6.600,132,5.658054,8.360260,-4.805464,1,0.000000,0.000000,2.550559,0.024630,0.177894,-0.016921,1,5.644658,8.572083,-5.047826,1,1,4.818309,5.751856,8.515548,-4.794856,-1.313600,0.896328,-0.058971,0.002711,0.227614,-0.001652,0.181730
17:16:54,6.650,133,5.595236,8.401176,-4.807658,1,0.000000,0.000000,2.535564,-0.030708,0.219434,0.005542,1,5.644658,8.572083,-5.047826,0,1,4.846582,5.686289,8.559901,-4.797787,-1.319697,0.886729,-0.059007,0.002455,0.227551,-0.001597,0.183253
17:16:54,6.700,134,5.532114,8.441620,-4.809862,1,0.000000,0.000000,2.575143,0.042749,0.181389,-0.014863,1,5.644658,8.572083,-5.047826,0,1,4.828701,5.620291,8.604676,-4.800780,-1.325808,0.878260,-0.059177,0.002761,0.227199,-0.001697,0.185593
17:16:54,6.750,135,5.468690,8.481588,-4.812077,1,0.000000,0.000000,2.553463,0.064147,0.206914,-0.006104,1,5.644658,8.572083,-5.047826,0,1,4.855294,5.553583,8.649091,-4.818331,-1.332720,0.869917,-0.075866,0.003225,0.227046,-0.001775,0.187891
17:16:54,6.800,136,5.404969,8.521080,-4.814302,1,0.000000,0.000000,2.559407,-0.020027,0.223940,-0.002384,1,5.644658,8.572083,-5.047826,0,1,4.733687,5.487003,8.692141,-4.822128,-1.338766,0.860263,-0.075958,0.003051,0.227023,-0.001779,0.189875
17:16:54,6.850,137,5.340953,8.560093,-4.816538,1,0.000000,0.000000,2.585650,-0.002107,0.172813,-0.006849,1,5.644658,8.572083,-5.047826,0,1,4.865983,5.420535,8.735319,-4.825943,-1.344118,0.851324,-0.076081,0.003013,0.226619,-0.001817,0.192681
17:16:54,6.900,138,5.276647,8.598624,-4.818783,1,0.000000,0.000000,2.595310,0.000840,0.199787,0.006953,1,5.644658,8.572083,-5.047826,0,1,4.851682,5.353501,8.777864,-4.835978,-1.349754,0.842040,-0.083237,0.002996,0.226421,-0.001771,0.195779
17:16:54,6.950,139,5.212054,8.636671,-4.821039,1,0.000000,0.000000,2.602934,-0.026532,0.213664,0.021649,1,5.644658,8.572083,-5.047826,0,1,4.850495,5.286301,8.819498,-4.840080,-1.355134,0.832178,-0.083180,0.002780,0.226327,-0.001601,0.198245
17:16:54,7.000,140,5.147177,8.674232,-4.823304,1,0.000000,0.000000,2.596643,-0.018273,0.153814,-0.014328,1,5.644658,8.572083,-5.047826,0,1,4.758389,5.219510,8.861347,-4.844279,-1.359877,0.823264,-0.083343,0.002627,0.225799,-0.001693,0.201703
17:16:54,7.050,141,5.082021,8.711306,-4.825580,1,0.000000,0.000000,2.606665,0.032235,0.293588,0.041606,1,5.644658,8.572083,-5.047826,0,1,4.892090,5.150168,8.901920,-4.860852,-1.367052,0.813092,-0.097415,0.002841,0.226289,-0.001420,0.205480
17:16:54,7.100,142,5.016588,8.747889,-4.827865,1,0.000000,0.000000,2.603669,0.013865,0.268864,-0.030571,1,5.644658,8.572083,-5.047826,0,1,4.801441,5.080964,8.941996,-4.865801,-1.373694,0.803008,-0.097663,0.002920,0.226595,-0.001627,0.207993
17:16:54,7.150,143,4.950883,8.783981,-4.830159,1,0.000000,0.000000,2.646091,0.011340,0.245440,0.030264,1,5.644658,8.572083,-5.047826,0,1,4.956400,5.011774,8.981791,-4.870594,-1.379582,0.792960,-0.097541,0.002980,0.226729,-0.001402,0.210883
17:16:55,7.200,144,4.884910,8.819578,-4.832463,1,0.000000,0.000000,2.650421,0.002802,0.232547,-0.005163,1,5.644658,8.572083,-5.047826,0,1,4.835860,4.942575,9.021115,-4.864088,-1.385137,0.782949,-0.084674,0.002978,0.226770,-0.001396,0.211996
17:16:55,7.250,145,4.818672,8.854679,-4.834776,1,0.000000,0.000000,2.631256,0.040112,0.190353,-0.021605,1,5.644658,8.572083,-5.047826,0,1,4.827520,4.873239,9.061068,-4.868375,-1.390844,0.774160,-0.084865,0.003239,0.226514,-0.001536,0.216108
17:16:55,7.300,146,4.752172,8.889282,-4.837098,1,0.000000,0.000000,2.678920,0.027432,0.188286,-0.017625,1,5.644658,8.572083,-5.047826,0,1,4.887293,4.803837,9.100440,-4.872666,-1.395875,0.764989,-0.085042,0.003408,0.226248,-0.001647,0.220277
17:16:55,7.350,147,4.685415,8.923386,-4.839429,1,0.000000,0.000000,2.699652,0.052588,0.190956,0.004023,1,5.644658,8.572083,-5.047826,0,1,4.812981,4.733782,9.139757,-4.858473,-1.401112,0.756037,-0.064155,0.003749,0.226003,-0.001557,0.222528
17:16:55,7.400,148,4.618404,8.956987,-4.841770,1,0.000000,0.000000,2.668397,-0.038165,0.191652,-0.046950,1,5.644658,8.572083,-5.047826,0,1,4.878604,4.664815,9.177120,-4.861797,-1.405323,0.746002,-0.064497,0.003461,0.225767,-0.001866,0.225862
17:16:55,7.450,149,4.551143,8.990084,-4.844118,1,0.000000,0.000000,2.696301,0.005094,0.242770,-0.000151,1,5.644658,8.572083,-5.047826,0,1,4.818412,4.594098,9.213926,-4.865019,-1.410602,0.735653,-0.064580,0.003472,0.225883,-0.001854,0.228882
17:16:55,7.500,150,4.483636,9.022676,-4.846476,1,0.000000,0.000000,2.712159,-0.015092,0.309583,0.020637,1,5.644658,8.572083,-5.047826,0,1,4.818412,4.522234,9.248735,-4.853812,-1.416340,0.723903,-0.048227,0.003346,0.226451,-0.001664,0.229448
17:16:55,7.550,151,4.415887,9.054760,-4.848842,1,0.000000,0.000000,2.672660,-0.058106,0.227035,-0.003504,1,5.644658,8.572083,-5.047826,0,1,4.832542,4.452330,9.283519,-4.856230,-1.420652,0.713010,-0.048321,0.002931,0.226455,-0.001676,0.231761
17:16:55,7.600,152,4.347899,9.086335,-4.851216,1,0.000000,0.000000,2.680195,-0.042220,0.198972,0.003969,1,5.644658,8.572083,-5.047826,0,1,4.826765,4.382504,9.318536,-4.858633,-1.424722,0.702738,-0.048370,0.002629,0.226271,-0.001639,0.234883
17:16:55,7.650,153,4.279676,9.117399,-4.853598,1,0.000000,0.000000,2.684819,0.003449,0.169423,-0.006612,1,5.644658,8.572083,-5.047826,0,1,4.927029,4.312255,9.354490,-4.880126,-1.429042,0.693567,-0.070083,0.002634,0.225893,-0.001722,0.240785
17:16:55,7.700,154,4.211222,9.147950,-4.855989,1,0.000000,0.000000,2.710243,0.038351,0.268042,-0.008984,1,5.644658,8.572083,-5.047826,0,1,4.934478,4.239134,9.388834,-4.883650,-1.435060,0.683182,-0.070210,0.002870,0.226171,-0.001770,0.244069
17:16:55,7.750,155,4.142542,9.177986,-4.858387,1,0.000000,0.000000,2.720737,0.002238,0.306446,-0.047659,1,5.644658,8.572083,-5.047826,0,1,4.853691,4.165588,9.421126,-4.887285,-1.440939,0.671590,-0.070569,0.002866,0.226698,-0.002068,0.245934
17:16:55,7.800,156,4.073638,9.207506,-4.860793,1,0.000000,0.000000,2.682854,-0.018642,0.148169,-0.051559,1,5.644658,8.572083,-5.047826,0,1,4.826960,4.095550,9.455606,-4.872465,-1.444612,0.662490,-0.050028,0.002726,0.226186,-0.002338,0.249339
17:16:55,7.850,157,4.004514,9.236508,-4.863207,1,0.000000,0.000000,2.731959,-0.002649,0.229086,0.051078,1,5.644658,8.572083,-5.047826,0,1,4.939318,4.023254,9.488292,-4.874844,-1.449192,0.652045,-0.049851,0.002691,0.226205,-0.001996,0.252748
17:16:55,7.900,158,3.935176,9.264991,-4.865628,1,0.000000,0.000000,2.710554,-0.019492,0.193602,0.015575,1,5.644658,8.572083,-5.047826,0,1,4.854162,3.951902,9.520851,-4.877292,-1.453196,0.642063,-0.049849,0.002548,0.225995,-0.001884,0.256672
17:16:55,7.950,159,3.865625,9.292952,-4.868057,1,0.000000,0.000000,2.743361,-0.021982,0.245062,-0.024080,1,5.644658,8.572083,-5.047826,0,1,4.883169,3.879243,9.551691,-4.880811,-1.457547,0.631017,-0.051164,0.002391,0.226117,-0.002027,0.259411
17:16:55,8.000,160,3.795868,9.320391,-4.870493,1,0.000000,0.000000,2.762536,0.041885,0.227113,0.034756,1,5.644658,8.572083,-5.047826,0,1,4.873464,3.805309,9.583899,-4.883286,-1.462542,0.621108,-0.051067,0.002642,0.226123,-0.001796,0.263988
17:16:55,8.050,161,3.725906,9.347305,-4.872936,1,0.000000,0.000000,2.776113,-0.025989,0.212785,-0.009543,1,5.644658,8.572083,-5.047826,0,1,4.840365,3.733095,9.614315,-4.885862,-1.466012,0.610418,-0.051200,0.002462,0.226039,-0.001844,0.267419
17:16:56,8.100,162,3.655745,9.373694,-4.875386,1,0.000000,0.000000,2.766907,-0.025332,0.224804,0.026019,1,5.644658,8.572083,-5.047826,0,1,4.832898,3.660410,9.643910,-4.872319,-1.469752,0.599567,-0.032988,0.002287,0.226031,-0.001631,0.270274
17:16:56,8.150,163,3.585388,9.399555,-4.877843,1,0.000000,0.000000,2.810858,0.010408,0.230248,-0.032457,1,5.644658,8.572083,-5.047826,0,1,4.787783,3.586513,9.673722,-4.874040,-1.473736,0.588956,-0.033233,0.002338,0.226058,-0.001821,0.274195
17:16:56,8.200,164,3.514839,9.424888,-4.880307,1,0.000000,0.000000,2.804748,0.000094,0.220682,0.001798,1,5.644658,8.572083,-5.047826,0,1,4.835529,3.512929,9.702987,-4.875695,-1.477464,0.578392,-0.033304,0.002324,0.226024,-0.001799,0.278144
17:16:56,8.250,165,3.444102,9.449691,-4.882777,1,0.000000,0.000000,2.762097,0.024521,0.245075,0.026848,1,5.644658,8.572083,-5.047826,0,1,4.821776,3.437839,9.731721,-4.861240,-1.482440,0.567911,-0.015071,0.002461,0.226142,-0.001585,0.282921
17:16:56,8.300,166,3.373181,9.473962,-4.885254,1,0.000000,0.000000,2.792907,0.074625,0.216490,0.009697,1,5.644658,8.572083,-5.047826,0,1,4.813392,3.361871,9.762086,-4.861970,-1.487611,0.558549,-0.015092,0.002903,0.226083,-0.001517,0.289285
17:16:56,8.350,167,3.302080,9.497700,-4.887737,1,0.000000,0.000000,2.810784,0.010009,0.269460,0.021803,1,5.644658,8.572083,-5.047826,0,1,4.916731,3.285987,9.788704,-4.862669,-1.492181,0.547200,-0.015040,0.002946,0.226347,-0.001377,0.292525
17:16:56,8.400,168,3.230804,9.520903,-4.890226,1,0.000000,0.000000,2.799655,-0.011205,0.222369,0.018281,1,3.480565,9.251941,-4.725111,1,1,4.862386,3.405501,9.409118,-4.858829,-1.431284,0.401126,-0.009911,0.002678,0.226447,-0.001365,0.209763
17:16:56,8.450,169,3.159355,9.543572,-4.892721,1,0.000000,0.000000,2.819018,0.026894,0.208330,0.026377,1,3.480565,9.251941,-4.725111,0,1,4.946770,3.333781,9.429267,-4.859267,-1.435150,0.390837,-0.009838,0.002824,0.226337,-0.001200,0.211209
17:16:56,8.500,170,3.087739,9.565703,-4.895222,1,0.000000,0.000000,2.829080,-0.043537,0.217708,-0.001469,1,3.480565,9.251941,-4.725111,0,1,4.894745,3.262440,9.448221,-4.859761,-1.438129,0.379854,-0.009900,0.002546,0.226286,-0.001201,0.213495
17:16:56,8.550,171,3.015958,9.587297,-4.897728,1,0.000000,0.000000,2.884747,0.006024,0.225223,-0.020108,1,3.480565,9.251941,-4.725111,0,1,4.905382,3.190434,9.466983,-4.873051,-1.441161,0.368983,-0.024553,0.002567,0.226279,-0.001344,0.213369
17:16:56,8.600,172,2.944018,9.608351,-4.900240,1,0.000000,0.000000,2.851680,-0.059254,0.244976,0.020415,1,3.480565,9.251941,-4.725111,0,1,4.854135,3.118765,9.484391,-4.874234,-1.443883,0.357453,-0.024511,0.002201,0.226390,-0.001216,0.215821
17:16:56,8.650,173,2.871922,9.628864,-4.902758,1,0.000000,0.000000,2.844270,0.025054,0.224059,0.070680,1,3.480565,9.251941,-4.725111,0,1,4.905100,3.046255,9.502240,-4.875291,-1.447580,0.346874,-0.024193,0.002335,0.226376,-0.000797,0.217210
17:16:56,8.700,174,2.799674,9.648836,-4.905281,1,0.000000,0.000000,2.859545,0.017715,0.258109,-0.016070,1,3.480565,9.251941,-4.725111,0,1,4.901275,2.973299,9.519098,-4.883588,-1.451297,0.335742,-0.032340,0.002425,0.226562,-0.000902,0.217826
17:16:56,8.750,175,2.727279,9.668266,-4.907809,1,0.000000,0.000000,2.883918,-0.045924,0.274504,-0.020668,1,3.480565,9.251941,-4.725111,0,1,4.940833,2.900754,9.534527,-4.885248,-1.454042,0.323795,-0.032483,0.002144,0.226841,-0.001016,0.220201
17:16:56,8.800,176,2.654740,9.687151,-4.910342,1,0.000000,0.000000,2.883224,0.014639,0.232304,-0.019872,1,3.480565,9.251941,-4.725111,0,1,4.854386,2.827759,9.550507,-4.886917,-1.457256,0.312883,-0.032632,0.002216,0.226873,-0.001124,0.221711
17:16:56,8.850,177,2.582062,9.705492,-4.912880,1,0.000000,0.000000,2.889472,-0.031302,0.228610,0.032384,1,3.480565,9.251941,-4.725111,0,1,4.943370,2.755253,9.565485,-4.904193,-1.459748,0.301632,-0.050411,0.002023,0.226883,-0.000970,0.222873
17:16:56,8.900,178,2.509248,9.723286,-4.915423,1,0.000000,0.000000,2.896177,0.006272,0.256815,-0.024789,1,3.480565,9.251941,-4.725111,0,1,4.830015,2.681795,9.579921,-4.906764,-1.462904,0.290271,-0.050576,0.002047,0.227054,-0.001105,0.224502
17:16:56,8.950,179,2.436303,9.740534,-4.917970,1,0.000000,0.000000,2.922402,-0.036954,0.219627,-0.027035,1,3.480565,9.251941,-4.725111,0,1,4.980800,2.609243,9.593811,-4.909354,-1.464863,0.279001,-0.050764,0.001826,0.227012,-0.001251,0.226959
17:16:57,9.000,180,2.363230,9.757234,-4.920522,1,0.000000,0.000000,2.938710,0.020180,0.239413,-0.045936,1,3.480565,9.251941,-4.725111,0,1,4.973136,2.535511,9.607515,-4.929587,-1.467602,0.267873,-0.071056,0.001929,0.227082,-0.001541,0.228426
17:16:57,9.050,181,2.290035,9.773385,-4.923078,1,0.000000,0.000000,2.909939,-0.013339,0.220583,0.001001,1,3.480565,9.251941,-4.725111,0,1,4.883121,2.462386,9.620547,-4.933137,-1.470029,0.256815,-0.071121,0.001844,0.227045,-0.001527,0.230577
17:16:57,9.100,182,2.216720,9.788986,-4.925638,1,0.000000,0.000000,2.947020,-0.018113,0.236063,-0.016947,1,3.480565,9.251941,-4.725111,0,1,4.890113,2.389043,9.632707,-4.936730,-1.472095,0.245400,-0.071275,0.001732,0.227096,-0.001612,0.232897
17:16:57,9.150,183,2.143291,9.804036,-4.928202,1,0.000000,0.000000,2.936578,0.057419,0.251155,0.012775,1,3.480565,9.251941,-4.725111,0,1,4.944415,2.314109,9.645013,-4.941457,-1.475515,0.234397,-0.072640,0.002042,0.227229,-0.001536,0.233758
17:16:57,9.200,184,2.069751,9.818535,-4.930770,1,0.000000,0.000000,2.945184,-0.004558,0.225049,-0.033503,1,3.480565,9.251941,-4.725111,0,1,4.951391,2.240422,9.656405,-4.945156,-1.477715,0.223252,-0.072868,0.002005,0.227217,-0.001711,0.235843
17:16:57,9.250,185,1.996104,9.832482,-4.933342,1,0.000000,0.000000,2.919996,-0.005386,0.250344,-0.013844,1,3.480565,9.251941,-4.725111,0,1,4.916319,2.166291,9.666762,-4.948828,-1.480386,0.211779,-0.073013,0.001965,0.227345,-0.001777,0.238047
17:16:57,9.300,186,1.922355,9.845876,-4.935918,1,0.000000,0.000000,2.953725,-0.000444,0.245047,-0.017218,1,3.480565,9.251941,-4.725111,0,1,5.042053,2.092014,9.676700,-4.978366,-1.482713,0.200337,-0.102500,0.001951,0.227441,-0.001917,0.243324
17:16:57,9.350,187,1.848507,9.858716,-4.938496,1,0.000000,0.000000,2.992193,-0.046075,0.202291,0.015967,1,3.480565,9.251941,-4.725111,0,1,4.974577,2.019146,9.686244,-4.983458,-1.483547,0.189106,-0.102513,0.001690,0.227305,-0.001821,0.246750
17:16:57,9.400,188,1.774565,9.871001,-4.941079,1,0.000000,0.000000,2.995570,0.023040,0.168068,-0.048958,1,3.480565,9.251941,-4.725111,0,1,4.885746,1.945359,9.696946,-4.988690,-1.485138,0.178984,-0.102834,0.001806,0.226984,-0.002073,0.248460
17:16:57,9.450,189,1.700534,9.882731,-4.943664,1,0.000000,0.000000,2.987685,0.007449,0.235804,-0.033641,1,3.480565,9.251941,-4.725111,0,1,4.972211,1.870804,9.705514,-4.987642,-1.487129,0.167688,-0.095994,0.001836,0.227032,-0.002228,0.249664
17:16:57,9.500,190,1.626416,9.893905,-4.946252,1,0.000000,0.000000,3.002668,-0.066391,0.168129,-0.027038,1,3.480565,9.251941,-4.725111,0,1,4.974180,1.798802,9.713857,-4.992493,-1.487209,0.156853,-0.096219,0.001471,0.226716,-0.002359,0.253520
17:16:57,9.550,191,1.552217,9.904523,-4.948843,1,0.000000,0.000000,2.985185,-0.056709,0.259664,-0.051909,1,3.480565,9.251941,-4.725111,0,1,4.957712,1.725191,9.719765,-4.997415,-1.488366,0.144654,-0.096574,0.001161,0.226892,-0.002620,0.257710
17:16:57,9.600,192,1.477940,9.914583,-4.951437,1,0.000000,0.000000,3.007008,0.020094,0.202900,-0.012381,1,3.480565,9.251941,-4.725111,0,1,5.001729,1.650677,9.727578,-5.002114,-1.490063,0.133970,-0.096577,0.001261,0.226765,-0.002671,0.259571
17:16:57,9.650,193,1.403590,9.924086,-4.954033,1,0.000000,0.000000,3.016164,0.053578,0.290883,-0.029250,1,3.480565,9.251941,-4.725111,0,1,4.970590,1.573836,9.733313,-5.006997,-1.492939,0.122085,-0.096829,0.001537,0.227102,-0.002810,0.261119
17:16:57,9.700,194,1.329171,9.933031,-4.956632,1,0.000000,0.000000,3.005482,0.008830,0.254831,0.034765,1,3.480565,9.251941,-4.725111,0,1,4.923026,1.498508,9.738574,-5.011762,-1.494904,0.110438,-0.096793,0.001575,0.227248,-0.002615,0.263681
17:16:57,9.750,195,1.254687,9.941417,-4.959233,1,0.000000,0.000000,3.016338,0.037446,0.210333,-0.007321,1,3.480565,9.251941,-4.725111,0,1,4.924255,1.423102,9.744852,-4.989923,-1.496875,0.099754,-0.066733,0.001762,0.227160,-0.002583,0.260659
17:16:57,9.800,196,1.180142,9.949243,-4.961836,1,0.000000,0.000000,3.028954,0.034386,0.199636,-0.023768,1,3.480565,9.251941,-4.725111,0,1,5.008140,1.347848,9.750840,-4.993303,-1.498576,0.089216,-0.066955,0.001931,0.227017,-0.002692,0.261686
17:16:57,9.850,197,1.105540,9.956511,-4.964441,1,0.000000,0.000000,3.076711,0.036057,0.196794,0.000018,1,3.480565,9.251941,-4.725111,0,1,4.968912,1.272514,9.756429,-4.996648,-1.499757,0.078695,-0.067078,0.002107,0.226861,-0.002678,0.262584
17:16:58,9.900,198,1.030887,9.963218,-4.967048,1,0.000000,0.000000,3.012626,0.018443,0.267808,-0.024031,1,3.480565,9.251941,-4.725111,0,1,4.978276,1.196304,9.759247,-4.993761,-1.501937,0.066875,-0.060193,0.002191,0.227071,-0.002774,0.263971
17:16:58,9.950,199,0.956185,9.969364,-4.969657,1,0.000000,0.000000,3.052208,0.009263,0.243391,0.025848,1,3.480565,9.251941,-4.725111,0,1,5.012429,1.120681,9.761975,-4.996721,-1.503316,0.055344,-0.060207,0.002227,0.227154,-0.002629,0.266086
17:16:58,10.000,200,0.881439,9.974950,-4.972267,1,0.000000,0.000000,3.078100,-0.069845,0.193457,-0.053489,1,3.480565,9.251941,-4.725111,0,1,4.932149,1.048212,9.764103,-4.999840,-1.502591,0.044039,-0.060571,0.001861,0.226983,-0.002885,0.270241
17:16:58,10.050,201,0.806653,9.979975,-4.974879,1,0.000000,0.000000,3.043665,-0.005594,0.203464,-0.033351,1,3.480565,9.251941,-4.725111,0,1,5.020707,0.973718,9.766583,-5.008076,-1.503470,0.033117,-0.066670,0.001823,0.226864,-0.003047,0.273036
17:16:58,10.100,202,0.731832,9.984438,-4.977492,1,0.000000,0.000000,3.073591,-0.016469,0.218016,0.003849,1,3.480565,9.251941,-4.725111,0,1,5.008167,0.899251,9.767876,-5.011401,-1.503928,0.021821,-0.066793,0.001731,0.226820,-0.003013,0.275823
17:16:58,10.150,203,0.656979,9.988340,-4.980106,1,0.000000,0.000000,3.070883,0.032418,0.218550,-0.060837,1,3.480565,9.251941,-4.725111,0,1,5.021657,0.823232,9.769540,-5.014862,-1.505313,0.010911,-0.067204,0.001885,0.226778,-0.003299,0.276987
17:16:58,10.200,204,0.582099,9.991679,-4.982720,1,0.000000,0.000000,3.086056,0.011094,0.282772,0.005744,1,0.754497,10.044795,-5.032812,1,1,5.006292,0.752666,9.967915,-5.015339,-1.504545,0.065085,-0.064101,0.001944,0.226678,-0.003293,0.175277
17:16:58,10.250,205,0.507196,9.994457,-4.985336,1,0.000000,0.000000,3.100993,-0.034027,0.193801,-0.046799,1,0.754497,10.044795,-5.032812,0,1,5.034895,0.677954,9.970994,-5.018625,-1.504596,0.054012,-0.064448,0.001765,0.226515,-0.003508,0.175547
17:16:58,10.300,206,0.432275,9.996673,-4.987952,1,0.000000,0.000000,3.115605,0.000015,0.244190,0.002635,1,0.754497,10.044795,-5.032812,0,1,4.967000,0.602630,9.973225,-5.021839,-1.505016,0.042487,-0.064596,0.001757,0.226602,-0.003478,0.175268
17:16:58,10.350,207,0.357339,9.998326,-4.990569,1,0.000000,0.000000,3.131052,0.005827,0.199257,0.000885,1,0.754497,10.044795,-5.032812,0,1,5.092059,0.527493,9.975378,-5.044002,-1.505181,0.031486,-0.086276,0.001777,0.226468,-0.003494,0.179817
17:16:58,10.400,208,0.282393,9.999417,-4.993186,1,0.000000,0.000000,3.136430,-0.006528,0.192322,0.009748,1,0.754497,10.044795,-5.032812,0,1,5.055527,0.452530,9.976997,-5.048297,-1.505121,0.020535,-0.086396,0.001736,0.226301,-0.003430,0.180241
17:16:58,10.450,209,0.207441,9.999946,-4.995804,1,0.000000,0.000000,3.150502,0.023512,0.232179,-0.024917,1,0.754497,10.044795,-5.032812,0,1,4.944846,0.376985,9.977808,-5.052664,-1.505384,0.009219,-0.086661,0.001842,0.226329,-0.003533,0.180190
17:16:58,10.500,210,0.132486,9.999912,-4.998421,1,0.000000,0.000000,3.156385,-0.002855,0.217267,0.012670,1,0.754497,10.044795,-5.032812,0,1,4.939668,0.301833,9.978066,-5.023554,-1.505224,-0.002003,-0.048727,0.001819,0.226285,-0.003390,0.172589
17:16:58,10.550,211,0.057535,9.999315,-5.001039,1,0.000000,0.000000,3.130779,0.029566,0.244020,0.004188,1,0.754497,10.044795,-5.032812,0,1,5.006650,0.226099,9.977638,-5.025981,-1.505832,-0.013444,-0.048865,0.001953,0.226371,-0.003354,0.171773
17:16:58,10.600,212,-0.017410,9.998156,-5.003656,1,0.000000,0.000000,3.154431,-0.027966,0.266642,0.004992,1,0.754497,10.044795,-5.032812,0,1,4.984254,0.150939,9.975952,-5.028412,-1.505541,-0.025357,-0.048997,0.001809,0.226564,-0.003314,0.171603
17:16:58,10.650,213,-0.092345,9.996435,-5.006272,1,0.000000,0.000000,3.128069,-0.052118,0.251856,-0.000597,1,0.754497,10.044795,-5.032812,0,1,4.979429,0.076230,9.973689,-5.016129,-1.505186,-0.037171,-0.032382,0.001552,0.226685,-0.003273,0.170388
17:16:58,10.700,214,-0.167264,9.994151,-5.008889,1,0.000000,0.000000,3.180414,-0.023897,0.234354,0.030557,1,0.754497,10.044795,-5.032812,0,1,5.046821,0.001293,9.971263,-5.017693,-1.504522,-0.048677,-0.032409,0.001431,0.226721,-0.003113,0.170332
17:16:59,10.750,215,-0.242164,9.991305,-5.011504,1,0.000000,0.000000,3.153067,0.017627,0.209505,0.014110,1,0.754497,10.044795,-5.032812,0,1,5.046821,-0.074053,9.968916,-5.019284,-1.504620,-0.059740,-0.032491,0.001508,0.226640,-0.003032,0.169774
17:16:59,10.800,216,-0.317041,9.987897,-5.014119,1,0.000000,0.000000,3.173731,0.027071,0.155073,-0.008387,1,0.754497,10.044795,-5.032812,0,1,4.912656,-0.149166,9.966938,-4.989793,-1.504446,-0.070052,0.002730,0.001628,0.226303,-0.002998,0.170918
17:16:59,10.850,217,-0.391890,9.983928,-5.016733,1,0.000000,0.000000,3.161597,0.019434,0.266605,-0.034076,1,0.754497,10.044795,-5.032812,0,1,5.002861,-0.224962,9.962632,-4.989714,-1.504661,-0.081847,0.002457,0.001711,0.226492,-0.003142,0.170436
17:16:59,10.900,218,-0.466707,9.979397,-5.019346,1,0.000000,0.000000,3.177396,0.007003,0.213195,0.079703,1,0.754497,10.044795,-5.032812,0,1,4.926703,-0.300178,9.958517,-4.989437,-1.504372,-0.092972,0.002648,0.001736,0.226430,-0.002759,0.170477
17:16:59,10.950,219,-0.541489,9.974304,-5.021957,1,0.000000,0.000000,3.199303,-0.007704,0.238008,0.006476,1,0.754497,10.044795,-5.032812,0,1,5.040994,-0.375306,9.953315,-5.004192,-1.503711,-0.104466,-0.014373,0.001692,0.226483,-0.002745,0.168443
17:16:59,11.000,220,-0.616229,9.968650,-5.024567,1,0.000000,0.000000,3.222360,0.016166,0.259869,0.048286,1,0.754497,10.044795,-5.032812,0,1,5.022275,-0.450982,9.947321,-5.004827,-1.503181,-0.116178,-0.014310,0.001759,0.226638,-0.002511,0.167783
17:16:59,11.050,221,-0.690926,9.962436,-5.027175,1,0.000000,0.000000,3.211837,0.052712,0.264385,-0.017901,1,0.754497,10.044795,-5.032812,0,1,5.104714,-0.527356,9.940922,-5.005575,-1.503296,-0.127864,-0.014499,0.001993,0.226811,-0.002581,0.166386
17:16:59,11.100,222,-0.765574,9.955661,-5.029782,1,0.000000,0.000000,3.266310,-0.021177,0.205092,0.014093,1,0.754497,10.044795,-5.032812,0,1,5.082904,-0.601876,9.934482,-5.028389,-1.501594,-0.138890,-0.039643,0.001887,0.226712,-0.002547,0.165068
17:16:59,11.150,223,-0.840168,9.948326,-5.032387,1,0.000000,0.000000,3.251786,0.043560,0.237549,0.025914,1,0.754497,10.044795,-5.032812,0,1,4.932841,-0.677835,9.927371,-5.030327,-1.501068,-0.150202,-0.039660,0.002077,0.226761,-0.002418,0.163693
17:16:59,11.200,224,-0.914706,9.940432,-5.034990,1,0.000000,0.000000,3.228575,0.005828,0.258716,0.014948,1,0.754497,10.044795,-5.032812,0,1,5.047049,-0.753199,9.918957,-5.032280,-1.500331,-0.161957,-0.039710,0.002094,0.226906,-0.002340,0.162951
17:16:59,11.250,225,-0.989183,9.931979,-5.037591,1,0.000000,0.000000,3.270503,0.028826,0.216493,0.016057,1,0.754497,10.044795,-5.032812,0,1,4.992408,-0.828659,9.911013,-5.022150,-1.499338,-0.172995,-0.026060,0.002215,0.226859,-0.002236,0.162622
17:16:59,11.300,226,-1.063594,9.922966,-5.040189,1,0.000000,0.000000,3.274298,-0.024465,0.250557,0.031308,1,0.754497,10.044795,-5.032812,0,1,5.136648,-0.903208,9.901350,-5.023401,-1.497618,-0.184676,-0.026044,0.002095,0.226966,-0.002086,0.162704
17:16:59,11.350,227,-1.137935,9.913396,-5.042785,1,0.000000,0.000000,3.257069,-0.036931,0.148840,0.026035,1,0.754497,10.044795,-5.032812,0,1,5.061542,-0.976540,9.893251,-5.024654,-1.495620,-0.194902,-0.026035,0.001920,0.226616,-0.001962,0.163655
17:16:59,11.400,228,-1.212203,9.903268,-5.045379,1,0.000000,0.000000,3.249943,0.003322,0.204263,-0.006033,1,0.754497,10.044795,-5.032812,0,1,4.976236,-1.051137,9.883749,-5.011597,-1.494452,-0.205836,-0.009880,0.001927,0.226516,-0.001954,0.165724
17:16:59,11.450,229,-1.286392,9.892583,-5.047970,1,0.000000,0.000000,3.239695,0.018340,0.263462,0.002226,1,0.754497,10.044795,-5.032812,0,1,5.121613,-1.126535,9.872443,-5.012087,-1.493786,-0.217636,-0.009962,0.001999,0.226680,-0.001935,0.165068
17:16:59,11.500,230,-1.360500,9.881342,-5.050557,1,0.000000,0.000000,3.296358,0.046135,0.201987,0.003773,1,0.754497,10.044795,-5.032812,0,1,5.038009,-1.202041,9.862259,-5.012577,-1.492752,-0.228355,-0.010036,0.002194,0.226571,-0.001910,0.164060
17:16:59,11.550,231,-1.434521,9.869544,-5.053142,1,0.000000,0.000000,3.318382,0.003267,0.235266,-0.025130,1,0.754497,10.044795,-5.032812,0,1,5.057123,-1.276734,9.850355,-5.025841,-1.490906,-0.239659,-0.024617,0.002199,0.226610,-0.002034,0.161277
17:16:59,11.600,232,-1.508451,9.857192,-5.055724,1,0.000000,0.000000,3.308231,-0.009443,0.187455,-0.003723,1,0.754497,10.044795,-5.032812,0,1,5.014102,-1.350594,9.838991,-5.027077,-1.488855,-0.250266,-0.024725,0.002148,0.226438,-0.002041,0.161465
17:16:59,11.650,233,-1.582287,9.844285,-5.058302,1,0.000000,0.000000,3.327376,-0.019275,0.211773,0.087205,1,0.754497,10.044795,-5.032812,0,1,5.030880,-1.424294,9.826395,-5.028157,-1.486494,-0.261233,-0.024477,0.002055,0.226374,-0.001656,0.161835
17:17:00,11.700,234,-1.656024,9.830824,-5.060877,1,0.000000,0.000000,3.304973,0.056681,0.233568,-0.026529,1,0.754497,10.044795,-5.032812,0,1,5.044353,-1.500111,9.813348,-5.033744,-1.485644,-0.272401,-0.029541,0.002292,0.226405,-0.001770,0.159218
17:17:00,11.750,235,-1.729658,9.816811,-5.063449,1,0.000000,0.000000,3.308120,0.006597,0.186211,-0.007862,1,0.754497,10.044795,-5.032812,0,1,5.009639,-1.574106,9.800598,-5.035233,-1.483855,-0.282926,-0.029652,0.002310,0.226232,-0.001797,0.158920
17:17:00,11.800,236,-1.803185,9.802245,-5.066016,1,0.000000,0.000000,3.319886,0.000258,0.208498,0.009994,1,0.754497,10.044795,-5.032812,0,1,5.043186,-1.648032,9.786656,-5.036697,-1.481888,-0.293796,-0.029696,0.002301,0.226155,-0.001746,0.158667
17:17:00,11.850,237,-1.876601,9.787128,-5.068580,1,0.000000,0.000000,3.329253,-0.000406,0.212726,0.034811,1,0.754497,10.044795,-5.032812,0,1,5.038069,-1.721874,9.772052,-5.038100,-1.479817,-0.304712,-0.029621,0.002290,0.226098,-0.001591,0.158419
17:17:00,11.900,238,-1.949901,9.771460,-5.071140,1,0.000000,0.000000,3.334929,-0.010228,0.222173,-0.002246,1,0.754497,10.044795,-5.032812,0,1,5.130341,-1.795406,9.756540,-5.039584,-1.477542,-0.315792,-0.029702,0.002236,0.226081,-0.001594,0.158390
17:17:00,11.950,239,-2.023082,9.755242,-5.073695,1,0.000000,0.000000,3.369731,-0.044660,0.227680,0.017601,1,0.754497,10.044795,-5.032812,0,1,5.053275,-1.867811,9.739988,-5.041038,-1.474316,-0.326956,-0.029709,0.002037,0.226088,-0.001513,0.159400
17:17:00,12.000,240,-2.096139,9.738476,-5.076247,1,0.000000,0.000000,3.373990,0.014413,0.234948,-0.020006,1,-2.087167,9.622279,-5.068344,1,1,5.069150,-2.046298,9.650633,-5.050782,-1.506432,-0.362052,-0.039126,0.002078,0.226139,-0.001527,0.104158
17:17:00,12.050,241,-2.169069,9.721162,-5.078793,1,0.000000,0.000000,3.369930,-0.004165,0.233393,-0.037879,1,-2.087167,9.622279,-5.068344,0,1,5.053189,-2.121520,9.632172,-5.052795,-1.503913,-0.373157,-0.039331,0.002051,0.226169,-0.001679,0.104193
17:17:00,12.100,242,-2.241867,9.703302,-5.081335,1,0.000000,0.000000,3.370485,0.006024,0.239747,-0.010541,1,-2.087167,9.622279,-5.068344,0,1,5.118564,-2.196728,9.613117,-5.054778,-1.501482,-0.384328,-0.039448,0.002068,0.226226,-0.001716,0.104288
17:17:00,12.150,243,-2.314528,9.684895,-5.083873,1,0.000000,0.000000,3.371800,0.003955,0.291184,-0.052273,1,-2.087167,9.622279,-5.068344,0,1,5.080394,-2.271926,9.592974,-5.063503,-1.499003,-0.396010,-0.047297,0.002076,0.226498,-0.001938,0.103341
17:17:00,12.200,244,-2.387050,9.665944,-5.086405,1,0.000000,0.000000,3.391246,-0.009671,0.238570,0.016964,1,-2.087167,9.622279,-5.068344,0,1,5.063396,-2.346716,9.572741,-5.065842,-1.496183,-0.407128,-0.047328,0.002027,0.226548,-0.001860,0.103617
17:17:00,12.250,245,-2.459428,9.646449,-5.088933,1,0.000000,0.000000,3.398352,-0.062615,0.191388,-0.014922,1,-2.087167,9.622279,-5.068344,0,1,5.075035,-2.420655,9.552334,-5.068232,-1.492755,-0.417725,-0.047469,0.001759,0.226403,-0.001913,0.103872
