timestamp,sim_time,iteration,true_pos_x,true_pos_y,true_pos_z,imu_valid,imu_roll,imu_pitch,imu_yaw,imu_acc_x,imu_acc_y,imu_acc_z,usbl_valid,usbl_pos_x,usbl_pos_y,usbl_pos_z,usbl_fix_used,depth_valid,depth_measurement,kf_pos_x,kf_pos_y,kf_pos_z,kf_vel_x,kf_vel_y,kf_vel_z,kf_acc_x,kf_acc_y,kf_acc_z,error_norm
16:52:07.080,0.000,0,10.168406,0.000000,-4.647959,0,0.000000,0.000000,0.000000,0.000000,0.000000,0.000000,0,0.000000,0.000000,0.000000,0,0,0.000000,10.168406,0.000000,-4.647959,0.000000,0.000000,0.000000,0.000000,0.000000,0.000000,0.000000
16:52:07.629,0.050,1,10.168125,0.074999,-4.647969,0,0.000000,0.000000,0.000000,0.000000,0.000000,0.000000,0,0.000000,0.000000,0.000000,0,0,0.000000,10.168406,0.000000,-4.647959,0.000000,0.000000,0.000000,0.000000,0.000000,0.000000,0.075000
16:52:08.159,0.100,2,10.167281,0.149994,-4.647998,0,0.000000,0.000000,0.000000,0.000000,0.000000,0.000000,0,0.000000,0.000000,0.000000,0,0,0.000000,10.168406,0.000000,-4.647959,0.000000,0.000000,0.000000,0.000000,0.000000,0.000000,0.149999
16:52:08.417,0.150,3,10.165876,0.224981,-4.648048,0,0.000000,0.000000,0.000000,0.000000,0.000000,0.000000,0,0.000000,0.000000,0.000000,0,0,0.000000,10.168406,0.000000,-4.647959,0.000000,0.000000,0.000000,0.000000,0.000000,0.000000,0.224995
16:52:08.933,0.200,4,10.163909,0.299955,-4.648116,0,0.000000,0.000000,0.000000,0.000000,0.000000,0.000000,0,0.000000,0.000000,0.000000,0,0,0.000000,10.168406,0.000000,-4.647959,0.000000,0.000000,0.000000,0.000000,0.000000,0.000000,0.299989
16:52:08.984,0.250,5,10.161380,0.374912,-4.648205,1,0.000000,0.000000,1.609938,0.022768,0.171767,-0.032665,0,0.000000,0.000000,0.000000,0,1,4.638536,10.168536,0.001256,-4.648204,-0.000489,0.007289,-0.001633,0.003794,0.028624,-0.005443,0.373725
16:52:09.040,0.300,6,10.158289,0.449848,-4.648312,1,0.000000,0.000000,1.606421,0.008697,0.195234,0.047101,0,0.000000,0.000000,0.000000,0,1,4.720472,10.168396,0.002961,-4.720311,-0.004132,0.013359,-0.021887,0.004494,0.052422,0.002061,0.452762
16:52:09.102,0.350,7,10.154636,0.524759,-4.648440,1,0.000000,0.000000,1.627473,-0.016282,0.243598,-0.040855,0,0.000000,0.000000,0.000000,0,1,4.715491,10.167678,0.005234,-4.721499,-0.010974,0.018862,-0.023827,0.001898,0.076316,-0.003302,0.524799
16:52:09.157,0.400,8,10.150422,0.599640,-4.648587,1,0.000000,0.000000,1.648538,-0.007832,0.197637,-0.021340,0,0.000000,0.000000,0.000000,0,1,4.590177,10.166677,0.007234,-4.722771,-0.017736,0.021673,-0.024856,0.000817,0.089795,-0.005306,0.597254
16:52:09.209,0.450,9,10.145647,0.674488,-4.648754,1,0.000000,0.000000,1.641867,-0.023338,0.169421,-0.021697,0,0.000000,0.000000,0.000000,0,1,4.596392,10.165207,0.008970,-4.609014,-0.024775,0.022671,0.653629,-0.001598,0.097757,-0.006918,0.666990
16:52:09.490,0.500,10,10.140311,0.749297,-4.648940,1,0.000000,0.000000,1.659282,-0.015436,0.259122,-0.035599,0,0.000000,0.000000,0.000000,0,1,4.666501,10.163057,0.011559,-4.576381,-0.034319,0.025180,0.652745,-0.002856,0.112425,-0.009525,0.741647
16:52:09.546,0.550,11,10.134415,0.824064,-4.649146,1,0.000000,0.000000,1.644563,-0.039886,0.212545,-0.031944,0,0.000000,0.000000,0.000000,0,1,4.718235,10.160335,0.013578,-4.543805,-0.043531,0.025447,0.651790,-0.005942,0.120768,-0.011393,0.817714
16:52:09.599,0.600,12,10.127958,0.898785,-4.649372,1,0.000000,0.000000,1.661780,-0.006888,0.260075,-0.075816,0,0.000000,0.000000,0.000000,0,1,4.554721,10.157144,0.016181,-4.546207,-0.053810,0.026967,0.514282,-0.006015,0.131483,-0.016358,0.889092
16:52:09.653,0.650,13,10.120941,0.973456,-4.649617,1,0.000000,0.000000,1.653014,0.015494,0.163223,-0.014222,0,0.000000,0.000000,0.000000,0,1,4.614163,10.154273,0.017976,-4.520510,-0.061018,0.027314,0.513499,-0.004478,0.133750,-0.016205,0.964739
16:52:09.708,0.700,14,10.113365,1.048072,-4.649881,1,0.000000,0.000000,1.667803,0.025639,0.180857,-0.004206,0,0.000000,0.000000,0.000000,0,1,4.661672,10.150963,0.020037,-4.494831,-0.068787,0.028117,0.512912,-0.002471,0.136890,-0.015405,1.040341
16:52:09.761,0.750,15,10.105230,1.122628,-4.650165,1,0.000000,0.000000,1.648598,-0.002984,0.292256,0.018800,0,0.000000,0.000000,0.000000,0,1,4.608482,10.145882,0.022968,-4.565102,-0.080934,0.029489,0.240728,-0.002503,0.146600,-0.013313,1.103694
16:52:09.814,0.800,16,10.096536,1.197122,-4.650469,1,0.000000,0.000000,1.707533,-0.008471,0.209104,0.016802,0,0.000000,0.000000,0.000000,0,1,4.680768,10.140935,0.024975,-4.553033,-0.090449,0.028905,0.240574,-0.002854,0.150277,-0.011541,1.177027
16:52:09.866,0.850,17,10.087284,1.271548,-4.650792,1,0.000000,0.000000,1.658108,0.017992,0.200835,-0.002715,0,0.000000,0.000000,0.000000,0,1,4.689908,10.135842,0.027149,-4.540998,-0.099510,0.029417,0.240163,-0.001696,0.153085,-0.011051,1.250177
16:52:09.921,0.900,18,10.077474,1.345903,-4.651135,1,0.000000,0.000000,1.676440,0.022525,0.222451,-0.046630,0,0.000000,0.000000,0.000000,0,1,4.674829,10.130026,0.029601,-4.615918,-0.109412,0.030124,0.045500,-0.000421,0.156736,-0.012992,1.317821
16:52:09.974,0.950,19,10.067108,1.420182,-4.651497,1,0.000000,0.000000,1.732425,-0.064972,0.239952,-0.062913,0,0.000000,0.000000,0.000000,0,1,4.639897,10.122552,0.030998,-4.613762,-0.120851,0.027205,0.043958,-0.003648,0.160897,-0.015488,1.390802
16:52:10.027,1.000,20,10.056185,1.494381,-4.651878,1,0.000000,0.000000,1.699506,-0.008375,0.217219,-0.008284,0,0.000000,0.000000,0.000000,0,1,4.684756,10.115409,0.032815,-4.611563,-0.130982,0.026294,0.043324,-0.003874,0.163579,-0.015145,1.463322
16:52:10.082,1.050,21,10.044706,1.568496,-4.652279,1,0.000000,0.000000,1.693597,0.039281,0.264106,-0.047775,0,0.000000,0.000000,0.000000,0,1,4.624148,10.107437,0.035797,-4.617185,-0.142602,0.027552,0.027775,-0.001912,0.168148,-0.016637,1.534384
16:52:10.132,1.100,22,10.032672,1.642523,-4.652699,1,0.000000,0.000000,1.724888,-0.027514,0.258290,0.015721,0,0.000000,0.000000,0.000000,0,1,4.693346,10.098267,0.037575,-4.615733,-0.154589,0.025820,0.027546,-0.003025,0.172067,-0.015231,1.606714
16:52:10.186,1.150,23,10.020083,1.716458,-4.653139,1,0.000000,0.000000,1.730164,0.013655,0.268263,-0.022023,0,0.000000,0.000000,0.000000,0,1,4.619253,10.088686,0.040076,-4.614398,-0.166737,0.025595,0.026649,-0.002330,0.176075,-0.015514,1.678232
16:52:10.241,1.200,24,10.006941,1.790296,-4.653598,1,0.000000,0.000000,1.747368,0.021531,0.259336,-0.031559,1,10.212793,1.910290,-4.721326,1,1,4.676712,10.211639,1.894033,-4.646686,-0.111178,0.928547,-0.027566,-0.002316,0.176081,-0.015575,0.229587
16:52:10.292,1.250,25,9.993246,1.864033,-4.654076,1,0.000000,0.000000,1.737410,0.024922,0.204670,-0.008595,1,10.212793,1.910290,-4.721326,0,1,4.647930,10.205818,1.940472,-4.648062,-0.120732,0.927875,-0.028207,-0.001227,0.177224,-0.015296,0.225978
16:52:10.343,1.300,26,9.978998,1.937665,-4.654573,1,0.000000,0.000000,1.774200,0.101323,0.234340,-0.044174,1,10.212793,1.910290,-4.721326,0,1,4.651692,10.199396,1.987163,-4.649606,-0.131213,0.929413,-0.029576,0.002717,0.179421,-0.016406,0.225943
16:52:10.396,1.350,27,9.964199,2.011189,-4.655090,1,0.000000,0.000000,1.777542,-0.051943,0.203943,0.005332,1,10.212793,1.910290,-4.721326,0,1,4.576838,10.192489,2.033335,-4.620500,-0.140846,0.925885,0.013465,0.000693,0.180329,-0.015525,0.231956
16:52:10.447,1.400,28,9.948849,2.084599,-4.655626,1,0.000000,0.000000,1.782481,-0.006274,0.189068,0.052110,1,10.212793,1.910290,-4.721326,0,1,4.653950,10.185171,2.079541,-4.619593,-0.149963,0.923786,0.014058,0.000444,0.180641,-0.013110,0.239107
16:52:10.502,1.450,29,9.932949,2.157892,-4.656181,1,0.000000,0.000000,1.802412,-0.004951,0.212921,0.034293,1,10.212793,1.910290,-4.721326,0,1,4.690959,10.177203,2.125642,-4.618687,-0.159866,0.921529,0.014410,0.000258,0.181754,-0.011476,0.249211
16:52:10.552,1.500,30,9.916500,2.231064,-4.656756,1,0.000000,0.000000,1.783874,-0.008345,0.196236,-0.041567,1,10.212793,1.910290,-4.721326,0,1,4.659810,10.168855,2.171594,-4.634085,-0.169248,0.919305,-0.007613,-0.000029,0.182237,-0.012530,0.260256
16:52:10.607,1.550,31,9.899504,2.304110,-4.657349,1,0.000000,0.000000,1.781399,-0.000530,0.193010,0.011592,1,10.212793,1.910290,-4.721326,0,1,4.664032,10.160055,2.217506,-4.634378,-0.178538,0.917368,-0.007747,-0.000045,0.182584,-0.011752,0.275527
16:52:10.660,1.600,32,9.881960,2.377026,-4.657962,1,0.000000,0.000000,1.805660,0.038175,0.292815,-0.059991,1,10.212793,1.910290,-4.721326,0,1,4.722180,10.149583,2.263777,-4.635031,-0.191418,0.916432,-0.009364,0.001150,0.186029,-0.013259,0.291502
16:52:10.713,1.650,33,9.863870,2.449809,-4.658594,1,0.000000,0.000000,1.802396,0.013350,0.286607,0.011125,1,10.212793,1.910290,-4.721326,0,1,4.601255,10.138436,2.309698,-4.623131,-0.204143,0.914604,0.005477,0.001519,0.189077,-0.012472,0.310282
16:52:10.764,1.700,34,9.845236,2.522454,-4.659245,1,0.000000,0.000000,1.799305,0.010795,0.214441,0.010794,1,10.212793,1.910290,-4.721326,0,1,4.682269,10.127621,2.355509,-4.622761,-0.214315,0.912820,0.005329,0.001792,0.189823,-0.011788,0.330065
16:52:10.818,1.750,35,9.826057,2.594957,-4.659914,1,0.000000,0.000000,1.809084,0.008746,0.242371,0.012213,1,10.212793,1.910290,-4.721326,0,1,4.571508,10.115821,2.401192,-4.622373,-0.225513,0.910794,0.005250,0.001991,0.191324,-0.011103,0.350596
16:52:10.870,1.800,36,9.806335,2.667314,-4.660603,1,0.000000,0.000000,1.847616,0.001243,0.221408,0.008312,1,10.212793,1.910290,-4.721326,0,1,4.662386,10.103787,2.446642,-4.635710,-0.235858,0.908165,-0.010924,0.001970,0.192160,-0.010628,0.371205
16:52:10.922,1.850,37,9.786072,2.739521,-4.661311,1,0.000000,0.000000,1.878090,0.024212,0.181854,-0.012301,1,10.212793,1.910290,-4.721326,0,1,4.696534,10.091947,2.492407,-4.636279,-0.244729,0.906218,-0.011489,0.002571,0.191881,-0.010673,0.394020
16:52:10.973,1.900,38,9.765268,2.811575,-4.662037,1,0.000000,0.000000,1.866384,0.005352,0.212049,-0.028736,1,10.212793,1.910290,-4.721326,0,1,4.612008,10.079069,2.537693,-4.636977,-0.254714,0.903582,-0.012403,0.002644,0.192412,-0.011148,0.417265
16:52:11.024,1.950,39,9.743925,2.883469,-4.662782,1,0.000000,0.000000,1.859577,-0.009423,0.252118,0.019768,1,10.212793,1.910290,-4.721326,0,1,4.719367,10.064821,2.582494,-4.664002,-0.266198,0.900292,-0.042583,0.002335,0.193943,-0.010495,0.439957
16:52:11.080,2.000,40,9.722043,2.955202,-4.663547,1,0.000000,0.000000,1.846046,-0.002519,0.244499,-0.059738,1,10.212793,1.910290,-4.721326,0,1,4.690363,10.050120,2.627281,-4.666419,-0.277476,0.897385,-0.044092,0.002214,0.195207,-0.011725,0.463870
16:52:11.134,2.050,41,9.699624,3.026769,-4.664329,1,0.000000,0.000000,1.872848,0.004155,0.238286,-0.011281,1,10.212793,1.910290,-4.721326,0,1,4.600329,10.034963,2.672075,-4.668635,-0.288493,0.894481,-0.044669,0.002261,0.196257,-0.011714,0.488137
16:52:11.186,2.100,42,9.676669,3.098165,-4.665131,1,0.000000,0.000000,1.889302,-0.045557,0.238536,-0.053740,1,10.212793,1.910290,-4.721326,0,1,4.683136,10.019288,2.715440,-4.674933,-0.299270,0.889477,-0.050354,0.001122,0.197264,-0.012735,0.513772
16:52:11.238,2.150,43,9.653180,3.169387,-4.665951,1,0.000000,0.000000,1.870586,0.013254,0.232788,-0.014356,1,10.212793,1.910290,-4.721326,0,1,4.659548,10.003111,2.760113,-4.677477,-0.310149,0.886923,-0.051022,0.001404,0.198090,-0.012772,0.538599
16:52:11.293,2.200,44,9.629158,3.240430,-4.666790,1,0.000000,0.000000,1.888453,-0.068399,0.230853,-0.081506,1,10.212793,1.910290,-4.721326,0,1,4.646010,9.986567,2.802352,-4.680506,-0.320516,0.881005,-0.053053,-0.000182,0.198835,-0.014332,0.565546
16:52:11.347,2.250,45,9.604604,3.311292,-4.667648,1,0.000000,0.000000,1.922371,0.011459,0.200713,-0.003625,1,10.212793,1.910290,-4.721326,0,1,4.631549,9.970229,2.846657,-4.667375,-0.329981,0.878020,-0.036004,0.000077,0.198876,-0.013996,0.591243
16:52:11.398,2.300,46,9.579519,3.381967,-4.668524,1,0.000000,0.000000,1.911728,0.017250,0.202503,0.017212,1,10.212793,1.910290,-4.721326,0,1,4.623196,9.953346,2.890997,-4.669002,-0.339590,0.875356,-0.036110,0.000450,0.198955,-0.013319,0.617088
16:52:11.449,2.350,47,9.553906,3.452452,-4.669418,1,0.000000,0.000000,1.937275,-0.012946,0.275579,-0.023057,1,10.212793,1.910290,-4.721326,0,1,4.725944,9.933701,2.934057,-4.670892,-0.351843,0.870843,-0.036968,0.000165,0.200585,-0.013526,0.642635
16:52:11.502,2.400,48,9.527764,3.522742,-4.670331,1,0.000000,0.000000,1.905484,-0.009257,0.235212,-0.028470,1,10.212793,1.910290,-4.721326,0,1,4.605274,9.914738,2.977108,-4.652652,-0.362638,0.866976,-0.015386,-0.000031,0.201307,-0.013704,0.669162
16:52:11.557,2.450,49,9.501097,3.592835,-4.671262,1,0.000000,0.000000,1.903207,0.005568,0.194272,0.015589,1,10.212793,1.910290,-4.721326,0,1,4.757354,9.896596,3.020590,-4.653256,-0.371906,0.863956,-0.015533,0.000083,0.201163,-0.013108,0.695850
16:52:11.611,2.500,50,9.473905,3.662725,-4.672212,1,0.000000,0.000000,1.940367,0.034903,0.278484,-0.000038,1,10.212793,1.910290,-4.721326,0,1,4.633706,9.874868,3.064705,-4.653957,-0.384606,0.861226,-0.015940,0.000779,0.202710,-0.012848,0.720231
16:52:11.664,2.550,51,9.446190,3.732410,-4.673179,1,0.000000,0.000000,1.945387,-0.005062,0.210403,0.008025,1,10.212793,1.910290,-4.721326,0,1,4.662331,9.855135,3.107430,-4.656887,-0.394323,0.857268,-0.018724,0.000665,0.202861,-0.012455,0.747061
16:52:11.717,2.600,52,9.417954,3.801884,-4.674166,1,0.000000,0.000000,1.975145,-0.031911,0.204748,0.030686,1,10.212793,1.910290,-4.721326,0,1,4.622817,9.835234,3.148930,-4.657568,-0.403513,0.851983,-0.018585,0.000038,0.202897,-0.011628,0.775078
16:52:11.767,2.650,53,9.389197,3.871145,-4.675170,1,0.000000,0.000000,1.971099,-0.080752,0.184624,-0.045641,1,10.212793,1.910290,-4.721326,0,1,4.670539,9.815876,3.188283,-4.658751,-0.411542,0.844899,-0.019788,-0.001486,0.202552,-0.012268,0.805372
16:52:11.821,2.700,54,9.359923,3.940188,-4.676192,1,0.000000,0.000000,1.953428,-0.034037,0.260305,-0.051154,1,10.212793,1.910290,-4.721326,0,1,4.636197,9.792828,3.228845,-4.653077,-0.423010,0.839306,-0.013292,-0.002089,0.203622,-0.012938,0.833036
16:52:11.875,2.750,55,9.330131,4.009009,-4.677232,1,0.000000,0.000000,1.961486,0.000235,0.230814,0.023526,1,10.212793,1.910290,-4.721326,0,1,4.624055,9.770280,3.270685,-4.653529,-0.433506,0.835221,-0.013324,-0.002046,0.204116,-0.012278,0.859892
16:52:11.930,2.800,56,9.299825,4.077605,-4.678291,1,0.000000,0.000000,2.006140,-0.019984,0.263308,-0.065528,1,10.212793,1.910290,-4.721326,0,1,4.765637,9.745878,3.311265,-4.654583,-0.444985,0.829633,-0.014868,-0.002367,0.205173,-0.013225,0.887019
16:52:11.981,2.850,57,9.269005,4.145971,-4.679367,1,0.000000,0.000000,1.994635,-0.010820,0.223860,0.022732,1,10.212793,1.910290,-4.721326,0,1,4.686109,9.722601,3.352162,-4.664103,-0.454981,0.824812,-0.025064,-0.002515,0.205501,-0.012658,0.914393
16:52:12.036,2.900,58,9.237673,4.214104,-4.680461,1,0.000000,0.000000,1.999000,0.006474,0.211157,0.011576,1,10.212793,1.910290,-4.721326,0,1,4.650895,9.699309,3.393677,-4.665222,-0.464582,0.820751,-0.025308,-0.002360,0.205598,-0.012242,0.941509
16:52:12.088,2.950,59,9.205832,4.282000,-4.681573,1,0.000000,0.000000,2.012546,0.006154,0.168800,0.045463,1,10.212793,1.910290,-4.721326,0,1,4.689628,9.677544,3.435220,-4.666104,-0.472390,0.816910,-0.024959,-0.002216,0.204975,-0.011269,0.969427
16:52:12.139,3.000,60,9.173483,4.349655,-4.682703,1,0.000000,0.000000,2.025187,0.011211,0.221863,0.009697,1,10.212793,1.910290,-4.721326,0,1,4.599444,9.652791,3.476500,-4.647536,-0.482359,0.812716,-0.002934,-0.001992,0.205256,-0.010789,0.996681
16:52:12.192,3.050,61,9.140628,4.417066,-4.683850,1,0.000000,0.000000,1.985924,0.010542,0.181164,0.009440,1,10.212793,1.910290,-4.721326,0,1,4.675210,9.629560,3.517811,-4.647573,-0.490832,0.809214,-0.003165,-0.001786,0.204861,-0.010459,1.024222
16:52:12.246,3.100,62,9.107268,4.484228,-4.685015,1,0.000000,0.000000,2.007090,-0.010065,0.207529,-0.002444,1,9.066651,4.291562,-4.729425,1,1,4.734581,9.074586,4.280747,-4.650923,-0.771701,1.174976,-0.007307,-0.001762,0.204875,-0.010480,0.208890
16:52:12.301,3.150,63,9.073406,4.551138,-4.686197,1,0.000000,0.000000,2.043032,-0.025380,0.212378,-0.032748,1,9.066651,4.291562,-4.729425,0,1,4.716764,9.035772,4.339338,-4.669864,-0.780762,1.169814,-0.029070,-0.002143,0.204996,-0.010960,0.215736
16:52:12.352,3.200,64,9.039043,4.617792,-4.687397,1,0.000000,0.000000,2.047196,0.040099,0.232781,0.010568,1,9.066651,4.291562,-4.729425,0,1,4.636168,8.996414,4.397788,-4.671206,-0.790545,1.165542,-0.029304,-0.001472,0.205437,-0.010621,0.224680
16:52:12.405,3.250,65,9.004182,4.684186,-4.688615,1,0.000000,0.000000,2.055753,-0.017404,0.196318,-0.009387,1,9.066651,4.291562,-4.729425,0,1,4.664090,8.956704,4.455903,-4.672676,-0.799340,1.160478,-0.029816,-0.001721,0.205294,-0.010602,0.233712
16:52:12.460,3.300,66,8.968824,4.750317,-4.689849,1,0.000000,0.000000,2.078017,-0.014125,0.174610,-0.003082,1,9.066651,4.291562,-4.729425,0,1,4.764428,8.916651,4.513792,-4.699786,-0.807653,1.155410,-0.059472,-0.001912,0.204822,-0.010653,0.242414
16:52:12.515,3.350,67,8.932971,4.816180,-4.691101,1,0.000000,0.000000,2.071279,0.005496,0.159258,0.027039,1,9.066651,4.291562,-4.729425,0,1,4.687045,8.876248,4.571547,-4.702557,-0.815836,1.150866,-0.059481,-0.001800,0.204132,-0.010086,0.251384
16:52:12.567,3.400,68,8.896626,4.881772,-4.692371,1,0.000000,0.000000,2.082568,-0.000381,0.161180,-0.002009,1,9.066651,4.291562,-4.729425,0,1,4.677338,8.835470,4.629056,-4.705493,-0.823921,1.146129,-0.059869,-0.001779,0.203491,-0.009966,0.260342
16:52:12.622,3.450,69,8.859790,4.947090,-4.693657,1,0.000000,0.000000,2.075180,0.047795,0.188376,-0.068773,1,9.066651,4.291562,-4.729425,0,1,4.684472,8.794035,4.686589,-4.701919,-0.832882,1.142167,-0.053268,-0.001050,0.203269,-0.010782,0.268799
16:52:12.674,3.500,70,8.822466,5.012130,-4.694960,1,0.000000,0.000000,2.050332,0.004617,0.220491,-0.023345,1,9.066651,4.291562,-4.729425,0,1,4.703054,8.752026,4.743574,-4.704665,-0.842244,1.137404,-0.053974,-0.000968,0.203518,-0.010962,0.277810
16:52:12.729,3.550,71,8.784655,5.076888,-4.696281,1,0.000000,0.000000,2.090801,0.009761,0.206130,0.007121,1,9.066651,4.291562,-4.729425,0,1,4.738416,8.709641,4.800395,-4.707267,-0.851187,1.132491,-0.054273,-0.000814,0.203555,-0.010706,0.286698
16:52:12.781,3.600,72,8.746359,5.141360,-4.697618,1,0.000000,0.000000,2.126092,-0.052026,0.235812,-0.023374,1,9.066651,4.291562,-4.729425,0,1,4.607546,8.666751,4.856320,-4.680605,-0.860021,1.125821,-0.021365,-0.001535,0.204010,-0.010706,0.296437
16:52:12.835,3.650,73,8.707582,5.205543,-4.698972,1,0.000000,0.000000,2.109921,-0.015969,0.208688,-0.080371,1,9.066651,4.291562,-4.729425,0,1,4.614063,8.623541,4.912320,-4.682060,-0.868705,1.120191,-0.022775,-0.001736,0.204075,-0.011665,0.305498
16:52:12.889,3.700,74,8.668325,5.269433,-4.700343,1,0.000000,0.000000,2.097419,0.058790,0.248483,-0.035978,1,9.066651,4.291562,-4.729425,0,1,4.760839,8.579164,4.968659,-4.683357,-0.878911,1.115822,-0.023676,-0.000907,0.204683,-0.011996,0.314170
16:52:12.944,3.750,75,8.628589,5.333027,-4.701731,1,0.000000,0.000000,2.118276,-0.018083,0.251852,-0.020886,1,9.066651,4.291562,-4.729425,0,1,4.684553,8.534536,5.023906,-4.684596,-0.888439,1.109679,-0.024376,-0.001139,0.205320,-0.012115,0.323567
16:52:12.998,3.800,76,8.588379,5.396320,-4.703135,1,0.000000,0.000000,2.127314,-0.035753,0.172312,0.000925,1,9.066651,4.291562,-4.729425,0,1,4.622012,8.490475,5.078987,-4.685763,-0.896119,1.103792,-0.024826,-0.001600,0.204880,-0.011943,0.332547
16:52:13.051,3.850,77,8.547695,5.459311,-4.704556,1,0.000000,0.000000,2.168932,0.016900,0.187702,-0.042640,1,9.066651,4.291562,-4.729425,0,1,4.735728,8.445588,5.134367,-4.687194,-0.904353,1.098510,-0.025805,-0.001357,0.204654,-0.012343,0.341051
16:52:13.106,3.900,78,8.506540,5.521994,-4.705993,1,0.000000,0.000000,2.150126,-0.030352,0.252599,0.027702,1,9.066651,4.291562,-4.729425,0,1,4.641407,8.399645,5.188467,-4.674714,-0.913621,1.091767,-0.010508,-0.001734,0.205277,-0.011753,0.351632
16:52:13.160,3.950,79,8.464916,5.584366,-4.707446,1,0.000000,0.000000,2.160846,-0.041428,0.257149,-0.051772,1,9.066651,4.291562,-4.729425,0,1,4.631584,8.353217,5.241997,-4.675451,-0.922827,1.084610,-0.011550,-0.002242,0.205942,-0.012261,0.361548
16:52:13.213,4.000,80,8.422826,5.646425,-4.708916,1,0.000000,0.000000,2.167085,0.067728,0.220109,0.045205,1,9.066651,4.291562,-4.729425,0,1,4.754839,8.306180,5.297101,-4.675731,-0.932306,1.080120,-0.011483,-0.001357,0.206121,-0.011540,0.369777
16:52:13.268,4.050,81,8.380272,5.708166,-4.710402,1,0.000000,0.000000,2.153265,0.013308,0.261001,-0.011477,1,9.066651,4.291562,-4.729425,0,1,4.697317,8.258326,5.350827,-4.682393,-0.942241,1.074148,-0.018958,-0.001173,0.206807,-0.011571,0.378611
16:52:13.322,4.100,82,8.337256,5.769585,-4.711904,1,0.000000,0.000000,2.182822,-0.004472,0.219950,-0.003264,1,9.066651,4.291562,-4.729425,0,1,4.679894,8.210795,5.404229,-4.683316,-0.950929,1.067946,-0.019447,-0.001214,0.206969,-0.011470,0.387679
16:52:13.377,4.150,83,8.293782,5.830680,-4.713422,1,0.000000,0.000000,2.204898,-0.007277,0.243914,-0.012038,1,9.066651,4.291562,-4.729425,0,1,4.745664,8.162402,5.457068,-4.684306,-0.959998,1.061228,-0.020027,-0.001288,0.207420,-0.011477,0.397107
16:52:13.431,4.200,84,8.249850,5.891448,-4.714957,1,0.000000,0.000000,2.236141,-0.003739,0.219433,-0.088868,1,9.066651,4.291562,-4.729425,0,1,4.836220,8.113985,5.509821,-4.729303,-0.968363,1.054586,-0.070908,-0.001318,0.207565,-0.012621,0.405344
16:52:13.485,4.250,85,8.205465,5.951883,-4.716507,1,0.000000,0.000000,2.197005,0.024383,0.197781,0.012474,1,9.066651,4.291562,-4.729425,0,1,4.692896,8.065332,5.563007,-4.732750,-0.976800,1.049151,-0.071279,-0.001012,0.207448,-0.012325,0.413674
16:52:13.536,4.300,86,8.160627,6.011984,-4.718072,1,0.000000,0.000000,2.226878,-0.028828,0.256078,0.016592,1,9.066651,4.291562,-4.729425,0,1,4.780580,8.015508,5.614264,-4.736185,-0.985794,1.041579,-0.071582,-0.001339,0.208020,-0.011988,0.423756
16:52:13.591,4.350,87,8.115341,6.071747,-4.719654,1,0.000000,0.000000,2.204403,0.015349,0.190441,-0.000133,1,9.066651,4.291562,-4.729425,0,1,4.733473,7.966238,5.666729,-4.737908,-0.993921,1.035963,-0.070000,-0.001145,0.207816,-0.011843,0.431978
16:52:13.646,4.400,88,8.069607,6.131169,-4.721251,1,0.000000,0.000000,2.215179,0.012534,0.226828,-0.030894,1,9.066651,4.291562,-4.729425,0,1,4.680587,7.915756,5.718492,-4.741506,-1.002805,1.029771,-0.070782,-0.000988,0.208034,-0.012060,0.440888
16:52:13.698,4.450,89,8.023430,6.190245,-4.722863,1,0.000000,0.000000,2.222748,0.027808,0.240470,-0.021612,1,9.066651,4.291562,-4.729425,0,1,4.687765,7.864323,5.770169,-4.745105,-1.012164,1.023709,-0.071484,-0.000661,0.208403,-0.012167,0.449749
16:52:13.753,4.500,90,7.976811,6.248973,-4.724491,1,0.000000,0.000000,2.238030,-0.013484,0.253125,0.007623,1,9.066651,4.291562,-4.729425,0,1,4.756049,7.812538,5.820373,-4.750749,-1.021240,1.016375,-0.074323,-0.000805,0.208905,-0.011957,0.459753
16:52:13.809,4.550,91,7.929753,6.307350,-4.726135,1,0.000000,0.000000,2.237607,0.036239,0.273713,-0.058750,1,9.066651,4.291562,-4.729425,0,1,4.768281,7.759163,5.871233,-4.754675,-1.031450,1.009960,-0.075368,-0.000393,0.209625,-0.012472,0.469163
16:52:13.863,4.600,92,7.882259,6.365372,-4.727793,1,0.000000,0.000000,2.202893,0.016000,0.249932,0.001326,1,9.066651,4.291562,-4.729425,0,1,4.636396,7.706100,5.921525,-4.758395,-1.041082,1.003635,-0.075854,-0.000213,0.210068,-0.012322,0.478506
16:52:13.918,4.650,93,7.834332,6.423036,-4.729467,1,0.000000,0.000000,2.243201,-0.003600,0.226874,-0.031184,1,9.066651,4.291562,-4.729425,0,1,4.784130,7.653418,5.971237,-4.768615,-1.049660,0.996784,-0.083820,-0.000250,0.210251,-0.012553,0.488247
16:52:13.969,4.700,94,7.785973,6.480338,-4.731156,1,0.000000,0.000000,2.248348,0.026293,0.200510,0.010389,1,9.066651,4.291562,-4.729425,0,1,4.700158,7.600660,6.021799,-4.772730,-1.057952,0.990964,-0.084236,0.000036,0.210146,-0.012309,0.496314
16:52:14.022,4.750,95,7.737187,6.537276,-4.732859,1,0.000000,0.000000,2.271628,0.030782,0.198223,0.019130,1,9.066651,4.291562,-4.729425,0,1,4.833938,7.547492,6.072250,-4.776817,-1.066100,0.985110,-0.084549,0.000363,0.210019,-0.011978,0.504149
16:52:14.073,4.800,96,7.687975,6.593847,-4.734578,1,0.000000,0.000000,2.296965,-0.007954,0.186074,-0.008645,1,9.066651,4.291562,-4.729425,0,1,4.766597,7.494839,6.121418,-4.776865,-1.073256,0.978269,-0.080382,0.000275,0.209767,-0.011925,0.512131
16:52:14.128,4.850,97,7.638340,6.650046,-4.736311,1,0.000000,0.000000,2.284871,-0.013060,0.253417,0.001235,1,9.066651,4.291562,-4.729425,0,1,4.722147,7.439804,6.169098,-4.780848,-1.082098,0.970476,-0.080862,0.000136,0.210222,-0.011789,0.522218
16:52:14.182,4.900,98,7.588286,6.705872,-4.738059,1,0.000000,0.000000,2.292001,0.014186,0.214180,-0.052689,1,9.066651,4.291562,-4.729425,0,1,4.654999,7.385159,6.217842,-4.785081,-1.090293,0.963838,-0.081831,0.000281,0.210263,-0.012207,0.530702
16:52:14.236,4.950,99,7.537815,6.761320,-4.739821,1,0.000000,0.000000,2.278813,-0.006994,0.238785,0.000249,1,7.705142,6.453137,-4.817643,1,1,4.700068,7.643845,6.422500,-4.765101,-0.988506,1.011902,-0.055166,0.000283,0.210161,-0.012105,0.355921
16:52:14.291,5.000,100,7.486929,6.816388,-4.741598,1,0.000000,0.000000,2.321692,0.024439,0.241764,-0.070839,1,7.705142,6.453137,-4.817643,0,1,4.710967,7.593957,6.472970,-4.768089,-0.996938,1.004815,-0.056274,0.000529,0.210483,-0.012698,0.360683
16:52:14.346,5.050,101,7.435632,6.871072,-4.743390,1,0.000000,0.000000,2.328608,0.039224,0.261351,-0.034211,1,7.705142,6.453137,-4.817643,0,1,4.747604,7.543427,6.523119,-4.771006,-1.005811,0.997709,-0.057102,0.000920,0.210996,-0.012913,0.365313
16:52:14.398,5.100,102,7.383927,6.925370,-4.745195,1,0.000000,0.000000,2.330315,0.016937,0.253436,-0.007917,1,7.705142,6.453137,-4.817643,0,1,4.771749,7.492554,6.572777,-4.773259,-1.014351,0.990299,-0.057023,0.001080,0.211420,-0.012861,0.370013
16:52:14.450,5.150,103,7.331816,6.979278,-4.747015,1,0.000000,0.000000,2.341410,0.004011,0.231544,-0.012878,1,7.705142,6.453137,-4.817643,0,1,4.758211,7.441463,6.622043,-4.776127,-1.022336,0.982809,-0.057666,0.001109,0.211619,-0.012861,0.374816
16:52:14.502,5.200,104,7.279302,7.032794,-4.748849,1,0.000000,0.000000,2.352779,-0.012292,0.211455,-0.005116,1,7.705142,6.453137,-4.817643,0,1,4.688156,7.390226,6.670876,-4.778995,-1.029734,0.975171,-0.058242,0.000978,0.211618,-0.012786,0.379734
16:52:14.554,5.250,105,7.226389,7.085914,-4.750697,1,0.000000,0.000000,2.311993,-0.006963,0.188372,0.037805,1,7.705142,6.453137,-4.817643,0,1,4.789754,7.338817,6.719505,-4.783997,-1.037092,0.968186,-0.061033,0.000901,0.211392,-0.012309,0.384714
16:52:14.605,5.300,106,7.173079,7.138636,-4.752558,1,0.000000,0.000000,2.364125,-0.019729,0.248756,-0.019963,1,7.705142,6.453137,-4.817643,0,1,4.750920,7.286501,6.767283,-4.787091,-1.044942,0.959911,-0.061711,0.000702,0.211751,-0.012382,0.389821
16:52:14.670,5.350,107,7.119376,7.190956,-4.754434,1,0.000000,0.000000,2.335349,0.019916,0.235311,-0.034120,1,7.705142,6.453137,-4.817643,0,1,4.782355,7.233669,6.815162,-4.790276,-1.053235,0.952667,-0.062515,0.000885,0.211975,-0.012587,0.394422
16:52:14.726,5.400,108,7.065282,7.242872,-4.756323,1,0.000000,0.000000,2.383514,-0.003115,0.200875,-0.040278,1,7.705142,6.453137,-4.817643,0,1,4.732552,7.180987,6.862633,-4.776056,-1.060314,0.945062,-0.043481,0.000847,0.211871,-0.012778,0.397943
16:52:14.782,5.450,109,7.010800,7.294380,-4.758225,1,0.000000,0.000000,2.382915,-0.017604,0.269090,-0.026278,1,7.705142,6.453137,-4.817643,0,1,4.807140,7.127188,6.909025,-4.778292,-1.068416,0.936393,-0.044227,0.000675,0.212405,-0.012903,0.403048
16:52:14.866,5.500,110,6.955934,7.345478,-4.760141,1,0.000000,0.000000,2.354509,0.036553,0.222798,0.017832,1,7.705142,6.453137,-4.817643,0,1,4.643311,7.073146,6.956065,-4.780404,-1.076584,0.929429,-0.044617,0.001007,0.212501,-0.012622,0.407176
16:52:14.917,5.550,111,6.900686,7.396163,-4.762070,1,0.000000,0.000000,2.414775,0.018756,0.295137,-0.005782,1,7.705142,6.453137,-4.817643,0,1,4.837784,7.017793,7.001883,-4.798493,-1.085378,0.920812,-0.063247,0.001170,0.213259,-0.012619,0.412913
16:52:14.972,5.600,112,6.845060,7.446431,-4.764013,1,0.000000,0.000000,2.371526,0.023515,0.228747,0.004756,1,7.705142,6.453137,-4.817643,0,1,4.794996,6.962897,7.047932,-4.801613,-1.093405,0.913405,-0.063744,0.001373,0.213399,-0.012462,0.417255
16:52:15.027,5.650,113,6.789058,7.496281,-4.765969,1,0.000000,0.000000,2.391293,0.004291,0.184390,0.024389,1,7.705142,6.453137,-4.817643,0,1,4.789617,6.908479,7.093736,-4.804680,-1.100241,0.906073,-0.064070,0.001399,0.213138,-0.012134,0.421666
16:52:15.081,5.700,114,6.732685,7.545709,-4.767937,1,0.000000,0.000000,2.419356,0.030157,0.240585,0.026752,1,7.705142,6.453137,-4.817643,0,1,4.756398,6.852535,7.139041,-4.792934,-1.108217,0.898290,-0.047523,0.001656,0.213383,-0.011738,0.424698
16:52:15.136,5.750,115,6.675943,7.594713,-4.769919,1,0.000000,0.000000,2.397152,0.051525,0.229328,-0.018147,1,7.705142,6.453137,-4.817643,0,1,4.763853,6.796122,7.184460,-4.795346,-1.116463,0.891206,-0.048158,0.002097,0.213524,-0.011794,0.428248
16:52:15.186,5.800,116,6.618835,7.643289,-4.771913,1,0.000000,0.000000,2.430620,0.041382,0.220756,0.034854,1,7.705142,6.453137,-4.817643,0,1,4.769052,6.739542,7.229455,-4.797601,-1.124175,0.883816,-0.048381,0.002441,0.213587,-0.011390,0.431843
16:52:15.239,5.850,117,6.561364,7.691436,-4.773920,1,0.000000,0.000000,2.428682,-0.051771,0.273434,-0.014126,1,7.705142,6.453137,-4.817643,0,1,4.789404,6.682667,7.271697,-4.796972,-1.131626,0.873984,-0.045486,0.001970,0.214107,-0.011402,0.437523
16:52:15.289,5.900,118,6.503535,7.739150,-4.775939,1,0.000000,0.000000,2.484231,0.009436,0.231243,-0.009302,1,7.705142,6.453137,-4.817643,0,1,4.686865,6.625487,7.315118,-4.799254,-1.138671,0.865471,-0.046040,0.002034,0.214255,-0.011384,0.441836
16:52:15.344,5.950,119,6.445349,7.786428,-4.777971,1,0.000000,0.000000,2.446100,0.043907,0.186290,-0.050552,1,7.705142,6.453137,-4.817643,0,1,4.804949,6.568404,7.359417,-4.801707,-1.145677,0.858498,-0.046909,0.002392,0.214016,-0.011715,0.445022
16:52:15.399,6.000,120,6.386810,7.833269,-4.780015,1,0.000000,0.000000,2.469506,0.000681,0.205754,0.029765,1,7.705142,6.453137,-4.817643,0,1,4.850768,6.511151,7.402212,-4.817450,-1.152252,0.850285,-0.062517,0.002377,0.213946,-0.011414,0.450191
16:52:15.451,6.050,121,6.327923,7.879669,-4.782072,1,0.000000,0.000000,2.483654,0.018974,0.246395,-0.076157,1,7.705142,6.453137,-4.817643,0,1,4.870554,6.452417,7.444417,-4.820788,-1.159749,0.841737,-0.063548,0.002517,0.214219,-0.011951,0.454359
16:52:15.501,6.100,122,6.268689,7.925626,-4.784140,1,0.000000,0.000000,2.467183,0.053553,0.220414,0.068791,1,7.705142,6.453137,-4.817643,0,1,4.838196,6.393354,7.487372,-4.823707,-1.167408,0.834338,-0.063543,0.002942,0.214270,-0.011287,0.457355
16:52:15.553,6.150,123,6.209112,7.971137,-4.786221,1,0.000000,0.000000,2.482749,0.011919,0.209811,0.003015,1,7.705142,6.453137,-4.817643,0,1,4.723086,6.334782,7.529161,-4.796849,-1.174132,0.826197,-0.030013,0.003016,0.214234,-0.011070,0.459618
16:52:15.604,6.200,124,6.149195,8.016199,-4.788313,1,0.000000,0.000000,2.491711,-0.009133,0.207804,0.074658,1,7.705142,6.453137,-4.817643,0,1,4.705031,6.276264,7.570068,-4.798108,-1.180424,0.817622,-0.029972,0.002916,0.214181,-0.010376,0.463978
16:52:15.657,6.250,125,6.088943,8.060811,-4.790417,1,0.000000,0.000000,2.485106,0.009140,0.269240,0.003832,1,7.705142,6.453137,-4.817643,0,1,4.782835,6.215585,7.609968,-4.799573,-1.188244,0.808502,-0.030388,0.002967,0.214628,-0.010262,0.468382
16:52:15.712,6.300,126,6.028358,8.104969,-4.792533,1,0.000000,0.000000,2.515962,-0.021558,0.161958,0.029022,1,7.705142,6.453137,-4.817643,0,1,4.700040,6.157809,7.650462,-4.771784,-1.193237,0.800232,0.002439,0.002769,0.214204,-0.009855,0.473038
16:52:15.764,6.350,127,5.967444,8.148672,-4.794660,1,0.000000,0.000000,2.533742,0.004327,0.216938,0.026194,1,7.705142,6.453137,-4.817643,0,1,4.796091,6.097890,7.690248,-4.771570,-1.199545,0.791506,0.002190,0.002782,0.214226,-0.009570,0.477181
16:52:15.816,6.400,128,5.906204,8.191916,-4.796799,1,0.000000,0.000000,2.523267,-0.000070,0.287659,-0.023234,1,7.705142,6.453137,-4.817643,0,1,4.824035,6.035789,7.728150,-4.771516,-1.207268,0.781629,0.001615,0.002759,0.214808,-0.009677,0.482193
16:52:15.870,6.450,129,5.844641,8.234699,-4.798948,1,0.000000,0.000000,2.543438,-0.024531,0.252766,-0.013002,1,7.705142,6.453137,-4.817643,0,1,4.816905,5.974729,7.765503,-4.784598,-1.213738,0.771677,-0.013768,0.002544,0.215107,-0.009745,0.487107
16:52:15.925,6.500,130,5.782760,8.277019,-4.801109,1,0.000000,0.000000,2.531532,-0.021252,0.219932,-0.006901,1,7.705142,6.453137,-4.817643,0,1,4.763830,5.914223,7.803081,-4.785290,-1.219710,0.762384,-0.014237,0.002359,0.215144,-0.009723,0.492088
16:52:15.981,6.550,131,5.720563,8.318873,-4.803281,1,0.000000,0.000000,2.541807,-0.011532,0.225699,-0.028474,1,7.705142,6.453137,-4.817643,0,1,4.852025,5.853057,7.840347,-4.786073,-1.225860,0.753120,-0.014853,0.002251,0.215226,-0.009866,0.496828
16:52:16.036,6.600,132,5.658054,8.360260,-4.805464,1,0.000000,0.000000,2.551328,0.014947,0.199388,-0.020495,1,7.705142,6.453137,-4.817643,0,1,4.824417,5.791824,7.878508,-4.797721,-1.231840,0.744761,-0.027712,0.002349,0.215104,-0.009980,0.500039
16:52:16.091,6.650,133,5.595236,8.401176,-4.807658,1,0.000000,0.000000,2.556897,0.102925,0.236277,-0.025336,1,7.705142,6.453137,-4.817643,0,1,4.820219,5.727196,7.918205,-4.799161,-1.240003,0.737511,-0.028310,0.003116,0.215266,-0.010096,0.500746
16:52:16.145,6.700,134,5.532114,8.441620,-4.809862,1,0.000000,0.000000,2.580091,-0.008040,0.192979,0.045468,1,7.705142,6.453137,-4.817643,0,1,4.799172,5.666018,7.955005,-4.800419,-1.245227,0.728642,-0.028438,0.003031,0.215097,-0.009681,0.504791
16:52:16.197,6.750,135,5.468690,8.481588,-4.812077,1,0.000000,0.000000,2.555215,0.010026,0.207352,-0.006082,1,7.705142,6.453137,-4.817643,0,1,4.842558,5.603695,7.991626,-4.813610,-1.251270,0.720042,-0.042219,0.003084,0.215039,-0.009689,0.508224
16:52:16.250,6.800,136,5.404969,8.521080,-4.814302,1,0.000000,0.000000,2.562278,-0.060668,0.262990,0.002948,1,5.683879,8.357522,-5.097055,1,1,4.759812,5.649000,8.276948,-4.825504,-1.222667,0.791223,-0.053838,0.003159,0.214913,-0.009719,0.345366
16:52:16.305,6.850,137,5.340953,8.560093,-4.816538,1,0.000000,0.000000,2.610194,-0.031320,0.177013,0.075676,1,5.683879,8.357522,-5.097055,0,1,4.928821,5.588285,8.316221,-4.827958,-1.227372,0.782072,-0.053762,0.002902,0.214631,-0.009090,0.347529
16:52:16.355,6.900,138,5.276647,8.598624,-4.818783,1,0.000000,0.000000,2.592742,-0.003227,0.230967,0.008795,1,5.683879,8.357522,-5.097055,0,1,4.720256,5.526664,8.354926,-4.799490,-1.233222,0.772718,-0.018759,0.002857,0.214752,-0.008866,0.349670
16:52:16.565,6.950,139,5.212054,8.636671,-4.821039,1,0.000000,0.000000,2.622903,0.005227,0.222396,-0.000402,1,5.683879,8.357522,-5.097055,0,1,4.861810,5.464773,8.393296,-4.800417,-1.238793,0.763398,-0.019150,0.002875,0.214808,-0.008805,0.351459
16:52:16.680,7.000,140,5.147177,8.674232,-4.823304,1,0.000000,0.000000,2.603961,0.007575,0.256526,0.012155,1,5.683879,8.357522,-5.097055,0,1,4.844382,5.402218,8.430945,-4.801325,-1.244998,0.753777,-0.019454,0.002909,0.215112,-0.008654,0.353154
16:52:16.797,7.050,141,5.082021,8.711306,-4.825580,1,0.000000,0.000000,2.603961,0.007575,0.256526,0.012155,1,5.683879,8.357522,-5.097055,0,1,4.844382,5.339331,8.468094,-4.814221,-1.251213,0.744139,-0.033385,0.002942,0.215411,-0.008540,0.354246
16:52:16.851,7.100,142,5.016588,8.747889,-4.827865,1,0.000000,0.000000,2.609301,-0.039482,0.254901,0.038267,1,5.683879,8.357522,-5.097055,0,1,4.828600,5.276571,8.504212,-4.815780,-1.256752,0.733879,-0.033527,0.002638,0.215694,-0.008208,0.356533
16:52:16.906,7.150,143,4.950883,8.783981,-4.830159,1,0.000000,0.000000,2.658090,0.039634,0.239506,-0.066839,1,5.683879,8.357522,-5.097055,0,1,4.756533,5.212949,8.540880,-4.817635,-1.262679,0.724547,-0.034312,0.002902,0.215864,-0.008621,0.357678
16:52:16.958,7.200,144,4.884910,8.819578,-4.832463,1,0.000000,0.000000,2.613387,-0.011178,0.146361,-0.024162,1,5.683879,8.357522,-5.097055,0,1,4.859204,5.150704,8.577429,-4.830794,-1.267160,0.716056,-0.047811,0.002802,0.215372,-0.008763,0.359563
16:52:17.008,7.250,145,4.818672,8.854679,-4.834776,1,0.000000,0.000000,2.645850,-0.004157,0.215369,-0.027937,1,5.683879,8.357522,-5.097055,0,1,4.781962,5.087292,8.612905,-4.833244,-1.272310,0.706561,-0.048363,0.002753,0.215372,-0.008896,0.361406
16:52:17.063,7.300,146,4.752172,8.889282,-4.837098,1,0.000000,0.000000,2.668029,0.030812,0.256295,-0.043705,1,5.683879,8.357522,-5.097055,0,1,4.817386,5.022659,8.647901,-4.835772,-1.278267,0.696834,-0.049026,0.002949,0.215658,-0.009136,0.362533
16:52:17.116,7.350,147,4.685415,8.923386,-4.839429,1,0.000000,0.000000,2.667979,0.027476,0.215273,0.003411,1,5.683879,8.357522,-5.097055,0,1,4.786098,4.958321,8.682860,-4.823228,-1.283658,0.687631,-0.032368,0.003119,0.215655,-0.009008,0.364133
16:52:17.171,7.400,148,4.618404,8.956987,-4.841770,1,0.000000,0.000000,2.675586,-0.020036,0.213391,0.057368,1,5.683879,8.357522,-5.097055,0,1,4.832931,4.894348,8.716688,-4.824691,-1.288280,0.677797,-0.032431,0.002959,0.215639,-0.008556,0.366307
16:52:17.222,7.450,149,4.551143,8.990084,-4.844118,1,0.000000,0.000000,2.703042,-0.032810,0.221697,-0.006959,1,5.683879,8.357522,-5.097055,0,1,4.758535,4.830210,8.749701,-4.826319,-1.292551,0.667538,-0.032849,0.002715,0.215681,-0.008546,0.368754
16:52:17.276,7.500,150,4.483636,9.022676,-4.846476,1,0.000000,0.000000,2.684808,-0.016770,0.241988,-0.025959,1,5.683879,8.357522,-5.097055,0,1,4.788092,4.765318,8.782151,-4.816520,-1.297490,0.657272,-0.020313,0.002583,0.215859,-0.008631,0.371610
16:52:17.331,7.550,151,4.415887,9.054760,-4.848842,1,0.000000,0.000000,2.679361,0.029957,0.233714,0.002554,1,5.683879,8.357522,-5.097055,0,1,4.960172,4.699617,8.814961,-4.817519,-1.303066,0.647767,-0.020680,0.002767,0.215980,-0.008556,0.372810
16:52:17.386,7.600,152,4.347899,9.086335,-4.851216,1,0.000000,0.000000,2.718176,-0.062403,0.199611,0.019777,1,5.683879,8.357522,-5.097055,0,1,4.740260,4.635643,8.846246,-4.818486,-1.306421,0.637356,-0.020938,0.002331,0.215870,-0.008369,0.376179
16:52:17.438,7.650,153,4.279676,9.117399,-4.853598,1,0.000000,0.000000,2.686746,0.010082,0.169113,0.009679,1,5.683879,8.357522,-5.097055,0,1,4.860814,4.570900,8.878767,-4.831416,-1.310759,0.628535,-0.034779,0.002383,0.215559,-0.008282,0.377158
16:52:17.488,7.700,154,4.211222,9.147950,-4.855989,1,0.000000,0.000000,2.740968,0.052159,0.191638,-0.035129,1,5.683879,8.357522,-5.097055,0,1,4.769994,4.504849,8.911256,-4.833230,-1.315526,0.619699,-0.035343,0.002711,0.215401,-0.008457,0.377834
16:52:17.541,7.750,155,4.142542,9.177986,-4.858387,1,0.000000,0.000000,2.735667,-0.000976,0.213179,-0.021070,1,5.683879,8.357522,-5.097055,0,1,4.862786,4.439070,8.941965,-4.835041,-1.319816,0.609843,-0.035841,0.002687,0.215386,-0.008539,0.379710
16:52:17.595,7.800,156,4.073638,9.207506,-4.860793,1,0.000000,0.000000,2.741695,-0.019403,0.215042,-0.014777,1,5.683879,8.357522,-5.097055,0,1,4.858411,4.373380,8.971791,-4.843087,-1.323774,0.599682,-0.043364,0.002543,0.215384,-0.008596,0.381734
16:52:17.648,7.850,157,4.004514,9.236508,-4.863207,1,0.000000,0.000000,2.716227,0.015985,0.231192,-0.057790,1,5.683879,8.357522,-5.097055,0,1,4.937622,4.306510,9.001499,-4.845382,-1.328766,0.589852,-0.044064,0.002630,0.215487,-0.008911,0.383077
16:52:17.700,7.900,158,3.935176,9.264991,-4.865628,1,0.000000,0.000000,2.753990,0.022036,0.242736,-0.003135,1,5.683879,8.357522,-5.097055,0,1,4.810842,4.239030,9.030605,-4.847582,-1.333649,0.579745,-0.044476,0.002755,0.215662,-0.008874,0.384174
16:52:17.755,7.950,159,3.865625,9.292952,-4.868057,1,0.000000,0.000000,2.757323,-0.031301,0.285901,0.030819,1,5.683879,8.357522,-5.097055,0,1,4.857965,4.171463,9.057205,-4.852089,-1.338214,0.568172,-0.047385,0.002537,0.216111,-0.008629,0.386482
16:52:17.808,8.000,160,3.795868,9.320391,-4.870493,1,0.000000,0.000000,2.762597,-0.015138,0.219361,0.010655,1,5.683879,8.357522,-5.097055,0,1,4.934196,4.104751,9.084916,-4.854425,-1.342078,0.557884,-0.047712,0.002425,0.216132,-0.008508,0.388736
16:52:17.863,8.050,161,3.725906,9.347305,-4.872936,1,0.000000,0.000000,2.788644,-0.003213,0.226812,-0.009224,1,5.683879,8.357522,-5.097055,0,1,4.845163,4.037438,9.112201,-4.856823,-1.345978,0.547527,-0.048142,0.002390,0.216199,-0.008513,0.390622
16:52:17.914,8.100,162,3.655745,9.373694,-4.875386,1,0.000000,0.000000,2.781737,-0.006088,0.219361,0.054138,1,5.683879,8.357522,-5.097055,0,1,4.894630,3.970160,9.139063,-4.869343,-1.349795,0.537281,-0.059835,0.002336,0.216219,-0.008150,0.392358
16:52:17.965,8.150,163,3.585388,9.399555,-4.877843,1,0.000000,0.000000,2.784715,-0.015112,0.202352,-0.019756,1,5.683879,8.357522,-5.097055,0,1,4.887847,3.903297,9.165592,-4.872371,-1.353188,0.527192,-0.060303,0.002228,0.216133,-0.008221,0.394759
16:52:18.018,8.200,164,3.514839,9.424888,-4.880307,1,0.000000,0.000000,2.779836,-0.021179,0.226446,-0.041460,1,5.683879,8.357522,-5.097055,0,1,4.782537,3.835854,9.190900,-4.875480,-1.356850,0.516621,-0.060900,0.002083,0.216196,-0.008425,0.397271
16:52:18.072,8.250,165,3.444102,9.449691,-4.882777,1,0.000000,0.000000,2.773167,0.030572,0.267448,0.018156,1,5.683879,8.357522,-5.097055,0,1,4.825421,3.765970,9.215910,-4.863131,-1.362051,0.506062,-0.043813,0.002258,0.216512,-0.008225,0.398294
16:52:18.127,8.300,166,3.373181,9.473962,-4.885254,1,0.000000,0.000000,2.819983,0.007733,0.201964,0.032431,1,5.683879,8.357522,-5.097055,0,1,4.817812,3.698001,9.241461,-4.865241,-1.365477,0.496162,-0.044013,0.002292,0.216423,-0.007979,0.399956
16:52:18.178,8.350,167,3.302080,9.497700,-4.887737,1,0.000000,0.000000,2.811766,-0.063140,0.204494,0.000801,1,5.683879,8.357522,-5.097055,0,1,4.891714,3.631644,9.264670,-4.867430,-1.367745,0.485272,-0.044364,0.001894,0.216350,-0.007926,0.404137
16:52:18.230,8.400,168,3.230804,9.520903,-4.890226,1,0.000000,0.000000,2.819036,-0.006732,0.216434,0.024002,1,3.444782,9.503254,-5.011455,1,1,4.870182,3.480617,9.438303,-4.874217,-1.399018,0.525246,-0.049920,0.002000,0.216318,-0.007938,0.263602
16:52:18.282,8.450,169,3.159355,9.543572,-4.892721,1,0.000000,0.000000,2.844883,0.012637,0.221164,0.052090,1,3.444782,9.503254,-5.011455,0,1,4.947627,3.410452,9.464353,-4.876594,-1.402444,0.514957,-0.050012,0.002064,0.216347,-0.007579,0.263791
16:52:18.337,8.500,170,3.087739,9.565703,-4.895222,1,0.000000,0.000000,2.846114,-0.019296,0.246588,-0.067265,1,3.444782,9.503254,-5.011455,0,1,4.962028,3.340188,9.489379,-4.879247,-1.405667,0.504093,-0.050710,0.001936,0.216528,-0.007933,0.264219
16:52:18.390,8.550,171,3.015958,9.587297,-4.897728,1,0.000000,0.000000,2.855839,0.019780,0.239581,-0.012266,1,3.444782,9.503254,-5.011455,0,1,4.885512,3.269445,9.514256,-4.882852,-1.409221,0.493583,-0.052322,0.002042,0.216665,-0.007962,0.264219
16:52:18.445,8.600,172,2.944018,9.608351,-4.900240,1,0.000000,0.000000,2.814396,-0.003121,0.160235,-0.000028,1,3.444782,9.503254,-5.011455,0,1,4.820502,3.199471,9.539221,-4.885461,-1.412281,0.484042,-0.052681,0.002012,0.216331,-0.007915,0.265053
16:52:18.496,8.650,173,2.871922,9.628864,-4.902758,1,0.000000,0.000000,2.855325,-0.018072,0.215142,0.012610,1,3.444782,9.503254,-5.011455,0,1,4.857046,3.129010,9.562985,-4.888056,-1.415160,0.473548,-0.052968,0.001893,0.216324,-0.007795,0.265802
16:52:18.551,8.700,174,2.799674,9.648836,-4.905281,1,0.000000,0.000000,2.852876,0.020619,0.221095,0.014878,1,3.444782,9.503254,-5.011455,0,1,4.888620,3.057908,9.586534,-4.890075,-1.418617,0.463294,-0.052572,0.002003,0.216352,-0.007662,0.266078
16:52:18.606,8.750,175,2.727279,9.668266,-4.907809,1,0.000000,0.000000,2.860975,-0.007173,0.226462,0.029937,1,3.444782,9.503254,-5.011455,0,1,4.939050,2.986908,9.609222,-4.892634,-1.421668,0.452717,-0.052769,0.001949,0.216411,-0.007446,0.266690
16:52:18.660,8.800,176,2.654740,9.687151,-4.910342,1,0.000000,0.000000,2.853185,0.034313,0.169734,0.032078,1,3.444782,9.503254,-5.011455,0,1,4.869900,2.915827,9.632541,-4.895189,-1.424901,0.443273,-0.052936,0.002137,0.216141,-0.007219,0.267167
16:52:18.714,8.850,177,2.582062,9.705492,-4.912880,1,0.000000,0.000000,2.913445,-0.052053,0.183865,0.017821,1,3.444782,9.503254,-5.011455,0,1,4.930635,2.845600,9.654281,-4.907192,-1.426434,0.432775,-0.063875,0.001825,0.215955,-0.007098,0.268528
16:52:18.769,8.900,178,2.509248,9.723286,-4.915423,1,0.000000,0.000000,2.934482,0.004324,0.249743,-0.001516,1,3.444782,9.503254,-5.011455,0,1,4.980202,2.773803,9.675210,-4.910383,-1.429055,0.421772,-0.064202,0.001839,0.216149,-0.007067,0.268935
16:52:18.823,8.950,179,2.436303,9.740534,-4.917970,1,0.000000,0.000000,2.901310,0.048478,0.171387,-0.022767,1,3.444782,9.503254,-5.011455,0,1,4.828668,2.702122,9.697237,-4.913638,-1.432014,0.412318,-0.064636,0.002105,0.215894,-0.007155,0.269357
16:52:18.878,9.000,180,2.363230,9.757234,-4.920522,1,0.000000,0.000000,2.912338,0.075618,0.246537,-0.048042,1,3.444782,9.503254,-5.011455,0,1,4.953107,2.628964,9.718005,-4.927372,-1.435885,0.401991,-0.077026,0.002520,0.216067,-0.007408,0.268701
16:52:18.933,9.050,181,2.290035,9.773385,-4.923078,1,0.000000,0.000000,2.892207,-0.014028,0.163283,0.005913,1,3.444782,9.503254,-5.011455,0,1,4.931139,2.558016,9.738480,-4.931205,-1.437996,0.392190,-0.077332,0.002427,0.215770,-0.007334,0.270367
16:52:18.988,9.100,182,2.216720,9.788986,-4.925638,1,0.000000,0.000000,2.921915,-0.039682,0.214767,-0.025530,1,3.444782,9.503254,-5.011455,0,1,4.925337,2.486766,9.757309,-4.935122,-1.439832,0.381354,-0.077791,0.002192,0.215765,-0.007435,0.272063
16:52:19.043,9.150,183,2.143291,9.804036,-4.928202,1,0.000000,0.000000,2.960084,-0.033474,0.287248,-0.039381,1,3.444782,9.503254,-5.011455,0,1,4.919309,2.414406,9.774415,-4.933397,-1.441942,0.369393,-0.071852,0.001993,0.216162,-0.007598,0.272778
16:52:19.097,9.200,184,2.069751,9.818535,-4.930770,1,0.000000,0.000000,2.940707,-0.011496,0.220884,-0.014505,1,3.444782,9.503254,-5.011455,0,1,4.913967,2.342431,9.792355,-4.937013,-1.444030,0.358639,-0.072264,0.001919,0.216188,-0.007635,0.274005
16:52:19.148,9.250,185,1.996104,9.832482,-4.933342,1,0.000000,0.000000,2.959427,-0.001573,0.217712,-0.039271,1,3.444782,9.503254,-5.011455,0,1,4.951385,2.270222,9.809946,-4.940707,-1.446041,0.347973,-0.072802,0.001900,0.216197,-0.007808,0.275142
16:52:19.200,9.300,186,1.922355,9.845876,-4.935918,1,0.000000,0.000000,2.936956,0.010862,0.211689,-0.001114,1,3.444782,9.503254,-5.011455,0,1,4.973775,2.197754,9.827293,-4.952837,-1.448433,0.337553,-0.082796,0.001949,0.216172,-0.007790,0.276543
16:52:19.255,9.350,187,1.848507,9.858716,-4.938496,1,0.000000,0.000000,2.999048,0.048402,0.221399,0.006787,1,3.444782,9.503254,-5.011455,0,1,5.014967,2.124291,9.844468,-4.956957,-1.450841,0.327170,-0.083118,0.002201,0.216201,-0.007712,0.276768
16:52:19.307,9.400,188,1.774565,9.871001,-4.941079,1,0.000000,0.000000,2.996910,0.029537,0.276183,-0.027759,1,3.444782,9.503254,-5.011455,0,1,4.912060,2.050261,9.859726,-4.961167,-1.453441,0.315758,-0.083601,0.002349,0.216525,-0.007819,0.276656
16:52:19.361,9.450,189,1.700534,9.882731,-4.943664,1,0.000000,0.000000,2.980168,0.036669,0.217174,-0.040659,1,3.444782,9.503254,-5.011455,0,1,4.932526,1.976802,9.875750,-4.955930,-1.455857,0.305365,-0.073387,0.002534,0.216529,-0.007974,0.276629
16:52:19.414,9.500,190,1.626416,9.893905,-4.946252,1,0.000000,0.000000,2.995100,0.035417,0.287035,0.029841,1,3.444782,9.503254,-5.011455,0,1,4.966447,1.902159,9.889708,-4.959536,-1.458682,0.293794,-0.073613,0.002710,0.216906,-0.007773,0.276094
16:52:19.469,9.550,191,1.552217,9.904523,-4.948843,1,0.000000,0.000000,3.004642,0.015458,0.199827,-0.036974,1,3.444782,9.503254,-5.011455,0,1,5.011695,1.829163,9.904717,-4.963290,-1.460366,0.283456,-0.074142,0.002778,0.216815,-0.007927,0.277323
16:52:19.521,9.600,192,1.477940,9.914583,-4.951437,1,0.000000,0.000000,2.992080,0.029855,0.189246,-0.043602,1,3.444782,9.503254,-5.011455,0,1,4.874807,1.755910,9.919702,-4.940424,-1.462342,0.273440,-0.044518,0.002921,0.216669,-0.008057,0.278236
16:52:19.572,9.650,193,1.403590,9.924086,-4.954033,1,0.000000,0.000000,3.003149,-0.006843,0.261463,-0.038691,1,3.444782,9.503254,-5.011455,0,1,5.052708,1.682254,9.931866,-4.942719,-1.464186,0.261895,-0.045058,0.002870,0.216905,-0.008217,0.279002
16:52:19.627,9.700,194,1.329171,9.933031,-4.956632,1,0.000000,0.000000,3.018417,-0.010942,0.218016,-0.040730,1,3.444782,9.503254,-5.011455,0,1,4.964508,1.609332,9.944434,-4.945052,-1.465436,0.251017,-0.045623,0.002797,0.216911,-0.008386,0.280632
16:52:19.680,9.750,195,1.254687,9.941417,-4.959233,1,0.000000,0.000000,3.029993,-0.023783,0.233453,-0.002652,1,3.444782,9.503254,-5.011455,0,1,4.900300,1.536424,9.955841,-4.933738,-1.466462,0.239752,-0.030629,0.002659,0.216997,-0.008328,0.283256
16:52:19.735,9.800,196,1.180142,9.949243,-4.961836,1,0.000000,0.000000,3.049862,0.039068,0.226832,0.008195,1,3.444782,9.503254,-5.011455,0,1,4.966479,1.461946,9.967932,-4.935249,-1.468300,0.229088,-0.030973,0.002848,0.217048,-0.008243,0.283672
16:52:19.788,9.850,197,1.105540,9.956511,-4.964441,1,0.000000,0.000000,3.036877,0.014046,0.229090,-0.000261,1,3.444782,9.503254,-5.011455,0,1,5.034789,1.387984,9.978990,-4.936791,-1.469871,0.218191,-0.031348,0.002905,0.217110,-0.008202,0.284682
16:52:19.839,9.900,198,1.030887,9.963218,-4.967048,1,0.000000,0.000000,3.038868,0.002386,0.229607,-0.005919,1,3.444782,9.503254,-5.011455,0,1,4.952327,1.314248,9.989273,-4.942399,-1.471222,0.207182,-0.036313,0.002903,0.217174,-0.008199,0.285623
16:52:19.891,9.950,199,0.956185,9.969364,-4.969657,1,0.000000,0.000000,3.054121,-0.026696,0.244855,-0.019609,1,3.444782,9.503254,-5.011455,0,1,4.914415,1.240997,9.998032,-4.944246,-1.472013,0.195642,-0.036773,0.002751,0.217316,-0.008256,0.287377
16:52:19.946,10.000,200,0.881439,9.974950,-4.972267,1,0.000000,0.000000,3.062028,-0.018961,0.205698,0.046510,1,3.444782,9.503254,-5.011455,0,1,4.962446,1.168222,10.007479,-4.945981,-1.472528,0.184854,-0.036935,0.002641,0.217257,-0.007981,0.289817
16:52:20.000,10.050,201,0.806653,9.979975,-4.974879,1,0.000000,0.000000,3.057461,-0.008960,0.262715,-0.017116,1,3.444782,9.503254,-5.011455,0,1,4.951030,1.094057,10.014869,-4.948775,-1.473730,0.173121,-0.038415,0.002583,0.217486,-0.008029,0.290689
16:52:20.054,10.100,202,0.731832,9.984438,-4.977492,1,0.000000,0.000000,3.081307,0.068318,0.253203,0.043115,1,3.444782,9.503254,-5.011455,0,1,4.946323,1.017643,10.023419,-4.950612,-1.476008,0.162151,-0.038598,0.002913,0.217666,-0.007774,0.289707
16:52:20.109,10.150,203,0.656979,9.988340,-4.980106,1,0.000000,0.000000,3.114153,-0.003351,0.286322,-0.011392,1,3.444782,9.503254,-5.011455,0,1,4.947482,0.942687,10.028969,-4.952559,-1.476890,0.149956,-0.039003,0.002882,0.218009,-0.007792,0.289894
16:52:20.168,10.200,204,0.582099,9.991679,-4.982720,1,0.000000,0.000000,3.107287,0.021272,0.280003,0.027654,1,3.444782,9.503254,-5.011455,0,1,5.025131,0.867006,10.034558,-4.974867,-1.478248,0.138058,-0.062339,0.002973,0.218318,-0.007658,0.288222
16:52:20.226,10.250,205,0.507196,9.994457,-4.985336,1,0.000000,0.000000,3.088572,0.049858,0.191794,-0.039891,1,0.378397,9.902198,-4.998803,1,1,4.980434,0.492872,9.940567,-4.978716,-1.578673,0.093631,-0.063545,0.003094,0.218462,-0.007660,0.056153
16:52:20.286,10.300,206,0.432275,9.996673,-4.987952,1,0.000000,0.000000,3.104701,0.005670,0.186379,0.018594,1,0.378397,9.902198,-4.998803,0,1,5.062058,0.414083,9.945301,-4.981851,-1.579157,0.083085,-0.063813,0.003107,0.218303,-0.007531,0.054838
16:52:20.340,10.350,207,0.357339,9.998326,-4.990569,1,0.000000,0.000000,3.114156,-0.016200,0.224937,0.018203,1,0.378397,9.902198,-4.998803,0,1,4.930183,0.335271,9.949002,-4.969547,-1.579415,0.072043,-0.046531,0.003012,0.218336,-0.007375,0.057981
16:52:20.395,10.400,208,0.282393,9.999417,-4.993186,1,0.000000,0.000000,3.104601,0.010890,0.199696,-0.005612,1,0.378397,9.902198,-4.998803,0,1,4.983472,0.256314,9.952578,-4.971880,-1.580001,0.061377,-0.046892,0.003051,0.218245,-0.007366,0.057688
16:52:20.448,10.450,209,0.207441,9.999946,-4.995804,1,0.000000,0.000000,3.138840,-0.041394,0.308225,-0.030924,1,0.378397,9.902198,-4.998803,0,1,4.972908,0.177259,9.954093,-4.974280,-1.579948,0.049277,-0.047363,0.002835,0.218683,-0.007480,0.058964
16:52:20.501,10.500,210,0.132486,9.999912,-4.998421,1,0.000000,0.000000,3.172583,0.008649,0.256342,0.012438,1,0.378397,9.902198,-4.998803,0,1,5.035322,0.097963,9.955877,-4.993298,-1.579937,0.037916,-0.066635,0.002863,0.218865,-0.007417,0.056189
16:52:20.555,10.550,211,0.057535,9.999315,-5.001039,1,0.000000,0.000000,3.159350,-0.002963,0.233621,-0.001507,1,0.378397,9.902198,-4.998803,0,1,4.971979,0.018946,9.957280,-4.996629,-1.579862,0.026776,-0.066981,0.002835,0.218936,-0.007389,0.057232
16:52:20.610,10.600,212,-0.017410,9.998156,-5.003656,1,0.000000,0.000000,3.138614,0.022051,0.168991,-0.002792,1,0.378397,9.902198,-4.998803,0,1,4.982097,-0.059975,9.959111,-4.999978,-1.580117,0.016499,-0.067331,0.002927,0.218697,-0.007367,0.057877
16:52:20.662,10.650,213,-0.092345,9.996435,-5.006272,1,0.000000,0.000000,3.145253,-0.009204,0.231850,-0.058204,1,0.378397,9.902198,-4.998803,0,1,5.016623,-0.138908,9.959407,-5.007227,-1.580113,0.005363,-0.072214,0.002869,0.218759,-0.007615,0.059499
16:52:20.714,10.700,214,-0.167264,9.994151,-5.008889,1,0.000000,0.000000,3.185768,-0.014003,0.162464,-0.001538,1,0.378397,9.902198,-4.998803,0,1,5.080905,-0.217291,9.960074,-5.010837,-1.579390,-0.004914,-0.072570,0.002789,0.218492,-0.007586,0.060562
16:52:20.769,10.750,215,-0.242164,9.991305,-5.011504,1,0.000000,0.000000,3.171886,-0.009600,0.210946,0.028413,1,0.378397,9.902198,-4.998803,0,1,4.968482,-0.296024,9.959580,-5.014405,-1.579017,-0.015779,-0.072796,0.002730,0.218456,-0.007417,0.062576
16:52:20.820,10.800,216,-0.317041,9.987897,-5.014119,1,0.000000,0.000000,3.186900,0.000631,0.203884,-0.064119,1,0.378397,9.902198,-4.998803,0,1,5.059360,-0.374833,9.958723,-5.030004,-1.578588,-0.026515,-0.086876,0.002720,0.218388,-0.007705,0.066659
16:52:20.875,10.850,217,-0.391890,9.983928,-5.016733,1,0.000000,0.000000,3.203199,0.005303,0.169340,-0.011874,1,0.378397,9.902198,-4.998803,0,1,4.968687,-0.453442,9.957912,-5.034365,-1.577940,-0.036772,-0.087278,0.002732,0.218158,-0.007724,0.069111
16:52:20.930,10.900,218,-0.466707,9.979397,-5.019346,1,0.000000,0.000000,3.191206,-0.008692,0.214456,0.006374,1,0.378397,9.902198,-4.998803,0,1,5.069479,-0.532117,9.955778,-5.038712,-1.577373,-0.047658,-0.087605,0.002679,0.218141,-0.007659,0.072189
16:52:20.981,10.950,219,-0.541489,9.974304,-5.021957,1,0.000000,0.000000,3.217254,0.076511,0.234830,0.063451,1,0.378397,9.902198,-4.998803,0,1,5.089222,-0.612334,9.953382,-5.056279,-1.577723,-0.058553,-0.102815,0.003022,0.218218,-0.007357,0.081454
16:52:21.034,11.000,220,-0.616229,9.968650,-5.024567,1,0.000000,0.000000,3.241893,0.005238,0.222833,0.025436,1,0.378397,9.902198,-4.998803,0,1,4.962619,-0.691269,9.950118,-5.061374,-1.576824,-0.069480,-0.103054,0.003032,0.218239,-0.007206,0.085610
16:52:21.087,11.050,221,-0.690926,9.962436,-5.027175,1,0.000000,0.000000,3.278424,-0.017075,0.223666,-0.029943,1,0.378397,9.902198,-4.998803,0,1,5.024232,-0.769755,9.946124,-5.066578,-1.575224,-0.080443,-0.103508,0.002940,0.218264,-0.007310,0.089625
16:52:21.142,11.100,222,-0.765574,9.955661,-5.029782,1,0.000000,0.000000,3.209899,0.040017,0.246156,-0.037780,1,0.378397,9.902198,-4.998803,0,1,5.035197,-0.849406,9.941592,-5.061257,-1.575221,-0.091625,-0.092015,0.003109,0.218392,-0.007429,0.090645
16:52:21.197,11.150,223,-0.840168,9.948326,-5.032387,1,0.000000,0.000000,3.225359,0.062964,0.221659,0.011981,1,0.378397,9.902198,-4.998803,0,1,5.015781,-0.929326,9.937139,-5.065835,-1.575315,-0.102400,-0.092311,0.003382,0.218407,-0.007341,0.095881
16:52:21.250,11.200,224,-0.914706,9.940432,-5.034990,1,0.000000,0.000000,3.239243,-0.036888,0.195898,0.003120,1,0.378397,9.902198,-4.998803,0,1,4.963609,-1.007092,9.931879,-5.070440,-1.573783,-0.113074,-0.092635,0.003199,0.218305,-0.007294,0.099323
16:52:21.302,11.250,225,-0.989183,9.931979,-5.037591,1,0.000000,0.000000,3.236129,0.018030,0.196396,0.004588,1,0.378397,9.902198,-4.998803,0,1,4.992609,-1.085890,9.926520,-5.051246,-1.573066,-0.123599,-0.065962,0.003266,0.218206,-0.007197,0.097819
16:52:21.356,11.300,226,-1.063594,9.922966,-5.040189,1,0.000000,0.000000,3.248220,0.014033,0.270280,0.010813,1,0.378397,9.902198,-4.998803,0,1,5.004013,-1.165164,9.919054,-5.054523,-1.572363,-0.135196,-0.066253,0.003315,0.218440,-0.007117,0.102652
16:52:21.411,11.350,227,-1.137935,9.913396,-5.042785,1,0.000000,0.000000,3.275897,-0.051733,0.237642,-0.018194,1,0.378397,9.902198,-4.998803,0,1,4.994619,-1.242707,9.911157,-5.057865,-1.570304,-0.146469,-0.066653,0.003068,0.218526,-0.007166,0.105876
16:52:21.465,11.400,228,-1.212203,9.903268,-5.045379,1,0.000000,0.000000,3.301727,-0.009409,0.211219,-0.043190,1,0.378397,9.902198,-4.998803,0,1,5.008585,-1.320843,9.903625,-5.046055,-1.568509,-0.157203,-0.049922,0.003013,0.218493,-0.007298,0.108643
16:52:21.517,11.450,229,-1.286392,9.892583,-5.047970,1,0.000000,0.000000,3.280121,-0.005110,0.245346,-0.007331,1,0.378397,9.902198,-4.998803,0,1,4.993086,-1.399270,9.894806,-5.048560,-1.567096,-0.168468,-0.050287,0.002977,0.218612,-0.007298,0.112902
16:52:21.569,11.500,230,-1.360500,9.881342,-5.050557,1,0.000000,0.000000,3.268920,-0.028793,0.233473,0.004030,1,0.378397,9.902198,-4.998803,0,1,4.970465,-1.476965,9.885492,-5.051063,-1.565410,-0.179635,-0.050607,0.002836,0.218678,-0.007249,0.116541
16:52:21.623,11.550,231,-1.434521,9.869544,-5.053142,1,0.000000,0.000000,3.302992,0.014701,0.205282,0.019719,1,0.378397,9.902198,-4.998803,0,1,4.963619,-1.555371,9.876667,-5.027562,-1.563942,-0.190215,-0.021442,0.002889,0.218619,-0.007085,0.123733
16:52:21.673,11.600,232,-1.508451,9.857192,-5.055724,1,0.000000,0.000000,3.331676,-0.056887,0.248797,0.038533,1,0.378397,9.902198,-4.998803,0,1,5.002092,-1.632282,9.865619,-5.028570,-1.561165,-0.201587,-0.021626,0.002627,0.218751,-0.006887,0.127053
16:52:21.724,11.650,233,-1.582287,9.844285,-5.058302,1,0.000000,0.000000,3.295199,0.020505,0.291156,0.021537,1,0.378397,9.902198,-4.998803,0,1,5.058247,-1.711388,9.853562,-5.029609,-1.560071,-0.213506,-0.021859,0.002705,0.219067,-0.006764,0.132576
16:52:21.775,11.700,234,-1.656024,9.830824,-5.060877,1,0.000000,0.000000,3.302326,0.009107,0.252857,0.006293,1,0.378397,9.902198,-4.998803,0,1,4.973671,-1.789815,9.841780,-5.014209,-1.558631,-0.224859,-0.003501,0.002733,0.219213,-0.006679,0.142120
16:52:21.826,11.750,235,-1.729658,9.816811,-5.063449,1,0.000000,0.000000,3.339850,-0.001786,0.206599,-0.002691,1,0.378397,9.902198,-4.998803,0,1,5.129092,-1.867462,9.830570,-5.014386,-1.556505,-0.235441,-0.003820,0.002713,0.219159,-0.006662,0.146923
16:52:21.880,11.800,236,-1.803185,9.802245,-5.066016,1,0.000000,0.000000,3.336030,-0.007626,0.288435,0.024582,1,0.378397,9.902198,-4.998803,0,1,5.070496,-1.945567,9.816514,-5.014531,-1.554508,-0.247355,-0.004032,0.002669,0.219457,-0.006529,0.152075
16:52:21.931,11.850,237,-1.876601,9.787128,-5.068580,1,0.000000,0.000000,3.372019,0.003351,0.170772,-0.004662,1,0.378397,9.902198,-4.998803,0,1,5.031930,-2.022816,9.805269,-5.019705,-1.552038,-0.257277,-0.009972,0.002672,0.219248,-0.006530,0.155231
16:52:21.985,11.900,238,-1.949901,9.771460,-5.071140,1,0.000000,0.000000,3.352490,-0.052341,0.236352,-0.029091,1,0.378397,9.902198,-4.998803,0,1,4.988235,-2.098916,9.791142,-5.020247,-1.549010,-0.268419,-0.010380,0.002437,0.219321,-0.006625,0.158691
16:52:22.036,11.950,239,-2.023082,9.755242,-5.073695,1,0.000000,0.000000,3.361656,-0.044356,0.264951,0.048559,1,0.378397,9.902198,-4.998803,0,1,5.126995,-2.175329,9.775667,-5.020678,-1.546057,-0.279995,-0.010500,0.002238,0.219515,-0.006393,0.162503
16:52:22.089,12.000,240,-2.096139,9.738476,-5.076247,1,0.000000,0.000000,3.381618,-0.001265,0.184777,0.023742,1,0.378397,9.902198,-4.998803,0,1,5.042007,-2.252145,9.762428,-5.027179,-1.543429,-0.290113,-0.017516,0.002224,0.219368,-0.006277,0.165285
16:52:22.143,12.050,241,-2.169069,9.721162,-5.078793,1,0.000000,0.000000,3.347747,-0.008611,0.253481,-0.040199,1,0.378397,9.902198,-4.998803,0,1,5.087216,-2.329239,9.746489,-5.028115,-1.541177,-0.301464,-0.017951,0.002178,0.219512,-0.006418,0.169895
