timestamp,sim_time,iteration,true_pos_x,true_pos_y,true_pos_z,imu_valid,imu_roll,imu_pitch,imu_yaw,imu_acc_x,imu_acc_y,imu_acc_z,usbl_valid,usbl_pos_x,usbl_pos_y,usbl_pos_z,usbl_fix_used,depth_valid,depth_measurement,kf_pos_x,kf_pos_y,kf_pos_z,kf_vel_x,kf_vel_y,kf_vel_z,kf_acc_x,kf_acc_y,kf_acc_z,error_norm
17:22:12,0.000,0,10.168406,0.000000,-4.647959,1,0.000000,0.000000,1.566320,0.006169,0.250253,-0.034647,0,0.000000,0.000000,0.000000,0,1,4.630732,10.168093,0.000009,-4.630775,-0.012500,0.000364,-0.000871,0.006164,0.250028,-0.034616,0.017187
17:22:12,0.050,1,10.168125,0.074999,-4.647969,1,0.000000,0.000000,1.546094,-0.007466,0.243941,0.007780,0,0.000000,0.000000,0.000000,0,1,4.727373,10.167171,0.000009,-4.630782,-0.024696,0.000296,-0.000485,-0.000648,0.246986,-0.013427,0.076941
17:22:12,0.100,2,10.167281,0.149994,-4.647998,1,0.000000,0.000000,1.586699,0.005593,0.237445,-0.001998,0,0.000000,0.000000,0.000000,0,1,4.536166,10.165663,0.000041,-4.630785,-0.036565,0.000377,-0.000585,0.001432,0.243807,-0.009619,0.150947
17:22:12,0.150,3,10.165876,0.224981,-4.648048,1,0.000000,0.000000,1.587179,0.026121,0.227931,-0.054270,0,0.000000,0.000000,0.000000,0,1,4.652671,10.163610,0.000179,-4.650703,-0.047962,0.001483,-0.121234,0.007603,0.239838,-0.020782,0.224829
17:22:13,0.200,4,10.163909,0.299955,-4.648116,1,0.000000,0.000000,1.579355,-0.029043,0.249473,-0.002820,0,0.000000,0.000000,0.000000,0,1,4.613242,10.160852,0.000032,-4.656762,-0.060434,-0.000072,-0.121743,0.000275,0.241765,-0.017191,0.300064
17:22:13,0.250,5,10.161380,0.374912,-4.648205,1,0.000000,0.000000,1.593851,0.035186,0.236532,-0.018181,0,0.000000,0.000000,0.000000,0,1,4.621608,10.157567,0.000283,-4.662874,-0.072268,0.001409,-0.122635,0.006093,0.240893,-0.017356,0.374936
17:22:13,0.300,6,10.158289,0.449848,-4.648312,1,0.000000,0.000000,1.620259,-0.004224,0.247529,-0.060724,0,0.000000,0.000000,0.000000,0,1,4.652894,10.153595,0.000256,-4.656042,-0.084638,0.000598,-0.073561,0.004619,0.241841,-0.023546,0.449683
17:22:13,0.350,7,10.154636,0.524759,-4.648440,1,0.000000,0.000000,1.609444,-0.017058,0.214733,-0.000333,0,0.000000,0.000000,0.000000,0,1,4.674601,10.149333,0.000064,-4.659707,-0.095359,-0.000701,-0.074127,0.001910,0.238453,-0.020644,0.524842
17:22:13,0.400,8,10.150422,0.599640,-4.648587,1,0.000000,0.000000,1.634131,0.063162,0.231476,-0.016819,0,0.000000,0.000000,0.000000,0,1,4.652754,10.144340,0.000702,-4.663428,-0.106978,0.001708,-0.075048,0.008715,0.237678,-0.020219,0.599152
17:22:13,0.450,9,10.145647,0.674488,-4.648754,1,0.000000,0.000000,1.643216,-0.010867,0.209445,-0.043739,0,0.000000,0.000000,0.000000,0,1,4.740987,10.139050,0.000536,-4.718176,-0.117427,0.000341,-0.221318,0.006757,0.234855,-0.022605,0.677550
17:22:13,0.500,10,10.140311,0.749297,-4.648940,1,0.000000,0.000000,1.643517,0.005516,0.191137,0.047382,0,0.000000,0.000000,0.000000,0,1,4.685296,10.133486,0.000531,-4.729109,-0.126977,-0.000171,-0.220662,0.006644,0.230880,-0.016243,0.753076
17:22:13,0.550,11,10.134415,0.824064,-4.649146,1,0.000000,0.000000,1.659830,-0.017578,0.183146,-0.035596,0,0.000000,0.000000,0.000000,0,1,4.672076,10.127571,0.000154,-4.740228,-0.136079,-0.001993,-0.222008,0.004626,0.226903,-0.017855,0.828958
17:22:13,0.600,12,10.127958,0.898785,-4.649372,1,0.000000,0.000000,1.687486,-0.009618,0.267864,-0.025142,0,0.000000,0.000000,0.000000,0,1,4.631000,10.119824,-0.000217,-4.679564,-0.149389,-0.003880,-0.062909,0.003530,0.230054,-0.018337,0.899546
17:22:13,0.650,13,10.120941,0.973456,-4.649617,1,0.000000,0.000000,1.671022,-0.038169,0.289121,-0.059784,0,0.000000,0.000000,0.000000,0,1,4.702179,10.111052,-0.001189,-4.682851,-0.163705,-0.007070,-0.064871,0.000552,0.234272,-0.021297,0.975261
17:22:13,0.700,14,10.113365,1.048072,-4.649881,1,0.000000,0.000000,1.622291,0.030786,0.212886,-0.012216,0,0.000000,0.000000,0.000000,0,1,4.653341,10.102960,-0.000980,-4.686085,-0.174406,-0.006088,-0.065692,0.002567,0.232847,-0.020692,1.049727
17:22:13,0.750,15,10.105230,1.122628,-4.650165,1,0.000000,0.000000,1.668992,0.030309,0.216402,0.071627,0,0.000000,0.000000,0.000000,0,1,4.623453,10.094262,-0.000746,-4.654627,-0.185253,-0.005677,-0.000752,0.004301,0.231819,-0.014866,1.123437
17:22:13,0.800,16,10.096536,1.197122,-4.650469,1,0.000000,0.000000,1.695832,0.066243,0.235753,-0.051906,0,0.000000,0.000000,0.000000,0,1,4.632354,10.084587,0.000252,-4.654810,-0.197142,-0.003830,-0.002422,0.007944,0.232050,-0.017045,1.196938
17:22:13,0.850,17,10.087284,1.271548,-4.650792,1,0.000000,0.000000,1.671090,-0.044601,0.284239,0.005774,0,0.000000,0.000000,0.000000,0,1,4.627406,10.073307,-0.001179,-4.654850,-0.211182,-0.007363,-0.002672,0.005025,0.234950,-0.015777,1.272811
17:22:13,0.900,18,10.077474,1.345903,-4.651135,1,0.000000,0.000000,1.671903,0.009015,0.185417,-0.015782,0,0.000000,0.000000,0.000000,0,1,4.661914,10.063627,-0.001434,-4.658234,-0.220436,-0.007955,-0.008602,0.005235,0.232343,-0.015785,1.347427
17:22:13,0.950,19,10.067108,1.420182,-4.651497,1,0.000000,0.000000,1.701928,0.011456,0.225066,-0.048273,0,0.000000,0.000000,0.000000,0,1,4.615747,10.052492,-0.001701,-4.658814,-0.231644,-0.008882,-0.010198,0.005546,0.231979,-0.017409,1.421977
17:22:13,1.000,20,10.056185,1.494381,-4.651878,1,0.000000,0.000000,1.704953,-0.041989,0.205503,-0.067629,0,0.000000,0.000000,0.000000,0,1,4.650429,10.041366,-0.003394,-4.659599,-0.241701,-0.012441,-0.012375,0.003283,0.230718,-0.019800,1.497868
17:22:13,1.050,21,10.044706,1.568496,-4.652279,1,0.000000,0.000000,1.699906,-0.023486,0.240494,-0.010372,0,0.000000,0.000000,0.000000,0,1,4.662532,10.028758,-0.004795,-4.661179,-0.253557,-0.015131,-0.014518,0.002066,0.231163,-0.019374,1.573398
17:22:14,1.100,22,10.032672,1.642523,-4.652699,1,0.000000,0.000000,1.724860,-0.025091,0.246778,0.008854,0,0.000000,0.000000,0.000000,0,1,4.694159,10.015382,-0.006393,-4.661800,-0.265674,-0.018211,-0.014792,0.000885,0.231841,-0.018148,1.649032
17:22:14,1.150,23,10.020083,1.716458,-4.653139,1,0.000000,0.000000,1.722667,-0.015926,0.279195,0.026202,0,0.000000,0.000000,0.000000,0,1,4.640895,10.000418,-0.007918,-4.662315,-0.279434,-0.020937,-0.014561,0.000185,0.233814,-0.016300,1.724512
17:22:14,1.200,24,10.006941,1.790296,-4.653598,1,0.000000,0.000000,1.732228,0.003810,0.227510,0.010078,0,0.000000,0.000000,0.000000,0,1,4.664438,9.986349,-0.008888,-4.663491,-0.290675,-0.022601,-0.015456,0.000330,0.233562,-0.015248,1.799329
17:22:14,1.250,25,9.993246,1.864033,-4.654076,1,0.000000,0.000000,1.776633,-0.026650,0.226293,-0.091968,0,0.000000,0.000000,0.000000,0,1,4.671575,9.971811,-0.010940,-4.664672,-0.301635,-0.026284,-0.018083,-0.000708,0.233283,-0.018197,1.875125
17:22:14,1.300,26,9.978998,1.937665,-4.654573,1,0.000000,0.000000,1.775023,0.005468,0.239832,0.012999,0,0.000000,0.000000,0.000000,0,1,4.629852,9.956212,-0.012118,-4.665408,-0.313403,-0.028406,-0.018205,-0.000479,0.233525,-0.017042,1.949947
17:22:14,1.350,27,9.964199,2.011189,-4.655090,1,0.000000,0.000000,1.757255,-0.009856,0.233120,-0.017497,0,0.000000,0.000000,0.000000,0,1,4.575020,9.940288,-0.013920,-4.633278,-0.324809,-0.031058,0.021152,-0.000814,0.233511,-0.016908,2.025367
17:22:14,1.400,28,9.948849,2.084599,-4.655626,1,0.000000,0.000000,1.757396,0.026136,0.244953,-0.033791,0,0.000000,0.000000,0.000000,0,1,4.720168,9.923289,-0.014579,-4.632335,-0.336970,-0.031979,0.019903,0.000115,0.233905,-0.017490,2.099463
17:22:14,1.450,29,9.932949,2.157892,-4.656181,1,0.000000,0.000000,1.784070,-0.024009,0.273781,-0.029884,1,10.145841,2.005474,-4.610942,1,1,4.664483,10.144195,1.991586,-4.630368,-0.238425,0.893196,0.020208,0.000137,0.233901,-0.017485,0.270090
17:22:14,1.500,30,9.916500,2.231064,-4.656756,1,0.000000,0.000000,1.757326,-0.067797,0.225352,-0.033702,1,10.145841,2.005474,-4.610942,0,1,4.668117,10.132017,2.036063,-4.642250,-0.249343,0.888750,0.004025,-0.002128,0.233616,-0.018095,0.291004
17:22:14,1.550,31,9.899504,2.304110,-4.657349,1,0.000000,0.000000,1.792733,0.015861,0.195462,-0.024646,1,10.145841,2.005474,-4.610942,0,1,4.696056,10.119394,2.080514,-4.642111,-0.259473,0.886866,0.002962,-0.001547,0.232386,-0.018306,0.313973
17:22:14,1.600,32,9.881960,2.377026,-4.657962,1,0.000000,0.000000,1.782048,0.056679,0.224581,0.018863,1,10.145841,2.005474,-4.610942,0,1,4.681381,10.106140,2.125099,-4.641724,-0.270811,0.886430,0.002971,0.000272,0.232142,-0.017146,0.337620
17:22:14,1.650,33,9.863870,2.449809,-4.658594,1,0.000000,0.000000,1.795453,-0.021238,0.263981,-0.071015,1,10.145841,2.005474,-4.610942,0,1,4.703769,10.092120,2.169185,-4.661696,-0.283156,0.882943,-0.021715,-0.000380,0.233107,-0.018899,0.361742
17:22:14,1.700,34,9.845236,2.522454,-4.659245,1,0.000000,0.000000,1.814271,0.058028,0.232360,-0.007671,1,10.145841,2.005474,-4.610942,0,1,4.699245,10.077624,2.213747,-4.662732,-0.294728,0.882212,-0.022396,0.001338,0.233085,-0.018569,0.386415
17:22:14,1.750,35,9.826057,2.594957,-4.659914,1,0.000000,0.000000,1.825377,-0.023519,0.213610,0.018188,1,10.145841,2.005474,-4.610942,0,1,4.624287,10.062829,2.257566,-4.663601,-0.305188,0.878543,-0.022434,0.000628,0.232528,-0.017520,0.412198
17:22:14,1.800,36,9.806335,2.667314,-4.660603,1,0.000000,0.000000,1.864913,0.022968,0.241635,-0.014325,1,10.145841,2.005474,-4.610942,0,1,4.638164,10.047154,2.301649,-4.656499,-0.316780,0.875969,-0.013964,0.001248,0.232781,-0.017376,0.437860
17:22:14,1.850,37,9.786072,2.739521,-4.661311,1,0.000000,0.000000,1.849846,0.004003,0.176747,0.015094,1,10.145841,2.005474,-4.610942,0,1,4.715194,10.031750,2.345502,-4.656998,-0.325937,0.873244,-0.014094,0.001323,0.231267,-0.016500,0.464357
17:22:14,1.900,38,9.765268,2.811575,-4.662037,1,0.000000,0.000000,1.835591,-0.028179,0.193975,-0.014976,1,10.145841,2.005474,-4.610942,0,1,4.610877,10.015767,2.388741,-4.657712,-0.335555,0.869405,-0.014883,0.000547,0.230286,-0.016460,0.491484
17:22:14,1.950,39,9.743925,2.883469,-4.662782,1,0.000000,0.000000,1.826855,0.026930,0.251617,-0.043039,1,10.145841,2.005474,-4.610942,0,1,4.776907,9.998315,2.432509,-4.694495,-0.347660,0.867374,-0.056490,0.001223,0.230832,-0.017399,0.518734
17:22:15,2.000,40,9.722043,2.955202,-4.663547,1,0.000000,0.000000,1.852285,0.058476,0.219608,-0.043719,1,10.145841,2.005474,-4.610942,0,1,4.638583,9.980707,2.476816,-4.697526,-0.358699,0.866455,-0.057936,0.002654,0.230552,-0.018056,0.544899
17:22:15,2.050,41,9.699624,3.026769,-4.664329,1,0.000000,0.000000,1.878135,-0.056115,0.219135,0.030489,1,10.145841,2.005474,-4.610942,0,1,4.624355,9.962870,2.518985,-4.700060,-0.368913,0.860938,-0.057743,0.001221,0.230273,-0.016875,0.573078
17:22:15,2.100,42,9.676669,3.098165,-4.665131,1,0.000000,0.000000,1.868762,-0.003037,0.260686,0.006143,1,10.145841,2.005474,-4.610942,0,1,4.624868,9.943548,2.561773,-4.679555,-0.381070,0.857251,-0.032036,0.001120,0.230998,-0.016153,0.599290
17:22:15,2.150,43,9.653180,3.169387,-4.665951,1,0.000000,0.000000,1.888928,0.019356,0.263750,0.007403,1,10.145841,2.005474,-4.610942,0,1,4.658391,9.923454,2.604833,-4.681009,-0.393441,0.854167,-0.032350,0.001544,0.231759,-0.015607,0.626095
17:22:15,2.200,44,9.629158,3.240430,-4.666790,1,0.000000,0.000000,1.870271,-0.016456,0.203875,0.014968,1,10.145841,2.005474,-4.610942,0,1,4.602361,9.904209,2.647142,-4.682402,-0.403332,0.850324,-0.032470,0.001135,0.231125,-0.014915,0.654131
17:22:15,2.250,45,9.604604,3.311292,-4.667648,1,0.000000,0.000000,1.901655,-0.041608,0.187585,0.003953,1,10.145841,2.005474,-4.610942,0,1,4.593627,9.884994,2.688689,-4.657284,-0.412280,0.845281,-0.002938,0.000185,0.230158,-0.014293,0.682906
17:22:15,2.300,46,9.579519,3.381967,-4.668524,1,0.000000,0.000000,1.909404,-0.004336,0.243157,0.058473,1,10.145841,2.005474,-4.610942,0,1,4.690372,9.863791,2.730688,-4.656931,-0.423611,0.841194,-0.002201,0.000087,0.230441,-0.012717,0.710711
17:22:15,2.350,47,9.553906,3.452452,-4.669418,1,0.000000,0.000000,1.876658,0.031376,0.168256,-0.003405,1,10.145841,2.005474,-4.610942,0,1,4.694745,9.843889,2.773782,-4.656983,-0.432402,0.839428,-0.002645,0.000752,0.229117,-0.012520,0.738131
17:22:15,2.400,48,9.527764,3.522742,-4.670331,1,0.000000,0.000000,1.934671,-0.018852,0.185189,-0.003440,1,10.145841,2.005474,-4.610942,0,1,4.619929,9.823347,2.815298,-4.646192,-0.441240,0.834960,0.009145,0.000344,0.228202,-0.012248,0.767091
17:22:15,2.450,49,9.501097,3.592835,-4.671262,1,0.000000,0.000000,1.921226,-0.001952,0.208778,-0.029064,1,10.145841,2.005474,-4.610942,0,1,4.665965,9.801609,2.856976,-4.645869,-0.451178,0.831124,0.008214,0.000297,0.227806,-0.012589,0.795261
17:22:15,2.500,50,9.473905,3.662725,-4.672212,1,0.000000,0.000000,1.971156,0.044272,0.207662,-0.044927,1,10.145841,2.005474,-4.610942,0,1,4.648885,9.779186,2.899903,-4.645728,-0.461238,0.828606,0.006952,0.001176,0.227403,-0.013233,0.822068
17:22:15,2.550,51,9.446190,3.732410,-4.673179,1,0.000000,0.000000,1.950234,-0.006684,0.225573,-0.026377,1,10.145841,2.005474,-4.610942,0,1,4.709275,9.755964,2.940983,-4.664077,-0.471682,0.824153,-0.014929,0.001022,0.227367,-0.013631,0.849940
17:22:15,2.600,52,9.417954,3.801884,-4.674166,1,0.000000,0.000000,1.961789,0.069805,0.241100,-0.052760,1,10.145841,2.005474,-4.610942,0,1,4.644994,9.731245,2.984339,-4.665111,-0.483355,0.822491,-0.016311,0.002345,0.227631,-0.014380,0.875564
17:22:15,2.650,53,9.389197,3.871145,-4.675170,1,0.000000,0.000000,1.968362,0.008928,0.232804,-0.008948,1,10.145841,2.005474,-4.610942,0,1,4.613079,9.706590,3.025557,-4.665903,-0.494160,0.818410,-0.016930,0.002469,0.227729,-0.014278,0.903240
17:22:15,2.700,54,9.359923,3.940188,-4.676192,1,0.000000,0.000000,1.971782,0.009171,0.212802,0.018631,1,10.145841,2.005474,-4.610942,0,1,4.668493,9.682122,3.066712,-4.667070,-0.504154,0.814483,-0.017673,0.002593,0.227452,-0.013676,0.931051
17:22:15,2.750,55,9.330131,4.009009,-4.677232,1,0.000000,0.000000,1.985663,-0.003355,0.242514,0.023245,1,10.145841,2.005474,-4.610942,0,1,4.714500,9.656122,3.106995,-4.667723,-0.515164,0.809639,-0.017732,0.002485,0.227726,-0.013009,0.959161
17:22:15,2.800,56,9.299825,4.077605,-4.678291,1,0.000000,0.000000,1.951323,0.024889,0.227933,0.009018,1,10.145841,2.005474,-4.610942,0,1,4.602785,9.629928,3.148253,-4.668461,-0.526002,0.806427,-0.017997,0.002885,0.227730,-0.012618,0.986286
17:22:15,2.850,57,9.269005,4.145971,-4.679367,1,0.000000,0.000000,1.966860,0.019513,0.248449,-0.021590,1,10.145841,2.005474,-4.610942,0,1,4.724118,9.602397,3.188986,-4.685302,-0.537559,0.802640,-0.036746,0.003177,0.228093,-0.012889,1.013413
17:22:16,2.900,58,9.237673,4.214104,-4.680461,1,0.000000,0.000000,2.025689,-0.048841,0.206743,-0.040821,1,10.145841,2.005474,-4.610942,0,1,4.732309,9.576568,3.226986,-4.687337,-0.546499,0.795875,-0.037836,0.002280,0.227725,-0.013367,1.043695
17:22:16,2.950,59,9.205832,4.282000,-4.681573,1,0.000000,0.000000,2.009186,0.031747,0.211211,0.000015,1,10.145841,2.005474,-4.610942,0,1,4.670748,9.549453,3.268071,-4.689150,-0.556482,0.792506,-0.038283,0.002780,0.227445,-0.013142,1.070601
17:22:16,3.000,60,9.173483,4.349655,-4.682703,1,0.000000,0.000000,1.995133,-0.007040,0.258860,0.008858,1,10.145841,2.005474,-4.610942,0,1,4.689272,9.520056,3.306874,-4.690432,-0.568080,0.787231,-0.038027,0.002616,0.227969,-0.012774,1.098893
17:22:16,3.050,61,9.140628,4.417066,-4.683850,1,0.000000,0.000000,1.990153,0.021738,0.243550,0.038213,1,10.145841,2.005474,-4.610942,0,1,4.697246,9.490505,3.346858,-4.692030,-0.579377,0.783327,-0.037897,0.002929,0.228224,-0.011945,1.125978
17:22:16,3.100,62,9.107268,4.484228,-4.685015,1,0.000000,0.000000,2.016014,0.006705,0.211090,-0.039328,1,10.145841,2.005474,-4.610942,0,1,4.596261,9.462048,3.386243,-4.694130,-0.589079,0.778880,-0.038923,0.002990,0.227948,-0.012383,1.153917
17:22:16,3.150,63,9.073406,4.551138,-4.686197,1,0.000000,0.000000,2.038558,-0.018223,0.141551,-0.021089,1,10.145841,2.005474,-4.610942,0,1,4.795869,9.436721,3.424879,-4.725039,-0.595561,0.773934,-0.072444,0.002654,0.226577,-0.012714,1.184047
17:22:16,3.200,64,9.039043,4.617792,-4.687397,1,0.000000,0.000000,2.025455,-0.034866,0.216436,-0.081731,1,10.145841,2.005474,-4.610942,0,1,4.721937,9.407571,3.461695,-4.729093,-0.604973,0.767652,-0.074063,0.002067,0.226418,-0.013784,1.214129
17:22:16,3.250,65,9.004182,4.684186,-4.688615,1,0.000000,0.000000,2.047784,0.004259,0.262301,-0.029906,1,9.107803,4.782860,-4.643798,1,1,4.708788,9.113286,4.756740,-4.729354,-0.756433,1.435981,-0.070804,0.002124,0.226418,-0.013761,0.137213
17:22:16,3.300,66,8.968824,4.750317,-4.689849,1,0.000000,0.000000,2.026749,0.030663,0.198807,0.019650,1,9.107803,4.782860,-4.643798,0,1,4.687834,9.075243,4.828481,-4.720049,-0.766399,1.431681,-0.056632,0.002563,0.225994,-0.013168,0.135450
17:22:16,3.350,67,8.932971,4.816180,-4.691101,1,0.000000,0.000000,2.084954,0.046305,0.239126,0.010039,1,9.107803,4.782860,-4.643798,0,1,4.748397,9.036608,4.900027,-4.722765,-0.776773,1.426828,-0.056976,0.003225,0.226193,-0.012820,0.137017
17:22:16,3.400,68,8.896626,4.881772,-4.692371,1,0.000000,0.000000,2.091920,0.007877,0.256750,0.023025,1,9.107803,4.782860,-4.643798,0,1,4.633223,8.997419,4.971213,-4.725403,-0.787175,1.421214,-0.057113,0.003295,0.226649,-0.012289,0.138744
17:22:16,3.450,69,8.859790,4.947090,-4.693657,1,0.000000,0.000000,2.085877,-0.020513,0.264416,-0.072058,1,9.107803,4.782860,-4.643798,0,1,4.644023,8.957695,5.041990,-4.704637,-0.797571,1.415134,-0.031171,0.002945,0.227204,-0.013010,0.136791
17:22:16,3.500,70,8.822466,5.012130,-4.694960,1,0.000000,0.000000,2.088469,0.020212,0.215599,-0.008345,1,9.107803,4.782860,-4.643798,0,1,4.791731,8.917593,5.112711,-4.706186,-0.807443,1.410009,-0.031761,0.003195,0.227036,-0.012943,0.138895
17:22:16,3.550,71,8.784655,5.076888,-4.696281,1,0.000000,0.000000,2.066220,-0.042383,0.218942,-0.011333,1,9.107803,4.782860,-4.643798,0,1,4.708442,8.877107,5.182846,-4.707780,-0.817039,1.404036,-0.032387,0.002544,0.226920,-0.012920,0.141092
17:22:16,3.600,72,8.746359,5.141360,-4.697618,1,0.000000,0.000000,2.076757,0.009879,0.212403,0.015114,1,9.107803,4.782860,-4.643798,0,1,4.701093,8.836079,5.252994,-4.706902,-0.826828,1.398884,-0.029987,0.002647,0.226716,-0.012515,0.143520
17:22:16,3.650,73,8.707582,5.205543,-4.698972,1,0.000000,0.000000,2.136474,0.034590,0.278734,-0.022524,1,9.107803,4.782860,-4.643798,0,1,4.755045,8.794042,5.322872,-4.708470,-0.837638,1.393084,-0.030736,0.003091,0.227438,-0.012653,0.146054
17:22:16,3.700,74,8.668325,5.269433,-4.700343,1,0.000000,0.000000,2.119999,0.007358,0.206765,0.041306,1,9.107803,4.782860,-4.643798,0,1,4.613350,8.752065,5.392479,-4.709707,-0.847079,1.387522,-0.030679,0.003149,0.227155,-0.011920,0.149132
17:22:16,3.750,75,8.628589,5.333027,-4.701731,1,0.000000,0.000000,2.116093,-0.000692,0.291469,-0.004423,1,9.107803,4.782860,-4.643798,0,1,4.763954,8.708922,5.461456,-4.726367,-0.858023,1.381165,-0.048459,0.003097,0.228024,-0.011907,0.153474
17:22:16,3.800,76,8.588379,5.396320,-4.703135,1,0.000000,0.000000,2.135872,0.020414,0.242375,0.051832,1,9.107803,4.782860,-4.643798,0,1,4.670550,8.665576,5.530474,-4.728481,-0.868150,1.375394,-0.048309,0.003328,0.228215,-0.011065,0.156841
17:22:17,3.850,77,8.547695,5.459311,-4.704556,1,0.000000,0.000000,2.152421,-0.026270,0.237144,-0.001965,1,9.107803,4.782860,-4.643798,0,1,4.850803,8.621961,5.598749,-4.730859,-0.877688,1.368623,-0.048752,0.002939,0.228333,-0.010947,0.160157
17:22:17,3.900,78,8.506540,5.521994,-4.705993,1,0.000000,0.000000,2.148396,-0.005303,0.260816,-0.024002,1,9.107803,4.782860,-4.643798,0,1,4.693753,8.577512,5.666787,-4.721963,-0.887887,1.362062,-0.036454,0.002832,0.228755,-0.011052,0.162041
17:22:17,3.950,79,8.464916,5.584366,-4.707446,1,0.000000,0.000000,2.173500,0.011468,0.197602,0.000680,1,9.107803,4.782860,-4.643798,0,1,4.739101,8.533209,5.734989,-4.723742,-0.896858,1.356151,-0.036876,0.002942,0.228355,-0.010903,0.166182
17:22:17,4.000,80,8.422826,5.646425,-4.708916,1,0.000000,0.000000,2.142106,-0.032303,0.182107,0.051389,1,9.107803,4.782860,-4.643798,0,1,4.752068,8.488903,5.802444,-4.725265,-0.905290,1.349836,-0.036695,0.002496,0.227770,-0.010123,0.170222
17:22:17,4.050,81,8.380272,5.708166,-4.710402,1,0.000000,0.000000,2.185970,-0.013044,0.224620,-0.037787,1,9.107803,4.782860,-4.643798,0,1,4.648737,8.443537,5.869581,-4.704589,-0.914448,1.343083,-0.011749,0.002302,0.227731,-0.010347,0.173468
17:22:17,4.100,82,8.337256,5.769585,-4.711904,1,0.000000,0.000000,2.177456,-0.008999,0.226785,-0.048119,1,9.107803,4.782860,-4.643798,0,1,4.725978,8.397663,5.936418,-4.705366,-0.923737,1.336465,-0.012669,0.002163,0.227719,-0.010808,0.177553
17:22:17,4.150,83,8.293782,5.830680,-4.713422,1,0.000000,0.000000,2.169503,0.019299,0.240184,-0.019618,1,9.107803,4.782860,-4.643798,0,1,4.750383,8.350935,6.003263,-4.706058,-0.933635,1.330365,-0.013307,0.002372,0.227871,-0.010914,0.181949
17:22:17,4.200,84,8.249850,5.891448,-4.714957,1,0.000000,0.000000,2.215688,-0.046333,0.206131,-0.029832,1,9.107803,4.782860,-4.643798,0,1,4.737539,8.304718,6.068980,-4.715719,-0.941852,1.322819,-0.024148,0.001785,0.227609,-0.011184,0.185819
17:22:17,4.250,85,8.205465,5.951883,-4.716507,1,0.000000,0.000000,2.182332,0.038405,0.275056,0.005121,1,9.107803,4.782860,-4.643798,0,1,4.587617,8.256312,6.135226,-4.716868,-0.952612,1.316629,-0.024540,0.002221,0.228174,-0.010992,0.190263
17:22:17,4.300,86,8.160627,6.011984,-4.718072,1,0.000000,0.000000,2.210908,0.038372,0.211967,-0.018094,1,9.107803,4.782860,-4.643798,0,1,4.738193,8.208453,6.201662,-4.718143,-0.961874,1.310852,-0.025166,0.002646,0.227983,-0.011075,0.195614
17:22:17,4.350,87,8.115341,6.071747,-4.719654,1,0.000000,0.000000,2.195875,0.008749,0.242396,0.001773,1,9.107803,4.782860,-4.643798,0,1,4.713847,8.159806,6.267034,-4.717755,-0.971573,1.304261,-0.023773,0.002717,0.228151,-0.010919,0.200294
17:22:17,4.400,88,8.069607,6.131169,-4.721251,1,0.000000,0.000000,2.222959,-0.026881,0.203074,-0.014411,1,9.107803,4.782860,-4.643798,0,1,4.864061,8.111750,6.331720,-4.718973,-0.979842,1.297083,-0.024353,0.002377,0.227862,-0.010959,0.204944
17:22:17,4.450,89,8.023430,6.190245,-4.722863,1,0.000000,0.000000,2.214910,0.028449,0.237600,-0.011811,1,9.107803,4.782860,-4.643798,0,1,4.763879,8.062087,6.396847,-4.720208,-0.989537,1.290799,-0.024910,0.002673,0.227973,-0.010969,0.210204
17:22:17,4.500,90,7.976811,6.248973,-4.724491,1,0.000000,0.000000,2.195023,0.017180,0.225137,0.012368,1,9.107803,4.782860,-4.643798,0,1,4.723480,8.012296,6.461560,-4.721963,-0.998971,1.284600,-0.025908,0.002836,0.227941,-0.010712,0.215542
17:22:17,4.550,91,7.929753,6.307350,-4.726135,1,0.000000,0.000000,2.233508,0.027677,0.212015,0.019818,1,9.107803,4.782860,-4.643798,0,1,4.701733,7.962218,6.526331,-4.723146,-1.007981,1.278446,-0.026155,0.003112,0.227764,-0.010377,0.221395
17:22:17,4.600,92,7.882259,6.365372,-4.727793,1,0.000000,0.000000,2.268244,-0.064476,0.228675,-0.038570,1,9.107803,4.782860,-4.643798,0,1,4.715090,7.912303,6.588507,-4.724595,-1.016012,1.269714,-0.026953,0.002369,0.227774,-0.010683,0.225171
17:22:17,4.650,93,7.834332,6.423036,-4.729467,1,0.000000,0.000000,2.235500,-0.049709,0.220985,-0.008931,1,9.107803,4.782860,-4.643798,0,1,4.778906,7.862024,6.650650,-4.741267,-1.024254,1.261681,-0.044822,0.001803,0.227701,-0.010732,0.229596
17:22:17,4.700,94,7.785973,6.480338,-4.731156,1,0.000000,0.000000,2.261142,0.014060,0.249111,0.029363,1,9.107803,4.782860,-4.643798,0,1,4.641234,7.809916,6.713607,-4.743362,-1.033734,1.254513,-0.044992,0.001935,0.227931,-0.010306,0.234812
17:22:18,4.750,95,7.737187,6.537276,-4.732859,1,0.000000,0.000000,2.279385,-0.022485,0.176551,-0.025234,1,9.107803,4.782860,-4.643798,0,1,4.700562,7.759629,6.776151,-4.745690,-1.040953,1.247261,-0.045650,0.001675,0.227384,-0.010463,0.240269
17:22:18,4.800,96,7.687975,6.593847,-4.734578,1,0.000000,0.000000,2.272295,-0.015088,0.249937,0.012358,1,9.107803,4.782860,-4.643798,0,1,4.641887,7.706978,6.837600,-4.717220,-1.049999,1.239306,-0.011229,0.001499,0.227622,-0.010095,0.245108
17:22:18,4.850,97,7.638340,6.650046,-4.736311,1,0.000000,0.000000,2.322022,0.011597,0.253620,-0.072783,1,9.107803,4.782860,-4.643798,0,1,4.722065,7.653421,6.899305,-4.718034,-1.059109,1.231487,-0.012287,0.001604,0.227892,-0.010740,0.250382
17:22:18,4.900,98,7.588286,6.705872,-4.738059,1,0.000000,0.000000,2.284040,-0.024042,0.223023,0.008505,1,9.107803,4.782860,-4.643798,0,1,4.742278,7.600740,6.960035,-4.718580,-1.067321,1.223554,-0.012646,0.001340,0.227842,-0.010544,0.255213
17:22:18,4.950,99,7.537815,6.761320,-4.739821,1,0.000000,0.000000,2.297605,0.027969,0.207247,0.007490,1,9.107803,4.782860,-4.643798,0,1,4.788860,7.547381,7.022097,-4.739304,-1.075752,1.216944,-0.035830,0.001611,0.227632,-0.010445,0.260953
17:22:18,5.000,100,7.486929,6.816388,-4.741598,1,0.000000,0.000000,2.318057,-0.027652,0.243530,-0.038067,1,9.107803,4.782860,-4.643798,0,1,4.689095,7.493339,7.081636,-4.741210,-1.084132,1.208352,-0.036588,0.001316,0.227793,-0.010721,0.265326
17:22:18,5.050,101,7.435632,6.871072,-4.743390,1,0.000000,0.000000,2.339402,-0.011820,0.228405,-0.006648,1,7.613966,6.926721,-4.856131,1,1,4.679472,7.585502,6.961706,-4.747439,-1.039615,1.135668,-0.042121,0.001254,0.227779,-0.010739,0.175191
17:22:18,5.100,102,7.383927,6.925370,-4.745195,1,0.000000,0.000000,2.333155,0.033888,0.236940,0.034942,1,7.613966,6.926721,-4.856131,0,1,4.730269,7.533164,7.018455,-4.743991,-1.048348,1.128247,-0.036146,0.001580,0.227870,-0.010266,0.175892
17:22:18,5.150,103,7.331816,6.979278,-4.747015,1,0.000000,0.000000,2.324643,0.055666,0.226230,0.004037,1,7.613966,6.926721,-4.856131,0,1,4.864948,7.480362,7.075029,-4.745761,-1.057221,1.121342,-0.036541,0.002115,0.227854,-0.010126,0.176736
17:22:18,5.200,104,7.279302,7.032794,-4.748849,1,0.000000,0.000000,2.307494,-0.010740,0.248367,0.031301,1,7.613966,6.926721,-4.856131,0,1,4.761806,7.427191,7.130735,-4.747439,-1.065916,1.113360,-0.036687,0.001990,0.228055,-0.009725,0.177385
17:22:18,5.250,105,7.226389,7.085914,-4.750697,1,0.000000,0.000000,2.353055,-0.028046,0.234754,-0.033525,1,7.613966,6.926721,-4.856131,0,1,4.754417,7.373770,7.185938,-4.750814,-1.073866,1.104856,-0.039014,0.001698,0.228120,-0.009959,0.178118
17:22:18,5.300,106,7.173079,7.138636,-4.752558,1,0.000000,0.000000,2.354187,0.002104,0.251865,0.010888,1,7.613966,6.926721,-4.856131,0,1,4.748591,7.319668,7.240869,-4.752705,-1.082386,1.096621,-0.039343,0.001702,0.228348,-0.009761,0.178717
17:22:18,5.350,107,7.119376,7.190956,-4.754434,1,0.000000,0.000000,2.383491,0.053445,0.188299,-0.049976,1,7.613966,6.926721,-4.856131,0,1,4.702401,7.265446,7.296188,-4.754839,-1.090223,1.089650,-0.040172,0.002194,0.227967,-0.010139,0.180029
17:22:18,5.400,108,7.065282,7.242872,-4.756323,1,0.000000,0.000000,2.362935,-0.000525,0.199998,-0.052297,1,7.613966,6.926721,-4.856131,0,1,4.721040,7.211028,7.350606,-4.746757,-1.097825,1.081880,-0.029339,0.002169,0.227703,-0.010493,0.181494
17:22:18,5.450,109,7.010800,7.294380,-4.758225,1,0.000000,0.000000,2.363221,0.010134,0.258904,-0.043300,1,7.613966,6.926721,-4.856131,0,1,4.691244,7.155550,7.404387,-4.748348,-1.106495,1.073625,-0.030122,0.002243,0.227995,-0.010795,0.182076
17:22:18,5.500,110,6.955934,7.345478,-4.760141,1,0.000000,0.000000,2.377387,0.006391,0.236881,0.014041,1,7.613966,6.926721,-4.856131,0,1,4.841184,7.099897,7.457850,-4.749775,-1.114658,1.065438,-0.030457,0.002282,0.228077,-0.010568,0.182922
17:22:18,5.550,111,6.900686,7.396163,-4.762070,1,0.000000,0.000000,2.425397,-0.033600,0.204921,-0.023633,1,7.613966,6.926721,-4.856131,0,1,4.755599,7.044520,7.510645,-4.752580,-1.121422,1.056588,-0.032482,0.001953,0.227865,-0.010691,0.184078
17:22:19,5.600,112,6.845060,7.446431,-4.764013,1,0.000000,0.000000,2.390822,-0.018471,0.214055,-0.009031,1,7.613966,6.926721,-4.856131,0,1,4.828320,6.988592,7.563114,-4.754212,-1.128788,1.048148,-0.033004,0.001767,0.227739,-0.010676,0.185236
17:22:19,5.650,113,6.789058,7.496281,-4.765969,1,0.000000,0.000000,2.411150,-0.014685,0.226668,0.027679,1,7.613966,6.926721,-4.856131,0,1,4.791362,6.932114,7.615097,-4.755735,-1.136232,1.039460,-0.033229,0.001619,0.227730,-0.010335,0.186244
17:22:19,5.700,114,6.732685,7.545709,-4.767937,1,0.000000,0.000000,2.442992,-0.036227,0.201239,-0.005988,1,7.613966,6.926721,-4.856131,0,1,4.808366,6.875837,7.666549,-4.772071,-1.142692,1.030478,-0.050403,0.001281,0.227493,-0.010349,0.187382
17:22:19,5.750,115,6.675943,7.594713,-4.769919,1,0.000000,0.000000,2.396789,-0.018161,0.231182,-0.035973,1,7.613966,6.926721,-4.856131,0,1,4.782425,6.818639,7.717538,-4.774686,-1.150265,1.021777,-0.051112,0.001109,0.227526,-0.010573,0.188337
17:22:19,5.800,116,6.618835,7.643289,-4.771913,1,0.000000,0.000000,2.418956,-0.060928,0.206661,-0.019661,1,7.613966,6.926721,-4.856131,0,1,4.769084,6.761891,7.767647,-4.777287,-1.156666,1.012474,-0.051712,0.000566,0.227343,-0.010652,0.189628
17:22:19,5.850,117,6.561364,7.691436,-4.773920,1,0.000000,0.000000,2.439658,-0.045587,0.242085,0.006381,1,7.613966,6.926721,-4.856131,0,1,4.721699,6.704122,7.817136,-4.763049,-1.163678,1.002812,-0.033057,0.000165,0.227471,-0.010447,0.190522
17:22:19,5.900,118,6.503535,7.739150,-4.775939,1,0.000000,0.000000,2.443085,0.035897,0.154890,-0.023651,1,7.613966,6.926721,-4.856131,0,1,4.728521,6.646604,7.868489,-4.764756,-1.170198,0.995707,-0.033676,0.000473,0.226846,-0.010559,0.193190
17:22:19,5.950,119,6.445349,7.786428,-4.777971,1,0.000000,0.000000,2.441643,0.028475,0.216973,-0.021403,1,7.613966,6.926721,-4.856131,0,1,4.681593,6.587758,7.918677,-4.766491,-1.177728,0.987678,-0.034286,0.000712,0.226761,-0.010651,0.194684
17:22:19,6.000,120,6.386810,7.833269,-4.780015,1,0.000000,0.000000,2.441317,-0.048600,0.196606,-0.048737,1,7.613966,6.926721,-4.856131,0,1,4.896207,6.529862,7.967296,-4.805295,-1.183843,0.978566,-0.077019,0.000294,0.226506,-0.011095,0.197651
17:22:19,6.050,121,6.327923,7.879669,-4.782072,1,0.000000,0.000000,2.465623,0.003528,0.245299,0.001013,1,7.613966,6.926721,-4.856131,0,1,4.781642,6.470086,8.015823,-4.809123,-1.191323,0.969535,-0.077488,0.000321,0.226664,-0.010995,0.198696
17:22:19,6.100,122,6.268689,7.925626,-4.784140,1,0.000000,0.000000,2.498557,0.037100,0.225529,-0.026927,1,7.613966,6.926721,-4.856131,0,1,4.744273,6.409873,8.064830,-4.813065,-1.198634,0.961156,-0.078157,0.000628,0.226654,-0.011126,0.200369
17:22:19,6.150,123,6.209112,7.971137,-4.786221,1,0.000000,0.000000,2.487619,0.036045,0.269178,-0.051688,1,7.613966,6.926721,-4.856131,0,1,4.823794,6.348379,8.112802,-4.819062,-1.206837,0.952210,-0.081210,0.000920,0.227006,-0.011463,0.201352
17:22:19,6.200,124,6.149195,8.016199,-4.788313,1,0.000000,0.000000,2.524598,-0.026726,0.238544,0.040107,1,7.613966,6.926721,-4.856131,0,1,4.745933,6.288030,8.159413,-4.822984,-1.213248,0.942306,-0.081426,0.000694,0.227100,-0.011046,0.202453
17:22:19,6.250,125,6.088943,8.060811,-4.790417,1,0.000000,0.000000,2.510519,0.001732,0.237771,0.040290,1,7.613966,6.926721,-4.856131,0,1,4.863087,6.226945,8.206159,-4.826899,-1.220186,0.933019,-0.081604,0.000702,0.227187,-0.010634,0.203719
17:22:19,6.300,126,6.028358,8.104969,-4.792533,1,0.000000,0.000000,2.506606,-0.000864,0.265117,-0.045719,1,7.613966,6.926721,-4.856131,0,1,4.802733,6.164916,8.251938,-4.822914,-1.227628,0.923294,-0.073108,0.000689,0.227493,-0.010887,0.202906
17:22:19,6.350,127,5.967444,8.148672,-4.794660,1,0.000000,0.000000,2.517876,0.029429,0.221708,0.027859,1,7.613966,6.926721,-4.856131,0,1,4.679737,6.103027,8.298654,-4.826470,-1.234631,0.914702,-0.073390,0.000919,0.227446,-0.010581,0.204669
17:22:19,6.400,128,5.906204,8.191916,-4.796799,1,0.000000,0.000000,2.541741,-0.000854,0.224077,-0.005429,1,7.613966,6.926721,-4.856131,0,1,4.806334,6.041248,8.344170,-4.830137,-1.240999,0.905360,-0.073882,0.000905,0.227420,-0.010541,0.206227
17:22:19,6.450,129,5.844641,8.234699,-4.798948,1,0.000000,0.000000,2.549106,0.028792,0.234660,0.007449,1,7.613966,6.926721,-4.856131,0,1,4.793545,5.978356,8.389779,-4.822148,-1.247959,0.896360,-0.061105,0.001125,0.227477,-0.010364,0.206077
17:22:20,6.500,130,5.782760,8.277019,-4.801109,1,0.000000,0.000000,2.531609,-0.020671,0.236366,-0.024714,1,7.613966,6.926721,-4.856131,0,1,4.820450,5.915966,8.433632,-4.825256,-1.254341,0.886520,-0.061718,0.000954,0.227546,-0.010475,0.207014
17:22:20,6.550,131,5.720563,8.318873,-4.803281,1,0.000000,0.000000,2.539987,0.010440,0.251893,-0.031978,1,7.613966,6.926721,-4.856131,0,1,4.711575,5.852253,8.477511,-4.828423,-1.261431,0.876955,-0.062391,0.001028,0.227735,-0.010639,0.207703
17:22:20,6.600,132,5.658054,8.360260,-4.805464,1,0.000000,0.000000,2.528158,-0.012554,0.234683,-0.004789,1,7.613966,6.926721,-4.856131,0,1,4.767601,5.789095,8.520615,-4.813053,-1.267938,0.867304,-0.041957,0.000923,0.227788,-0.010538,0.207228
17:22:20,6.650,133,5.595236,8.401176,-4.807658,1,0.000000,0.000000,2.549555,-0.008992,0.240563,-0.008404,1,7.613966,6.926721,-4.856131,0,1,4.833602,5.725381,8.563202,-4.815158,-1.274412,0.857480,-0.042470,0.000848,0.227885,-0.010522,0.207958
17:22:20,6.700,134,5.532114,8.441620,-4.809862,1,0.000000,0.000000,2.549081,0.002688,0.240070,0.011562,1,7.613966,6.926721,-4.856131,0,1,4.785939,5.661109,8.605635,-4.817227,-1.281073,0.847884,-0.042847,0.000862,0.227978,-0.010357,0.208794
17:22:20,6.750,135,5.468690,8.481588,-4.812077,1,0.000000,0.000000,2.582464,-0.040290,0.240879,0.015775,1,7.613966,6.926721,-4.856131,0,1,4.844192,5.597420,8.646284,-4.826491,-1.286709,0.837241,-0.051326,0.000553,0.228075,-0.010185,0.209532
17:22:20,6.800,136,5.404969,8.521080,-4.814302,1,0.000000,0.000000,2.578117,-0.000465,0.235592,-0.013825,1,5.448379,8.584336,-5.107359,1,1,4.814663,5.469775,8.610544,-4.838736,-1.313457,0.802316,-0.062850,0.000540,0.228125,-0.010214,0.113140
17:22:20,6.850,137,5.340953,8.560093,-4.816538,1,0.000000,0.000000,2.580539,-0.006645,0.161389,0.021483,1,5.448379,8.584336,-5.107359,0,1,4.789711,5.404548,8.650779,-4.841798,-1.318668,0.793377,-0.063152,0.000486,0.227628,-0.009981,0.113606
17:22:20,6.900,138,5.276647,8.598624,-4.818783,1,0.000000,0.000000,2.620422,0.031859,0.271625,-0.082191,1,5.448379,8.584336,-5.107359,0,1,4.780610,5.337870,8.690177,-4.826992,-1.325263,0.783364,-0.043465,0.000718,0.227953,-0.010454,0.110443
17:22:20,6.950,139,5.212054,8.636671,-4.821039,1,0.000000,0.000000,2.619902,0.015683,0.199849,0.002039,1,5.448379,8.584336,-5.107359,0,1,4.855536,5.271616,8.729447,-4.829145,-1.330818,0.774028,-0.043911,0.000828,0.227747,-0.010363,0.110548
17:22:20,7.000,140,5.147177,8.674232,-4.823304,1,0.000000,0.000000,2.605603,0.022363,0.217338,0.069121,1,5.448379,8.584336,-5.107359,0,1,4.856877,5.204861,8.768200,-4.831123,-1.336811,0.764652,-0.043913,0.000985,0.227671,-0.009791,0.110537
17:22:20,7.050,141,5.082021,8.711306,-4.825580,1,0.000000,0.000000,2.603576,0.035795,0.281707,0.046572,1,5.448379,8.584336,-5.107359,0,1,4.838623,5.137012,8.806091,-4.834705,-1.343795,0.754642,-0.045791,0.001236,0.228062,-0.009393,0.109962
17:22:20,7.100,142,5.016588,8.747889,-4.827865,1,0.000000,0.000000,2.620648,-0.046535,0.225085,0.016394,1,5.448379,8.584336,-5.107359,0,1,4.808564,5.070147,8.843080,-4.836940,-1.348868,0.744228,-0.046104,0.000893,0.228040,-0.009210,0.109600
17:22:20,7.150,143,4.950883,8.783981,-4.830159,1,0.000000,0.000000,2.621908,-0.050537,0.201875,0.006536,1,5.448379,8.584336,-5.107359,0,1,4.877067,5.003361,8.879705,-4.839211,-1.353565,0.734056,-0.046464,0.000527,0.227854,-0.009099,0.109540
17:22:20,7.200,144,4.884910,8.819578,-4.832463,1,0.000000,0.000000,2.618926,0.000593,0.241249,-0.003103,1,5.448379,8.584336,-5.107359,0,1,4.815716,4.935378,8.916024,-4.834143,-1.359444,0.724019,-0.038471,0.000527,0.227949,-0.009036,0.108866
17:22:20,7.250,145,4.818672,8.854679,-4.834776,1,0.000000,0.000000,2.635007,0.009278,0.218244,-0.007295,1,5.448379,8.584336,-5.107359,0,1,4.811583,4.867294,8.952193,-4.836074,-1.364994,0.714309,-0.038912,0.000589,0.227880,-0.009024,0.108971
17:22:20,7.300,146,4.752172,8.889282,-4.837098,1,0.000000,0.000000,2.644221,0.021340,0.220094,0.046371,1,5.448379,8.584336,-5.107359,0,1,4.977205,4.798772,8.988020,-4.837874,-1.370643,0.704681,-0.039016,0.000734,0.227826,-0.008642,0.109185
17:22:20,7.350,147,4.685415,8.923386,-4.839429,1,0.000000,0.000000,2.666794,0.037729,0.205677,-0.001167,1,5.448379,8.584336,-5.107359,0,1,4.900823,4.729964,9.023777,-4.857340,-1.376119,0.695351,-0.059344,0.000990,0.227673,-0.008640,0.111283
17:22:21,7.400,148,4.618404,8.956987,-4.841770,1,0.000000,0.000000,2.682758,-0.037972,0.226531,0.024732,1,5.448379,8.584336,-5.107359,0,1,4.891943,4.661543,9.057749,-4.860235,-1.380636,0.684682,-0.059581,0.000722,0.227665,-0.008413,0.111153
17:22:21,7.450,149,4.551143,8.990084,-4.844118,1,0.000000,0.000000,2.674491,0.003122,0.164428,0.059683,1,5.448379,8.584336,-5.107359,0,1,4.842698,4.593286,9.092610,-4.863035,-1.385010,0.675478,-0.059584,0.000738,0.227233,-0.007953,0.112451
17:22:21,7.500,150,4.483636,9.022676,-4.846476,1,0.000000,0.000000,2.689217,0.017649,0.239253,-0.050251,1,5.448379,8.584336,-5.107359,0,1,4.850286,4.523489,9.126220,-4.861582,-1.390414,0.665319,-0.055058,0.000853,0.227314,-0.008224,0.111972
17:22:21,7.550,151,4.415887,9.054760,-4.848842,1,0.000000,0.000000,2.733714,-0.008322,0.182431,-0.001276,1,5.448379,8.584336,-5.107359,0,1,4.748226,4.454702,9.159736,-4.864329,-1.394240,0.655451,-0.055429,0.000791,0.227012,-0.008178,0.112989
17:22:21,7.600,152,4.347899,9.086335,-4.851216,1,0.000000,0.000000,2.695876,0.016241,0.241536,0.002708,1,5.448379,8.584336,-5.107359,0,1,4.859519,4.384392,9.192285,-4.867081,-1.399592,0.645209,-0.055773,0.000895,0.227109,-0.008106,0.113176
17:22:21,7.650,153,4.279676,9.117399,-4.853598,1,0.000000,0.000000,2.715748,-0.031141,0.271297,-0.001722,1,5.448379,8.584336,-5.107359,0,1,4.834894,4.314055,9.223040,-4.859769,-1.404415,0.633791,-0.044685,0.000682,0.227403,-0.008037,0.111266
17:22:21,7.700,154,4.211222,9.147950,-4.855989,1,0.000000,0.000000,2.717444,-0.089124,0.216666,-0.006423,1,5.448379,8.584336,-5.107359,0,1,4.863644,4.245395,9.253076,-4.862009,-1.407595,0.622423,-0.045077,0.000088,0.227332,-0.008026,0.110705
17:22:21,7.750,155,4.142542,9.177986,-4.858387,1,0.000000,0.000000,2.734892,-0.002956,0.242419,-0.069069,1,5.448379,8.584336,-5.107359,0,1,4.860700,4.174683,9.283620,-4.864436,-1.412247,0.611709,-0.045839,0.000068,0.227431,-0.008422,0.110582
17:22:21,7.800,156,4.073638,9.207506,-4.860793,1,0.000000,0.000000,2.729330,-0.021373,0.244086,-0.045088,1,5.448379,8.584336,-5.107359,0,1,4.841647,4.104031,9.313248,-4.859568,-1.416688,0.600742,-0.038233,-0.000072,0.227540,-0.008639,0.110030
17:22:21,7.850,157,4.004514,9.236508,-4.863207,1,0.000000,0.000000,2.733439,-0.029918,0.216830,0.014993,1,5.448379,8.584336,-5.107359,0,1,4.905935,4.033844,9.342652,-4.861434,-1.420578,0.590072,-0.038535,-0.000265,0.227470,-0.008488,0.110136
17:22:21,7.900,158,3.935176,9.264991,-4.865628,1,0.000000,0.000000,2.750532,-0.036182,0.254481,0.018802,1,5.448379,8.584336,-5.107359,0,1,4.827066,3.962869,9.370664,-4.863300,-1.424679,0.578634,-0.038802,-0.000496,0.227644,-0.008315,0.109266
17:22:21,7.950,159,3.865625,9.292952,-4.868057,1,0.000000,0.000000,2.784153,0.031468,0.224683,-0.059438,1,5.448379,8.584336,-5.107359,0,1,4.865755,3.890957,9.400035,-4.865502,-1.429124,0.568439,-0.039644,-0.000292,0.227625,-0.008638,0.110068
17:22:21,8.000,160,3.795868,9.320391,-4.870493,1,0.000000,0.000000,2.801594,-0.017578,0.263035,0.000112,1,5.448379,8.584336,-5.107359,0,1,4.890046,3.819028,9.427097,-4.867475,-1.433093,0.556883,-0.040029,-0.000402,0.227850,-0.008583,0.109232
17:22:21,8.050,161,3.725906,9.347305,-4.872936,1,0.000000,0.000000,2.783877,0.030366,0.159985,-0.021961,1,5.448379,8.584336,-5.107359,0,1,4.892752,3.748062,9.456781,-4.869521,-1.436669,0.547761,-0.040534,-0.000207,0.227422,-0.008666,0.111748
17:22:21,8.100,162,3.655745,9.373694,-4.875386,1,0.000000,0.000000,2.788708,0.005682,0.203065,-0.044839,1,5.448379,8.584336,-5.107359,0,1,4.837649,3.676533,9.484569,-4.861831,-1.440361,0.537580,-0.030051,-0.000170,0.227269,-0.008866,0.113619
17:22:21,8.150,163,3.585388,9.399555,-4.877843,1,0.000000,0.000000,2.786536,0.039660,0.230963,0.018304,1,5.448379,8.584336,-5.107359,0,1,4.807853,3.603424,9.511989,-4.863283,-1.445039,0.527396,-0.030351,0.000078,0.227292,-0.008699,0.114798
17:22:21,8.200,164,3.514839,9.424888,-4.880307,1,0.000000,0.000000,2.798973,0.049694,0.273855,-0.011659,1,5.448379,8.584336,-5.107359,0,1,4.838022,3.528842,9.538132,-4.864819,-1.450353,0.516554,-0.030802,0.000386,0.227580,-0.008717,0.115153
17:22:22,8.250,165,3.444102,9.449691,-4.882777,1,0.000000,0.000000,2.800230,0.001204,0.226330,-0.029978,1,5.448379,8.584336,-5.107359,0,1,4.842861,3.456238,9.563741,-4.859617,-1.454178,0.505871,-0.023651,0.000391,0.227573,-0.008829,0.117010
17:22:22,8.300,166,3.373181,9.473962,-4.885254,1,0.000000,0.000000,2.858595,-0.004920,0.256975,-0.023705,1,5.448379,8.584336,-5.107359,0,1,4.909500,3.382877,9.587899,-4.860844,-1.457677,0.494356,-0.024170,0.000358,0.227753,-0.008919,0.116926
17:22:22,8.350,167,3.302080,9.497700,-4.887737,1,0.000000,0.000000,2.817489,-0.013316,0.210157,0.040522,1,5.448379,8.584336,-5.107359,0,1,4.902476,3.310685,9.612465,-4.861941,-1.460837,0.483698,-0.024346,0.000275,0.227646,-0.008622,0.117943
17:22:22,8.400,168,3.230804,9.520903,-4.890226,1,0.000000,0.000000,2.817825,0.034933,0.192973,-0.047565,1,5.448379,8.584336,-5.107359,0,1,4.896490,3.237503,9.638166,-4.872875,-1.464629,0.474009,-0.035864,0.000485,0.227436,-0.008878,0.118729
17:22:22,8.450,169,3.159355,9.543572,-4.892721,1,0.000000,0.000000,2.822910,-0.008129,0.241671,0.007835,1,5.448379,8.584336,-5.107359,0,1,4.853020,3.164052,9.660989,-4.874643,-1.468251,0.462840,-0.036223,0.000433,0.227522,-0.008779,0.118894
17:22:22,8.500,170,3.087739,9.565703,-4.895222,1,0.000000,0.000000,2.821480,-0.017800,0.209991,0.022313,1,5.448379,8.584336,-5.107359,0,1,4.847795,3.091517,9.683876,-4.876390,-1.471276,0.452125,-0.036495,0.000324,0.227417,-0.008595,0.119724
17:22:22,8.550,171,3.015958,9.587297,-4.897728,1,0.000000,0.000000,2.860740,0.008305,0.251024,-0.005424,1,5.448379,8.584336,-5.107359,0,1,4.864806,3.017017,9.705743,-4.874341,-1.474913,0.440873,-0.032521,0.000371,0.227557,-0.008567,0.120738
17:22:22,8.600,172,2.944018,9.608351,-4.900240,1,0.000000,0.000000,2.857823,0.037655,0.186613,0.006819,1,3.340558,9.608244,-5.105202,1,1,4.870626,3.231013,9.641124,-4.883938,-1.383676,0.401698,-0.042018,0.000205,0.227476,-0.008587,0.289319
17:22:22,8.650,173,2.871922,9.628864,-4.902758,1,0.000000,0.000000,2.871584,0.016854,0.214253,0.032372,1,3.340558,9.608244,-5.105202,0,1,4.903032,3.161711,9.661181,-4.885954,-1.386825,0.391019,-0.042233,0.000303,0.227399,-0.008348,0.292069
17:22:22,8.700,174,2.799674,9.648836,-4.905281,1,0.000000,0.000000,2.853286,-0.004858,0.205860,0.016857,1,3.340558,9.608244,-5.105202,0,1,4.987502,3.092512,9.680617,-4.916055,-1.389852,0.380350,-0.074358,0.000273,0.227273,-0.008268,0.294754
17:22:22,8.750,175,2.727279,9.668266,-4.907809,1,0.000000,0.000000,2.881258,-0.012633,0.207870,0.019178,1,3.340558,9.608244,-5.105202,0,1,4.872950,3.023237,9.699442,-4.919726,-1.392488,0.369521,-0.074636,0.000198,0.227160,-0.008110,0.297834
17:22:22,8.800,176,2.654740,9.687151,-4.910342,1,0.000000,0.000000,2.869805,0.053745,0.181060,0.000634,1,3.340558,9.608244,-5.105202,0,1,4.828201,2.953383,9.718596,-4.923448,-1.395889,0.359562,-0.074997,0.000508,0.226893,-0.008060,0.300580
17:22:22,8.850,177,2.582062,9.705492,-4.912880,1,0.000000,0.000000,2.871418,0.046721,0.236219,-0.096266,1,3.340558,9.608244,-5.105202,0,1,4.894882,2.882919,9.736619,-4.918182,-1.399607,0.348856,-0.065347,0.000774,0.226947,-0.008541,0.302510
17:22:22,8.900,178,2.509248,9.723286,-4.915423,1,0.000000,0.000000,2.895766,-0.056759,0.260180,0.018819,1,3.340558,9.608244,-5.105202,0,1,4.842182,2.813223,9.752860,-4.921404,-1.401897,0.336997,-0.065641,0.000445,0.227137,-0.008386,0.305469
17:22:22,8.950,179,2.436303,9.740534,-4.917970,1,0.000000,0.000000,2.920942,-0.022373,0.242395,0.008979,1,3.340558,9.608244,-5.105202,0,1,4.852396,2.743195,9.769025,-4.924656,-1.404213,0.325548,-0.065972,0.000315,0.227223,-0.008288,0.308284
17:22:22,9.000,180,2.363230,9.757234,-4.920522,1,0.000000,0.000000,2.900174,-0.019127,0.239579,0.010307,1,3.340558,9.608244,-5.105202,0,1,4.927569,2.673040,9.784673,-4.927818,-1.406774,0.314208,-0.066173,0.000205,0.227293,-0.008184,0.311108
17:22:22,9.050,181,2.290035,9.773385,-4.923078,1,0.000000,0.000000,2.928739,-0.010712,0.229794,-0.023856,1,3.340558,9.608244,-5.105202,0,1,4.928281,2.602761,9.799959,-4.931169,-1.409054,0.302986,-0.066657,0.000144,0.227307,-0.008271,0.313958
17:22:22,9.100,182,2.216720,9.788986,-4.925638,1,0.000000,0.000000,2.914461,0.037330,0.203287,-0.014284,1,3.340558,9.608244,-5.105202,0,1,4.911214,2.531980,9.815565,-4.934526,-1.411958,0.292527,-0.067101,0.000351,0.227173,-0.008304,0.316503
17:22:23,9.150,183,2.143291,9.804036,-4.928202,1,0.000000,0.000000,2.943155,-0.000166,0.241568,0.041789,1,3.340558,9.608244,-5.105202,0,1,4.769656,2.461175,9.829697,-4.889476,-1.414315,0.281188,-0.012316,0.000349,0.227253,-0.007920,0.321261
17:22:23,9.200,184,2.069751,9.818535,-4.930770,1,0.000000,0.000000,2.959878,0.021318,0.214836,-0.002122,1,3.340558,9.608244,-5.105202,0,1,4.908199,2.390228,9.843904,-4.890090,-1.416592,0.270350,-0.012685,0.000464,0.227184,-0.007888,0.324044
17:22:23,9.250,185,1.996104,9.832482,-4.933342,1,0.000000,0.000000,2.977539,-0.003677,0.182154,0.003367,1,3.340558,9.608244,-5.105202,0,1,4.952827,2.319941,9.857808,-4.890708,-1.418072,0.259769,-0.013023,0.000442,0.226937,-0.007827,0.327612
17:22:23,9.300,186,1.922355,9.845876,-4.935918,1,0.000000,0.000000,2.973878,0.032257,0.288479,-0.047276,1,3.340558,9.608244,-5.105202,0,1,4.925411,2.247729,9.869879,-4.901245,-1.420918,0.247920,-0.024729,0.000616,0.227273,-0.008062,0.328096
17:22:23,9.350,187,1.848507,9.858716,-4.938496,1,0.000000,0.000000,2.925584,-0.015329,0.265626,0.044699,1,3.340558,9.608244,-5.105202,0,1,4.943671,2.176426,9.881144,-4.902387,-1.423435,0.236137,-0.024888,0.000529,0.227482,-0.007778,0.330663
17:22:23,9.400,188,1.774565,9.871001,-4.941079,1,0.000000,0.000000,2.954207,-0.005035,0.239315,-0.026448,1,3.340558,9.608244,-5.105202,0,1,4.905787,2.105151,9.892391,-4.903683,-1.425585,0.224746,-0.025368,0.000499,0.227546,-0.007878,0.333381
17:22:23,9.450,189,1.700534,9.882731,-4.943664,1,0.000000,0.000000,2.982198,-0.033288,0.247693,-0.021142,1,3.340558,9.608244,-5.105202,0,1,4.989637,2.034192,9.902541,-4.929418,-1.427053,0.212955,-0.053546,0.000317,0.227654,-0.008001,0.334550
17:22:23,9.500,190,1.626416,9.893905,-4.946252,1,0.000000,0.000000,2.993108,0.052643,0.205665,-0.006459,1,3.340558,9.608244,-5.105202,0,1,4.935991,1.962084,9.914017,-4.932102,-1.429394,0.202434,-0.053939,0.000597,0.227537,-0.007993,0.336568
17:22:23,9.550,191,1.552217,9.904523,-4.948843,1,0.000000,0.000000,2.975792,-0.012963,0.212678,-0.017144,1,3.340558,9.608244,-5.105202,0,1,4.930561,1.891036,9.923970,-4.934829,-1.430977,0.191348,-0.054382,0.000525,0.227458,-0.008042,0.339666
17:22:23,9.600,192,1.477940,9.914583,-4.951437,1,0.000000,0.000000,2.992495,-0.031915,0.233500,0.023061,1,3.340558,9.608244,-5.105202,0,1,4.995738,1.820026,9.932686,-4.954309,-1.432226,0.179765,-0.073700,0.000353,0.227490,-0.007914,0.342577
17:22:23,9.650,193,1.403590,9.924086,-4.954033,1,0.000000,0.000000,3.054449,-0.016762,0.241190,0.008599,1,3.340558,9.608244,-5.105202,0,1,4.981159,1.748559,9.940860,-4.957972,-1.433063,0.168087,-0.074022,0.000263,0.227562,-0.007828,0.345399
17:22:23,9.700,194,1.329171,9.933031,-4.956632,1,0.000000,0.000000,3.051330,0.003464,0.250523,-0.043694,1,3.340558,9.608244,-5.105202,0,1,5.033915,1.676480,9.948524,-4.961760,-1.434326,0.156410,-0.074582,0.000280,0.227682,-0.008014,0.347692
17:22:23,9.750,195,1.254687,9.941417,-4.959233,1,0.000000,0.000000,3.046491,0.035946,0.217078,-0.001494,1,3.340558,9.608244,-5.105202,0,1,4.923287,1.604087,9.956825,-4.953291,-1.435924,0.145519,-0.061141,0.000466,0.227627,-0.007955,0.349790
17:22:23,9.800,196,1.180142,9.949243,-4.961836,1,0.000000,0.000000,3.030143,-0.043133,0.256743,-0.049448,1,3.340558,9.608244,-5.105202,0,1,5.057779,1.532837,9.962487,-4.956436,-1.436712,0.133405,-0.061722,0.000240,0.227778,-0.008168,0.352985
17:22:23,9.850,197,1.105540,9.956511,-4.964441,1,0.000000,0.000000,3.006992,-0.002394,0.254394,0.034936,1,3.340558,9.608244,-5.105202,0,1,4.890801,1.460620,9.968197,-4.959442,-1.438407,0.121657,-0.061930,0.000226,0.227915,-0.007948,0.355307
17:22:23,9.900,198,1.030887,9.963218,-4.967048,1,0.000000,0.000000,3.059259,-0.014242,0.232199,0.017706,1,3.340558,9.608244,-5.105202,0,1,4.971599,1.388966,9.973665,-4.965121,-1.439144,0.110121,-0.065183,0.000152,0.227937,-0.007823,0.358237
17:22:23,9.950,199,0.956185,9.969364,-4.969657,1,0.000000,0.000000,3.047096,-0.008256,0.219361,0.017083,1,3.340558,9.608244,-5.105202,0,1,4.959801,1.317332,9.978972,-4.968344,-1.440020,0.098858,-0.065466,0.000109,0.227893,-0.007697,0.361277
17:22:23,10.000,200,0.881439,9.974950,-4.972267,1,0.000000,0.000000,3.080341,0.082271,0.224589,-0.030467,1,3.340558,9.608244,-5.105202,0,1,5.010989,1.243219,9.985044,-4.971674,-1.442109,0.088153,-0.065955,0.000526,0.227876,-0.007812,0.361922
17:22:24,10.050,201,0.806653,9.979975,-4.974879,1,0.000000,0.000000,3.044375,-0.031125,0.205393,-0.000888,1,3.340558,9.608244,-5.105202,0,1,4.866439,1.172305,9.989251,-4.943602,-1.442526,0.076970,-0.030818,0.000366,0.227763,-0.007713,0.367105
17:22:24,10.100,202,0.731832,9.984438,-4.977492,1,0.000000,0.000000,3.101340,-0.016809,0.229661,0.030589,1,3.340558,9.608244,-5.105202,0,1,4.969921,1.100609,9.992476,-4.945082,-1.442716,0.065432,-0.031041,0.000280,0.227772,-0.007523,0.370286
17:22:24,10.150,203,0.656979,9.988340,-4.980106,1,0.000000,0.000000,3.094116,-0.048405,0.230628,-0.027326,1,3.340558,9.608244,-5.105202,0,1,4.923232,1.029791,9.994554,-4.946684,-1.442431,0.053648,-0.031506,0.000036,0.227787,-0.007621,0.374358
17:22:24,10.200,204,0.582099,9.991679,-4.982720,1,0.000000,0.000000,3.079099,-0.017822,0.284402,-0.012779,1,3.340558,9.608244,-5.105202,0,1,4.912922,0.957192,9.994997,-4.938062,-1.443242,0.041141,-0.020349,-0.000053,0.228069,-0.007626,0.377756
17:22:24,10.250,205,0.507196,9.994457,-4.985336,1,0.000000,0.000000,3.085942,-0.015044,0.211076,-0.006360,1,3.340558,9.608244,-5.105202,0,1,5.068476,0.885759,9.997013,-4.939087,-1.443480,0.029951,-0.020725,-0.000127,0.227984,-0.007620,0.381386
17:22:24,10.300,206,0.432275,9.996673,-4.987952,1,0.000000,0.000000,3.078914,0.023630,0.251271,-0.016608,1,3.340558,9.608244,-5.105202,0,1,4.932253,0.812426,9.997938,-4.940151,-1.444788,0.018324,-0.021146,-0.000010,0.228099,-0.007663,0.383146
17:22:24,10.350,207,0.357339,9.998326,-4.990569,1,0.000000,0.000000,3.135834,0.029274,0.232490,-0.009360,1,3.340558,9.608244,-5.105202,0,1,5.049113,0.739187,9.998962,-4.972399,-1.445421,0.007052,-0.056813,0.000134,0.228121,-0.007733,0.382281
17:22:24,10.400,208,0.282393,9.999417,-4.993186,1,0.000000,0.000000,3.137953,-0.026221,0.280790,-0.028695,1,3.340558,9.608244,-5.105202,0,1,4.900169,0.666792,9.996854,-4.975287,-1.445364,-0.005516,-0.057287,0.000005,0.228378,-0.007834,0.384824
17:22:24,10.450,209,0.207441,9.999946,-4.995804,1,0.000000,0.000000,3.113288,0.039257,0.215607,0.007316,1,0.476541,9.843142,-5.143580,1,1,4.953138,0.508786,9.885000,-4.984570,-1.473789,-0.053490,-0.064976,0.000016,0.228457,-0.007847,0.322719
17:22:24,10.500,210,0.132486,9.999912,-4.998421,1,0.000000,0.000000,3.105816,0.045146,0.243999,0.011529,1,0.476541,9.843142,-5.143580,0,1,5.055450,0.434575,9.882129,-5.006796,-1.474737,-0.064951,-0.086830,0.000235,0.228533,-0.007791,0.324346
17:22:24,10.550,211,0.057535,9.999315,-5.001039,1,0.000000,0.000000,3.127365,0.040399,0.182772,0.040718,1,0.476541,9.843142,-5.143580,0,1,5.054039,0.360675,9.879270,-5.011064,-1.475235,-0.075754,-0.087023,0.000428,0.228312,-0.007559,0.326199
17:22:24,10.600,212,-0.017410,9.998156,-5.003656,1,0.000000,0.000000,3.160817,0.042619,0.241565,-0.000301,1,0.476541,9.843142,-5.143580,0,1,5.007475,0.286401,9.875288,-5.015411,-1.475553,-0.087203,-0.087369,0.000631,0.228376,-0.007525,0.327927
17:22:24,10.650,213,-0.092345,9.996435,-5.006272,1,0.000000,0.000000,3.141358,0.048468,0.249261,-0.037399,1,0.476541,9.843142,-5.143580,0,1,5.012040,0.211976,9.870678,-5.017638,-1.476197,-0.098733,-0.085361,0.000859,0.228475,-0.007662,0.329477
17:22:24,10.700,214,-0.167264,9.994151,-5.008889,1,0.000000,0.000000,3.159594,-0.037029,0.235016,0.016664,1,0.476541,9.843142,-5.143580,0,1,5.006734,0.138573,9.865164,-5.021874,-1.475607,-0.110335,-0.085646,0.000679,0.228506,-0.007547,0.332179
17:22:24,10.750,215,-0.242164,9.991305,-5.011504,1,0.000000,0.000000,3.151406,-0.039532,0.226071,0.010531,1,0.476541,9.843142,-5.143580,0,1,5.033368,0.065297,9.859158,-5.026131,-1.475043,-0.121839,-0.085947,0.000489,0.228495,-0.007463,0.334976
17:22:24,10.800,216,-0.317041,9.987897,-5.014119,1,0.000000,0.000000,3.182485,-0.018802,0.230778,0.002192,1,0.476541,9.843142,-5.143580,0,1,5.005590,-0.008213,9.852638,-5.023331,-1.474373,-0.133335,-0.078209,0.000398,0.228506,-0.007404,0.337275
17:22:24,10.850,217,-0.391890,9.983928,-5.016733,1,0.000000,0.000000,3.195969,0.018329,0.240060,0.018659,1,0.476541,9.843142,-5.143580,0,1,4.998053,-0.082224,9.845641,-5.027206,-1.474023,-0.144838,-0.078475,0.000482,0.228560,-0.007283,0.339303
17:22:25,10.900,218,-0.466707,9.979397,-5.019346,1,0.000000,0.000000,3.197273,-0.017719,0.177457,-0.014163,1,0.476541,9.843142,-5.143580,0,1,5.013513,-0.155346,9.838707,-5.031152,-1.473050,-0.155661,-0.078868,0.000397,0.228321,-0.007315,0.341875
17:22:25,10.950,219,-0.541489,9.974304,-5.021957,1,0.000000,0.000000,3.190882,0.003773,0.234806,-0.025176,1,0.476541,9.843142,-5.143580,0,1,5.049198,-0.229074,9.830567,-5.039174,-1.472567,-0.167138,-0.083901,0.000413,0.228352,-0.007404,0.344325
17:22:25,11.000,220,-0.616229,9.968650,-5.024567,1,0.000000,0.000000,3.191514,0.022688,0.261664,0.007906,1,0.476541,9.843142,-5.143580,0,1,4.984407,-0.303231,9.821569,-5.043352,-1.472389,-0.178911,-0.084211,0.000516,0.228505,-0.007334,0.346344
17:22:25,11.050,221,-0.690926,9.962436,-5.027175,1,0.000000,0.000000,3.199002,0.010605,0.224617,-0.014680,1,0.476541,9.843142,-5.143580,0,1,5.053269,-0.376966,9.812463,-5.047586,-1.471880,-0.190243,-0.084608,0.000562,0.228488,-0.007368,0.348539
17:22:25,11.100,222,-0.765574,9.955661,-5.029782,1,0.000000,0.000000,3.233895,0.000519,0.211190,0.009562,1,0.476541,9.843142,-5.143580,0,1,5.071659,-0.450421,9.802944,-5.057509,-1.470811,-0.201394,-0.091401,0.000562,0.228408,-0.007302,0.351301
17:22:25,11.150,223,-0.840168,9.948326,-5.032387,1,0.000000,0.000000,3.235234,-0.016644,0.209646,-0.028221,1,0.476541,9.843142,-5.143580,0,1,4.952166,-0.523525,9.792789,-5.062123,-1.469496,-0.212560,-0.091848,0.000484,0.228323,-0.007396,0.354032
17:22:25,11.200,224,-0.914706,9.940432,-5.034990,1,0.000000,0.000000,3.263393,-0.003874,0.301697,-0.009202,1,0.476541,9.843142,-5.143580,0,1,4.989156,-0.597382,9.780583,-5.066728,-1.468253,-0.224894,-0.092225,0.000464,0.228656,-0.007404,0.356726
17:22:25,11.250,225,-0.989183,9.931979,-5.037591,1,0.000000,0.000000,3.214932,0.011334,0.250469,0.005306,1,0.476541,9.843142,-5.143580,0,1,5.015367,-0.671116,9.768738,-5.055185,-1.467640,-0.236569,-0.074224,0.000513,0.228754,-0.007318,0.357943
17:22:25,11.300,226,-1.063594,9.922966,-5.040189,1,0.000000,0.000000,3.257084,-0.018560,0.198107,0.018764,1,0.476541,9.843142,-5.143580,0,1,5.046002,-0.743904,9.757059,-5.058862,-1.466011,-0.247556,-0.074490,0.000427,0.228616,-0.007202,0.360660
17:22:25,11.350,227,-1.137935,9.913396,-5.042785,1,0.000000,0.000000,3.278243,0.023318,0.226291,0.019895,1,0.476541,9.843142,-5.143580,0,1,5.059921,-0.817586,9.744602,-5.062546,-1.464789,-0.258797,-0.074741,0.000530,0.228606,-0.007081,0.362637
17:22:25,11.400,228,-1.212203,9.903268,-5.045379,1,0.000000,0.000000,3.270966,0.038006,0.259994,0.029992,1,0.476541,9.843142,-5.143580,0,1,5.001074,-0.891747,9.731025,-5.047408,-1.463942,-0.270492,-0.053614,0.000697,0.228746,-0.006884,0.363818
17:22:25,11.450,229,-1.286392,9.892583,-5.047970,1,0.000000,0.000000,3.298340,0.000594,0.219272,0.009474,1,0.476541,9.843142,-5.143580,0,1,5.105174,-0.964831,9.717410,-5.050071,-1.462168,-0.281659,-0.053896,0.000696,0.228704,-0.006812,0.366185
17:22:25,11.500,230,-1.360500,9.881342,-5.050557,1,0.000000,0.000000,3.271073,-0.004848,0.231367,-0.013864,1,0.476541,9.843142,-5.143580,0,1,5.083291,-1.037807,9.702947,-5.052787,-1.460652,-0.293054,-0.054265,0.000672,0.228716,-0.006843,0.368728
17:22:25,11.550,231,-1.434521,9.869544,-5.053142,1,0.000000,0.000000,3.290346,0.024604,0.206423,0.012603,1,0.476541,9.843142,-5.143580,0,1,4.957785,-1.111151,9.688667,-5.027250,-1.459291,-0.303991,-0.022559,0.000777,0.228618,-0.006708,0.371423
17:22:25,11.600,232,-1.508451,9.857192,-5.055724,1,0.000000,0.000000,3.285952,0.013837,0.210323,0.035255,1,0.476541,9.843142,-5.143580,0,1,5.024095,-1.184230,9.673686,-5.028319,-1.457838,-0.315012,-0.022739,0.000834,0.228537,-0.006526,0.373556
17:22:25,11.650,233,-1.582287,9.844285,-5.058302,1,0.000000,0.000000,3.318291,-0.034551,0.227439,0.016238,1,0.476541,9.843142,-5.143580,0,1,5.045924,-1.256257,9.657416,-5.029424,-1.455342,-0.326325,-0.022975,0.000680,0.228533,-0.006428,0.376894
17:22:25,11.700,234,-1.656024,9.830824,-5.060877,1,0.000000,0.000000,3.314348,0.024306,0.226244,0.013196,1,0.476541,9.843142,-5.143580,0,1,4.989431,-1.329513,9.641049,-5.018662,-1.453761,-0.337505,-0.009768,0.000782,0.228523,-0.006323,0.380008
17:22:25,11.750,235,-1.729658,9.816811,-5.063449,1,0.000000,0.000000,3.333052,0.020969,0.226162,0.046507,1,0.476541,9.843142,-5.143580,0,1,5.105276,-1.402617,9.624103,-5.019075,-1.451927,-0.348654,-0.009890,0.000870,0.228513,-0.006097,0.382179
17:22:26,11.800,236,-1.803185,9.802245,-5.066016,1,0.000000,0.000000,3.338939,-0.007435,0.247512,-0.011270,1,0.476541,9.843142,-5.143580,0,1,5.092122,-1.475098,9.605856,-5.019587,-1.449639,-0.360174,-0.010215,0.000834,0.228594,-0.006119,0.385182
17:22:26,11.850,237,-1.876601,9.787128,-5.068580,1,0.000000,0.000000,3.358680,0.052151,0.191885,0.001673,1,0.476541,9.843142,-5.143580,0,1,5.179787,-1.548543,9.588897,-5.066238,-1.447943,-0.370679,-0.062712,0.001054,0.228437,-0.006165,0.383305
17:22:26,11.900,238,-1.949901,9.771460,-5.071140,1,0.000000,0.000000,3.318569,-0.019078,0.244477,-0.058500,1,0.476541,9.843142,-5.143580,0,1,5.119188,-1.620490,9.569507,-5.069463,-1.445699,-0.382220,-0.063210,0.000968,0.228505,-0.006386,0.386393
17:22:26,11.950,239,-2.023082,9.755242,-5.073695,1,0.000000,0.000000,3.324094,0.034789,0.216373,0.006956,1,0.476541,9.843142,-5.143580,0,1,5.068545,-1.693535,9.550704,-5.072608,-1.444184,-0.393212,-0.063478,0.001111,0.228454,-0.006330,0.387864
17:22:26,12.000,240,-2.096139,9.738476,-5.076247,1,0.000000,0.000000,3.350320,0.025473,0.277531,0.004980,1,0.476541,9.843142,-5.143580,0,1,4.997428,-1.766742,9.529608,-5.053131,-1.442344,-0.405136,-0.038137,0.001214,0.228661,-0.006244,0.390721
17:22:26,12.050,241,-2.169069,9.721162,-5.078793,1,0.000000,0.000000,3.377328,0.025536,0.274140,0.080350,1,0.476541,9.843142,-5.143580,0,1,5.088472,-1.839839,9.507986,-5.054912,-1.440199,-0.416955,-0.038139,0.001317,0.228853,-0.005883,0.392947
17:22:26,12.100,242,-2.241867,9.703302,-5.081335,1,0.000000,0.000000,3.401653,-0.024727,0.201630,-0.014877,1,0.476541,9.843142,-5.143580,0,1,5.103568,-1.910809,9.487438,-5.056842,-1.436855,-0.427632,-0.038467,0.001208,0.228739,-0.005920,0.395975
17:22:26,12.150,243,-2.314528,9.684895,-5.083873,1,0.000000,0.000000,3.390102,-0.016513,0.222683,0.015674,1,0.476541,9.843142,-5.143580,0,1,5.167149,-1.982011,9.465816,-5.090059,-1.433802,-0.438662,-0.074119,0.001134,0.228714,-0.005884,0.398249
17:22:26,12.200,244,-2.387050,9.665944,-5.086405,1,0.000000,0.000000,3.385442,0.017090,0.231703,0.008852,1,-2.491006,9.548211,-5.202562,1,1,5.157133,-2.365768,9.518258,-5.097549,-1.534831,-0.425074,-0.078715,0.001295,0.228718,-0.005890,0.149627
