timestamp,sim_time,iteration,true_pos_x,true_pos_y,true_pos_z,imu_valid,imu_roll,imu_pitch,imu_yaw,imu_acc_x,imu_acc_y,imu_acc_z,usbl_valid,usbl_pos_x,usbl_pos_y,usbl_pos_z,usbl_fix_used,depth_valid,depth_measurement,kf_pos_x,kf_pos_y,kf_pos_z,kf_vel_x,kf_vel_y,kf_vel_z,kf_acc_x,kf_acc_y,kf_acc_z,error_norm
17:07:09.094,0.000,0,10.168406,0.000000,-4.647959,1,0.000000,0.000000,1.543520,0.001073,0.224644,-0.035305,0,0.000000,0.000000,0.000000,0,1,4.594715,10.168125,0.000009,-4.594847,-0.011216,0.000360,0.000888,0.001072,0.224442,-0.035273,0.053113
17:07:09.147,0.050,1,10.168125,0.074999,-4.647969,1,0.000000,0.000000,1.584330,0.002495,0.184273,-0.031039,0,0.000000,0.000000,0.000000,0,1,4.664403,10.167384,0.000026,-4.594839,-0.020431,0.000319,-0.000665,0.001783,0.204367,-0.033157,0.091893
17:07:09.202,0.100,2,10.167281,0.149994,-4.647998,1,0.000000,0.000000,1.550792,-0.017931,0.206559,0.033455,0,0.000000,0.000000,0.000000,0,1,4.561596,10.166098,-0.000024,-4.594692,-0.030766,-0.000372,0.001006,-0.004786,0.205097,-0.010960,0.159212
17:07:09.257,0.150,3,10.165876,0.224981,-4.648048,1,0.000000,0.000000,1.572182,-0.005075,0.189383,-0.019605,0,0.000000,0.000000,0.000000,0,1,4.676840,10.164382,-0.000051,-4.669367,-0.040235,-0.000646,-0.447748,-0.004858,0.201169,-0.013133,0.226045
17:07:09.312,0.200,4,10.163909,0.299955,-4.648116,1,0.000000,0.000000,1.602448,0.043048,0.291228,-0.012970,0,0.000000,0.000000,0.000000,0,1,4.590288,10.161559,0.000206,-4.691771,-0.054782,0.001188,-0.448400,0.004721,0.219178,-0.013101,0.302920
17:07:09.363,0.250,5,10.161380,0.374912,-4.648205,1,0.000000,0.000000,1.564034,-0.055619,0.165169,0.047837,0,0.000000,0.000000,0.000000,0,1,4.669615,10.158948,-0.000181,-4.714040,-0.063043,-0.001521,-0.447046,-0.005334,0.210178,-0.002946,0.380835
17:07:09.418,0.300,6,10.158289,0.449848,-4.648312,1,0.000000,0.000000,1.642500,-0.050967,0.225785,-0.001242,0,0.000000,0.000000,0.000000,0,1,4.666653,10.155397,-0.000682,-4.680119,-0.074265,-0.004828,-0.226959,-0.011852,0.212407,-0.002683,0.451660
17:07:09.473,0.350,7,10.154636,0.524759,-4.648440,1,0.000000,0.000000,1.600624,-0.028314,0.253941,-0.067466,0,0.000000,0.000000,0.000000,0,1,4.534949,10.151003,-0.001110,-4.691589,-0.086928,-0.006584,-0.228798,-0.013910,0.217598,-0.010780,0.527649
17:07:09.525,0.400,8,10.150422,0.599640,-4.648587,1,0.000000,0.000000,1.630051,-0.026137,0.183251,-0.004411,0,0.000000,0.000000,0.000000,0,1,4.699835,10.146773,-0.001609,-4.703024,-0.096021,-0.008504,-0.229153,-0.015268,0.213782,-0.010073,0.603720
17:07:09.578,0.450,9,10.145647,0.674488,-4.648754,1,0.000000,0.000000,1.614358,0.045263,0.230662,0.034505,0,0.000000,0.000000,0.000000,0,1,4.583863,10.141491,-0.001310,-4.624247,-0.107570,-0.006724,0.027595,-0.009216,0.215470,-0.005556,0.676255
17:07:09.632,0.500,10,10.140311,0.749297,-4.648940,1,0.000000,0.000000,1.639306,0.020075,0.250868,-0.018431,0,0.000000,0.000000,0.000000,0,1,4.727715,10.135354,-0.001278,-4.622904,-0.120090,-0.006501,0.026988,-0.006553,0.218688,-0.006727,0.751043
17:07:09.686,0.550,11,10.134415,0.824064,-4.649146,1,0.000000,0.000000,1.646151,0.007688,0.259515,-0.048780,0,0.000000,0.000000,0.000000,0,1,4.697045,10.128463,-0.001425,-4.621705,-0.133028,-0.006998,0.025493,-0.005366,0.222090,-0.010231,0.825967
17:07:09.741,0.600,12,10.127958,0.898785,-4.649372,1,0.000000,0.000000,1.642752,0.006466,0.269023,-0.029907,0,0.000000,0.000000,0.000000,0,1,4.668748,10.120771,-0.001621,-4.649297,-0.146447,-0.007547,-0.039761,-0.004456,0.225700,-0.011776,0.900435
17:07:09.796,0.650,13,10.120941,0.973456,-4.649617,1,0.000000,0.000000,1.661967,-0.042361,0.235768,0.031215,0,0.000000,0.000000,0.000000,0,1,4.630767,10.113003,-0.002695,-4.651177,-0.158100,-0.010707,-0.039266,-0.007164,0.226419,-0.008705,0.976184
17:07:09.848,0.700,14,10.113365,1.048072,-4.649881,1,0.000000,0.000000,1.659846,0.038700,0.249663,-0.054165,0,0.000000,0.000000,0.000000,0,1,4.645760,10.104365,-0.002414,-4.653330,-0.170595,-0.009827,-0.040922,-0.004106,0.227968,-0.011735,1.050530
17:07:09.898,0.750,15,10.105230,1.122628,-4.650165,1,0.000000,0.000000,1.687259,-0.023286,0.165392,0.045082,0,0.000000,0.000000,0.000000,0,1,4.641603,10.096811,-0.003299,-4.648031,-0.178727,-0.012174,-0.026835,-0.005305,0.224058,-0.008173,1.125961
17:07:09.958,0.800,16,10.096536,1.197122,-4.650469,1,0.000000,0.000000,1.664684,0.038143,0.185885,-0.023780,0,0.000000,0.000000,0.000000,0,1,4.677297,10.088384,-0.002998,-4.649437,-0.188053,-0.011230,-0.027634,-0.002749,0.221812,-0.009091,1.200148
17:07:10.008,0.850,17,10.087284,1.271548,-4.650792,1,0.000000,0.000000,1.685194,-0.058532,0.164144,-0.000331,0,0.000000,0.000000,0.000000,0,1,4.620108,10.080037,-0.004812,-4.650791,-0.196037,-0.015269,-0.027857,-0.005848,0.218609,-0.008604,1.276381
17:07:10.060,0.900,18,10.077474,1.345903,-4.651135,1,0.000000,0.000000,1.686659,-0.043101,0.262920,-0.017073,0,0.000000,0.000000,0.000000,0,1,4.652389,10.068940,-0.006530,-4.652310,-0.208969,-0.018801,-0.028632,-0.007809,0.220941,-0.009050,1.352460
17:07:10.121,0.950,19,10.067108,1.420182,-4.651497,1,0.000000,0.000000,1.715852,0.018493,0.254000,-0.010449,0,0.000000,0.000000,0.000000,0,1,4.641839,10.057373,-0.006890,-4.653759,-0.221569,-0.019570,-0.029119,-0.006494,0.222594,-0.009120,1.427107
17:07:10.176,1.000,20,10.056185,1.494381,-4.651878,1,0.000000,0.000000,1.701689,0.033154,0.251196,0.020089,0,0.000000,0.000000,0.000000,0,1,4.665639,10.045233,-0.006900,-4.655079,-0.234110,-0.019458,-0.028815,-0.004606,0.223956,-0.007730,1.501325
17:07:10.232,1.050,21,10.044706,1.568496,-4.652279,1,0.000000,0.000000,1.721148,-0.031819,0.169991,-0.052908,0,0.000000,0.000000,0.000000,0,1,4.636380,10.034762,-0.008611,-4.648156,-0.242369,-0.022540,-0.018175,-0.005843,0.221503,-0.009757,1.577145
17:07:10.304,1.100,22,10.032672,1.642523,-4.652699,1,0.000000,0.000000,1.695204,0.010719,0.190910,-0.045764,0,0.000000,0.000000,0.000000,0,1,4.588104,10.023228,-0.009269,-4.649240,-0.251855,-0.023274,-0.019548,-0.005123,0.220173,-0.011322,1.651823
17:07:10.386,1.150,23,10.020083,1.716458,-4.653139,1,0.000000,0.000000,1.747028,-0.037518,0.175870,-0.020890,0,0.000000,0.000000,0.000000,0,1,4.643063,10.011733,-0.011400,-4.650285,-0.260324,-0.026907,-0.020360,-0.006472,0.218327,-0.011720,1.727880
17:07:10.454,1.200,24,10.006941,1.790296,-4.653598,1,0.000000,0.000000,1.743829,0.015047,0.207629,-0.026172,0,0.000000,0.000000,0.000000,0,1,4.658415,9.998753,-0.012114,-4.654138,-0.270572,-0.027993,-0.024862,-0.005612,0.217899,-0.012308,1.802429
17:07:10.511,1.250,25,9.993246,1.864033,-4.654076,1,0.000000,0.000000,1.769280,-0.032078,0.271204,-0.028216,0,0.000000,0.000000,0.000000,0,1,4.631084,9.983272,-0.014516,-4.655477,-0.283741,-0.031951,-0.025864,-0.006630,0.219949,-0.012920,1.878576
17:07:10.563,1.300,26,9.978998,1.937665,-4.654573,1,0.000000,0.000000,1.775912,0.064797,0.220698,-0.050720,0,0.000000,0.000000,0.000000,0,1,4.563131,9.968670,-0.013775,-4.657017,-0.294786,-0.030968,-0.027465,-0.003984,0.219977,-0.014319,1.951469
17:07:10.614,1.350,27,9.964199,2.011189,-4.655090,1,0.000000,0.000000,1.763214,0.008887,0.207116,-0.018317,0,0.000000,0.000000,0.000000,0,1,4.629742,9.954086,-0.014907,-4.648047,-0.304962,-0.032569,-0.015648,-0.003525,0.219517,-0.014415,2.026134
17:07:10.674,1.400,28,9.948849,2.084599,-4.655626,1,0.000000,0.000000,1.779089,-0.045819,0.239497,0.050050,0,0.000000,0.000000,0.000000,0,1,4.627772,9.937935,-0.018166,-4.648489,-0.316458,-0.037206,-0.014826,-0.004983,0.220206,-0.012194,2.102805
17:07:10.735,1.450,29,9.932949,2.157892,-4.656181,1,0.000000,0.000000,1.780640,0.000747,0.208342,0.015452,0,0.000000,0.000000,0.000000,0,1,4.658274,9.922275,-0.019849,-4.649064,-0.326614,-0.039400,-0.014750,-0.004792,0.219811,-0.011273,2.177779
17:07:10.804,1.500,30,9.916500,2.231064,-4.656756,1,0.000000,0.000000,1.784126,0.032441,0.240937,-0.007952,0,0.000000,0.000000,0.000000,0,1,4.697957,9.904773,-0.020496,-4.666228,-0.338541,-0.040222,-0.034383,-0.003591,0.220492,-0.011253,2.251610
17:07:10.859,1.550,31,9.899504,2.304110,-4.657349,1,0.000000,0.000000,1.773289,-0.078240,0.244344,-0.016043,0,0.000000,0.000000,0.000000,0,1,4.572451,9.886817,-0.025602,-4.667990,-0.350097,-0.046441,-0.035058,-0.005924,0.221238,-0.011402,2.329770
17:07:10.936,1.600,32,9.881960,2.377026,-4.657962,1,0.000000,0.000000,1.791857,-0.003880,0.278801,-0.010650,0,0.000000,0.000000,0.000000,0,1,4.742606,9.866673,-0.028065,-4.669752,-0.363689,-0.049366,-0.035609,-0.005862,0.222982,-0.011379,2.405169
17:07:10.991,1.650,33,9.863870,2.449809,-4.658594,1,0.000000,0.000000,1.806040,-0.025141,0.235096,0.014098,0,0.000000,0.000000,0.000000,0,1,4.636590,9.847764,-0.031456,-4.660034,-0.374955,-0.053272,-0.022702,-0.006429,0.223338,-0.010563,2.481318
17:07:11.047,1.700,34,9.845236,2.522454,-4.659245,1,0.000000,0.000000,1.806200,-0.029871,0.227244,0.027564,0,0.000000,0.000000,0.000000,0,1,4.620631,9.828649,-0.035226,-4.660940,-0.385797,-0.057372,-0.022359,-0.007098,0.223450,-0.009476,2.557734
17:07:11.112,1.750,35,9.826057,2.594957,-4.659914,1,0.000000,0.000000,1.811680,0.006010,0.217172,-0.036665,0,0.000000,0.000000,0.000000,0,1,4.652595,9.809328,-0.037562,-4.662269,-0.396330,-0.059696,-0.023474,-0.006734,0.223275,-0.010230,2.632573
17:07:11.192,1.800,36,9.806335,2.667314,-4.660603,1,0.000000,0.000000,1.818727,0.005810,0.259741,-0.014341,0,0.000000,0.000000,0.000000,0,1,4.691172,9.787521,-0.040175,-4.672172,-0.408949,-0.062365,-0.033813,-0.006395,0.224261,-0.010398,2.707580
17:07:11.246,1.850,37,9.786072,2.739521,-4.661311,1,0.000000,0.000000,1.853067,0.000446,0.178727,-0.015080,0,0.000000,0.000000,0.000000,0,1,4.701278,9.768932,-0.042886,-4.673906,-0.417423,-0.065169,-0.034436,-0.006215,0.223063,-0.010521,2.782488
17:07:11.298,1.900,38,9.765268,2.811575,-4.662037,1,0.000000,0.000000,1.854353,0.008989,0.281160,-0.008308,0,0.000000,0.000000,0.000000,0,1,4.734458,9.744919,-0.045723,-4.675625,-0.431011,-0.068215,-0.034912,-0.005825,0.224552,-0.010464,2.857402
17:07:11.352,1.950,39,9.743925,2.883469,-4.662782,1,0.000000,0.000000,1.854895,-0.029934,0.185406,-0.032531,0,0.000000,0.000000,0.000000,0,1,4.611729,9.725147,-0.050253,-4.657480,-0.439614,-0.072570,-0.013551,-0.006428,0.223574,-0.010874,2.933787
17:07:11.409,2.000,40,9.722043,2.955202,-4.663547,1,0.000000,0.000000,1.877722,-0.054122,0.220474,-0.014402,0,0.000000,0.000000,0.000000,0,1,4.684358,9.703272,-0.056388,-4.658195,-0.449691,-0.078584,-0.014170,-0.007591,0.223498,-0.010960,3.011653
17:07:11.462,2.050,41,9.699624,3.026769,-4.664329,1,0.000000,0.000000,1.862647,0.063088,0.267898,-0.060601,0,0.000000,0.000000,0.000000,0,1,4.626315,9.677878,-0.056929,-4.659301,-0.462972,-0.078994,-0.015812,-0.005909,0.224555,-0.012139,3.083778
17:07:11.533,2.100,42,9.676669,3.098165,-4.665131,1,0.000000,0.000000,1.902013,-0.047258,0.240756,0.004246,0,0.000000,0.000000,0.000000,0,1,4.680712,9.653805,-0.063263,-4.666173,-0.473990,-0.085078,-0.022973,-0.006870,0.224932,-0.011804,3.161510
17:07:11.587,2.150,43,9.653180,3.169387,-4.665951,1,0.000000,0.000000,1.902540,0.001628,0.247566,-0.036681,0,0.000000,0.000000,0.000000,0,1,4.637602,9.628563,-0.067270,-4.667508,-0.485688,-0.088818,-0.024073,-0.006677,0.225446,-0.012368,3.236750
17:07:11.644,2.200,44,9.629158,3.240430,-4.666790,1,0.000000,0.000000,1.910529,0.052791,0.247418,0.002829,0,0.000000,0.000000,0.000000,0,1,4.689498,9.602467,-0.068614,-4.668609,-0.497743,-0.090136,-0.024370,-0.005356,0.225935,-0.012031,3.309152
17:07:11.718,2.250,45,9.604604,3.311292,-4.667648,1,0.000000,0.000000,1.890415,-0.034815,0.225244,0.037440,0,0.000000,0.000000,0.000000,0,1,4.707706,9.577521,-0.074891,-4.680719,-0.508117,-0.095381,-0.036548,-0.005996,0.225920,-0.011043,3.386316
17:07:11.781,2.300,46,9.579519,3.381967,-4.668524,1,0.000000,0.000000,1.877975,0.075856,0.204231,-0.036682,0,0.000000,0.000000,0.000000,0,1,4.568130,9.552623,-0.074858,-4.682738,-0.518387,-0.094891,-0.037602,-0.004254,0.225458,-0.011587,3.456958
17:07:11.842,2.350,47,9.553906,3.452452,-4.669418,1,0.000000,0.000000,1.901755,0.016376,0.226601,-0.014459,0,0.000000,0.000000,0.000000,0,1,4.623209,9.526242,-0.078480,-4.684655,-0.529204,-0.097754,-0.038239,-0.003825,0.225482,-0.011646,3.531073
17:07:11.897,2.400,48,9.527764,3.522742,-4.670331,1,0.000000,0.000000,1.921429,0.038340,0.286879,0.016041,0,0.000000,0.000000,0.000000,0,1,4.779228,9.495520,-0.081312,-4.713534,-0.543088,-0.100255,-0.068792,-0.002964,0.226735,-0.011288,3.604457
17:07:11.955,2.450,49,9.501097,3.592835,-4.671262,1,0.000000,0.000000,1.889273,-0.011439,0.249894,0.029565,0,0.000000,0.000000,0.000000,0,1,4.678649,9.466723,-0.087099,-4.716706,-0.554870,-0.104558,-0.068597,-0.003134,0.227198,-0.010474,3.680375
17:07:12.010,2.500,50,9.473905,3.662725,-4.672212,1,0.000000,0.000000,1.967207,-0.052993,0.214382,-0.001011,0,0.000000,0.000000,0.000000,0,1,4.719459,9.439882,-0.095494,-4.720076,-0.564226,-0.111415,-0.068939,-0.004111,0.226947,-0.010290,3.758678
17:07:12.084,2.550,51,9.446190,3.732410,-4.673179,1,0.000000,0.000000,1.959098,-0.031392,0.230837,-0.057631,0,0.000000,0.000000,0.000000,0,1,4.692278,9.411362,-0.102959,-4.714718,-0.574597,-0.117269,-0.059995,-0.004636,0.227022,-0.011127,3.835752
17:07:12.139,2.600,52,9.417954,3.801884,-4.674166,1,0.000000,0.000000,1.938352,-0.026514,0.223971,0.006579,1,9.566251,3.567427,-4.753199,1,1,4.646467,9.565737,3.557166,-4.718972,-0.524455,1.091132,-0.061961,-0.004609,0.227017,-0.011137,0.289370
17:07:12.193,2.650,53,9.389197,3.871145,-4.675170,1,0.000000,0.000000,1.982214,-0.026923,0.224445,0.019910,1,9.566251,3.567427,-4.753199,0,1,4.668165,9.539269,3.611569,-4.721853,-0.534540,1.085773,-0.061950,-0.005030,0.226969,-0.010554,0.303447
17:07:12.254,2.700,54,9.359923,3.940188,-4.676192,1,0.000000,0.000000,1.930798,0.039378,0.268392,0.013627,1,9.566251,3.567427,-4.753199,0,1,4.643643,9.512126,3.665854,-4.701791,-0.546567,1.082507,-0.035956,-0.004207,0.227736,-0.009937,0.314770
17:07:12.323,2.750,55,9.330131,4.009009,-4.677232,1,0.000000,0.000000,1.963202,-0.024374,0.240148,0.025847,1,9.566251,3.567427,-4.753199,0,1,4.699602,9.484504,3.719766,-4.703365,-0.557216,1.077287,-0.035850,-0.004574,0.227961,-0.009290,0.328901
17:07:12.378,2.800,56,9.299825,4.077605,-4.678291,1,0.000000,0.000000,2.002366,0.018049,0.248382,0.011695,1,9.566251,3.567427,-4.753199,0,1,4.685046,9.456240,3.773605,-4.705015,-0.568238,1.072813,-0.035949,-0.004170,0.228326,-0.008918,0.342922
17:07:12.451,2.850,57,9.269005,4.145971,-4.679367,1,0.000000,0.000000,1.970380,-0.018919,0.206258,-0.026959,1,9.566251,3.567427,-4.753199,0,1,4.664270,9.427748,3.827065,-4.694793,-0.577911,1.067919,-0.022845,-0.004429,0.227939,-0.009143,0.356564
17:07:12.509,2.900,58,9.237673,4.214104,-4.680461,1,0.000000,0.000000,1.998586,-0.010505,0.223578,-0.010744,1,9.566251,3.567427,-4.753199,0,1,4.668487,9.398644,3.880296,-4.695957,-0.588011,1.062845,-0.023327,-0.004534,0.227864,-0.009171,0.370917
17:07:12.563,2.950,59,9.205832,4.282000,-4.681573,1,0.000000,0.000000,2.012739,0.005190,0.239635,0.020044,1,9.566251,3.567427,-4.753199,0,1,4.629455,9.368851,3.933377,-4.696926,-0.598645,1.057961,-0.023303,-0.004369,0.228063,-0.008679,0.385161
17:07:12.623,3.000,60,9.173483,4.349655,-4.682703,1,0.000000,0.000000,2.019695,0.022459,0.276057,-0.001001,1,9.566251,3.567427,-4.753199,0,1,4.742526,9.338059,3.986304,-4.710798,-0.610498,1.053217,-0.038161,-0.003922,0.228863,-0.008642,0.399874
17:07:12.691,3.050,61,9.140628,4.417066,-4.683850,1,0.000000,0.000000,2.007234,-0.015786,0.243353,-0.004795,1,9.566251,3.567427,-4.753199,0,1,4.615639,9.307137,4.038646,-4.712693,-0.621123,1.047715,-0.038535,-0.004116,0.229101,-0.008579,0.414438
17:07:12.746,3.100,62,9.107268,4.484228,-4.685015,1,0.000000,0.000000,2.047280,-0.024567,0.253283,-0.052089,1,9.566251,3.567427,-4.753199,0,1,4.611295,9.275573,4.090530,-4.714931,-0.631765,1.041437,-0.039645,-0.004446,0.229491,-0.009276,0.429208
17:07:12.807,3.150,63,9.073406,4.551138,-4.686197,1,0.000000,0.000000,2.028759,-0.008856,0.227058,-0.053774,1,9.566251,3.567427,-4.753199,0,1,4.651837,9.243784,4.142414,-4.698424,-0.641844,1.036051,-0.019342,-0.004516,0.229452,-0.009850,0.442983
17:07:12.874,3.200,64,9.039043,4.617792,-4.687397,1,0.000000,0.000000,2.044385,-0.020099,0.244809,-0.006151,1,9.566251,3.567427,-4.753199,0,1,4.782120,9.211258,4.193759,-4.699381,-0.652282,1.029990,-0.019782,-0.004759,0.229692,-0.009792,0.457826
17:07:12.930,3.250,65,9.004182,4.684186,-4.688615,1,0.000000,0.000000,2.037275,-0.012354,0.252820,-0.038038,1,9.566251,3.567427,-4.753199,0,1,4.682428,9.178021,4.244880,-4.700570,-0.663083,1.024154,-0.020690,-0.004876,0.230048,-0.010223,0.472602
17:07:13.003,3.300,66,8.968824,4.750317,-4.689849,1,0.000000,0.000000,2.048428,-0.018657,0.226300,-0.000724,1,9.566251,3.567427,-4.753199,0,1,4.651642,9.144757,4.295710,-4.687139,-0.672934,1.018253,-0.004641,-0.005085,0.229991,-0.009987,0.487470
17:07:13.062,3.350,67,8.932971,4.816180,-4.691101,1,0.000000,0.000000,2.059540,-0.001961,0.197501,-0.012674,1,9.566251,3.567427,-4.753199,0,1,4.723562,9.111495,4.346728,-4.687399,-0.681971,1.013052,-0.005176,-0.005038,0.229506,-0.010027,0.502265
17:07:13.117,3.400,68,8.896626,4.881772,-4.692371,1,0.000000,0.000000,2.053884,-0.052889,0.229436,0.007108,1,9.566251,3.567427,-4.753199,0,1,4.697358,9.077436,4.396218,-4.687561,-0.691528,1.005975,-0.005438,-0.005742,0.229505,-0.009777,0.518149
17:07:13.190,3.450,69,8.859790,4.947090,-4.693657,1,0.000000,0.000000,2.071513,0.029373,0.213040,-0.050195,1,9.566251,3.567427,-4.753199,0,1,4.801378,9.042758,4.447275,-4.720878,-0.701293,1.001509,-0.043768,-0.005233,0.229266,-0.010561,0.532948
17:07:13.289,3.500,70,8.822466,5.012130,-4.694960,1,0.000000,0.000000,2.092175,-0.081342,0.304520,0.013451,1,9.566251,3.567427,-4.753199,0,1,4.761130,9.006171,4.494862,-4.722947,-0.712721,0.992330,-0.043989,-0.006320,0.230341,-0.010221,0.549634
17:07:13.345,3.550,71,8.784655,5.076888,-4.696281,1,0.000000,0.000000,2.080444,0.021550,0.173709,-0.007303,1,9.566251,3.567427,-4.753199,0,1,4.623914,8.971511,4.545448,-4.725142,-0.721088,0.987945,-0.044461,-0.005928,0.229544,-0.010180,0.564071
17:07:13.399,3.600,72,8.746359,5.141360,-4.697618,1,0.000000,0.000000,2.142127,-0.013742,0.182883,0.019448,1,9.566251,3.567427,-4.753199,0,1,4.670614,8.936514,4.594839,-4.710809,-0.728982,0.981748,-0.025964,-0.006036,0.228896,-0.009675,0.578807
17:07:13.454,3.650,73,8.707582,5.205543,-4.698972,1,0.000000,0.000000,2.134183,-0.061888,0.274213,0.037650,1,9.566251,3.567427,-4.753199,0,1,4.627005,8.899029,4.641847,-4.711870,-0.739349,0.973052,-0.025874,-0.006801,0.229516,-0.009033,0.595459
17:07:13.517,3.700,74,8.668325,5.269433,-4.700343,1,0.000000,0.000000,2.137046,0.011518,0.211912,-0.018849,1,9.566251,3.567427,-4.753199,0,1,4.723206,8.862176,4.691022,-4.713232,-0.748484,0.967409,-0.026450,-0.006554,0.229279,-0.009165,0.610167
17:07:13.578,3.750,75,8.628589,5.333027,-4.701731,1,0.000000,0.000000,2.110242,0.028102,0.210327,-0.021003,1,9.566251,3.567427,-4.753199,0,1,4.756298,8.824767,4.740458,-4.726701,-0.757930,0.962598,-0.040748,-0.006092,0.229026,-0.009389,0.624698
17:07:13.637,3.800,76,8.588379,5.396320,-4.703135,1,0.000000,0.000000,2.129444,-0.010291,0.265108,0.002591,1,9.566251,3.567427,-4.753199,0,1,4.699026,8.785537,4.787952,-4.728690,-0.768620,0.955707,-0.041079,-0.006147,0.229501,-0.009233,0.640029
17:07:13.692,3.850,77,8.547695,5.459311,-4.704556,1,0.000000,0.000000,2.182191,0.024496,0.224902,0.022119,1,9.566251,3.567427,-4.753199,0,1,4.772012,8.746718,4.836614,-4.730581,-0.778056,0.949938,-0.041164,-0.005749,0.229441,-0.008830,0.654247
17:07:13.747,3.900,78,8.506540,5.521994,-4.705993,1,0.000000,0.000000,2.172268,-0.011179,0.154187,0.009152,1,9.566251,3.567427,-4.753199,0,1,4.618878,8.710192,4.884549,-4.699637,-0.784787,0.943948,-0.004073,-0.005819,0.228476,-0.008424,0.669216
17:07:13.811,3.950,79,8.464916,5.584366,-4.707446,1,0.000000,0.000000,2.134515,0.019139,0.287166,-0.063519,1,9.566251,3.567427,-4.753199,0,1,4.661497,8.668379,4.931820,-4.700116,-0.796553,0.937702,-0.005100,-0.005503,0.229219,-0.009115,0.683570
17:07:13.864,4.000,80,8.422826,5.646425,-4.708916,1,0.000000,0.000000,2.162559,-0.018196,0.245879,0.024552,1,9.566251,3.567427,-4.753199,0,1,4.807902,8.627857,4.977887,-4.700204,-0.806308,0.930446,-0.005169,-0.005662,0.229427,-0.008698,0.699326
17:07:13.915,4.050,81,8.380272,5.708166,-4.710402,1,0.000000,0.000000,2.176569,-0.014430,0.286002,0.006065,1,9.566251,3.567427,-4.753199,0,1,4.742476,8.585290,5.023234,-4.712569,-0.817361,0.922664,-0.019233,-0.005770,0.230126,-0.008580,0.714960
17:07:13.970,4.100,82,8.337256,5.769585,-4.711904,1,0.000000,0.000000,2.159977,0.030984,0.288871,-0.037840,1,9.566251,3.567427,-4.753199,0,1,4.770332,8.541451,5.069895,-4.713676,-0.829218,0.916504,-0.019970,-0.005322,0.230842,-0.008933,0.728879
17:07:14.022,4.150,83,8.293782,5.830680,-4.713422,1,0.000000,0.000000,2.192329,0.025444,0.246041,0.034538,1,9.566251,3.567427,-4.753199,0,1,4.589677,8.498753,5.116580,-4.714465,-0.839364,0.910404,-0.019938,-0.004951,0.231025,-0.008415,0.742936
17:07:14.082,4.200,84,8.249850,5.891448,-4.714957,1,0.000000,0.000000,2.216785,0.004391,0.188964,-0.034548,1,9.566251,3.567427,-4.753199,0,1,4.734752,8.458165,5.162872,-4.721155,-0.847143,0.904130,-0.026931,-0.004840,0.230525,-0.008750,0.757796
17:07:14.137,4.250,85,8.205465,5.951883,-4.716507,1,0.000000,0.000000,2.179231,-0.076882,0.235956,0.038636,1,9.566251,3.567427,-4.753199,0,1,4.857197,8.416351,5.204780,-4.722303,-0.855671,0.894831,-0.026890,-0.005687,0.230588,-0.008199,0.776318
17:07:14.194,4.300,86,8.160627,6.011984,-4.718072,1,0.000000,0.000000,2.216729,0.038385,0.247104,-0.035490,1,8.231429,5.739183,-4.672399,1,1,4.788940,8.238540,5.714638,-4.721669,-0.937885,1.140221,-0.025032,-0.005640,0.230587,-0.008189,0.307406
17:07:14.252,4.350,87,8.115341,6.071747,-4.719654,1,0.000000,0.000000,2.226000,-0.076219,0.241006,-0.035458,1,8.231429,5.739183,-4.672399,0,1,4.642283,8.191467,5.771261,-4.700349,-0.946512,1.132062,0.000049,-0.006460,0.230708,-0.008394,0.310580
17:07:14.307,4.400,88,8.069607,6.131169,-4.721251,1,0.000000,0.000000,2.230634,-0.013887,0.175002,-0.055372,1,8.231429,5.739183,-4.672399,0,1,4.602857,8.144114,5.827733,-4.700553,-0.954695,1.125029,-0.000827,-0.006545,0.230068,-0.008928,0.313134
17:07:14.377,4.450,89,8.023430,6.190245,-4.722863,1,0.000000,0.000000,2.237506,0.052570,0.210144,-0.025915,1,8.231429,5.739183,-4.672399,0,1,4.716301,8.096136,5.884066,-4.700684,-0.963706,1.118543,-0.001446,-0.005874,0.229841,-0.009118,0.315474
17:07:14.432,4.500,90,7.976811,6.248973,-4.724491,1,0.000000,0.000000,2.264006,-0.007920,0.186771,-0.051792,1,8.231429,5.739183,-4.672399,0,1,4.776826,8.047932,5.939883,-4.722507,-0.971790,1.111268,-0.026860,-0.005897,0.229358,-0.009692,0.317174
17:07:14.486,4.550,91,7.929753,6.307350,-4.726135,1,0.000000,0.000000,2.244806,0.024516,0.238457,-0.003722,1,8.231429,5.739183,-4.672399,0,1,4.638843,7.999004,5.995394,-4.723838,-0.980920,1.104210,-0.027288,-0.005559,0.229459,-0.009627,0.319558
17:07:14.557,4.600,92,7.882259,6.365372,-4.727793,1,0.000000,0.000000,2.259437,-0.001034,0.207343,-0.017464,1,8.231429,5.739183,-4.672399,0,1,4.670944,7.949854,6.050504,-4.725249,-0.989342,1.096941,-0.027847,-0.005509,0.229216,-0.009712,0.322051
17:07:14.613,4.650,93,7.834332,6.423036,-4.729467,1,0.000000,0.000000,2.245035,0.063348,0.237529,-0.017447,1,8.231429,5.739183,-4.672399,0,1,4.812462,7.899899,6.105576,-4.751197,-0.998803,1.090445,-0.056336,-0.004761,0.229306,-0.009904,0.324888
17:07:14.665,4.700,94,7.785973,6.480338,-4.731156,1,0.000000,0.000000,2.275804,-0.008054,0.220343,0.015648,1,8.231429,5.739183,-4.672399,0,1,4.740151,7.849818,6.159917,-4.753926,-1.007228,1.082864,-0.056598,-0.004797,0.229210,-0.009633,0.327513
17:07:14.739,4.750,95,7.737187,6.537276,-4.732859,1,0.000000,0.000000,2.280057,0.002997,0.302372,-0.001341,1,8.231429,5.739183,-4.672399,0,1,4.716725,7.798660,6.213641,-4.756731,-1.016876,1.074689,-0.057000,-0.004714,0.229988,-0.009545,0.330286
17:07:14.794,4.800,96,7.687975,6.593847,-4.734578,1,0.000000,0.000000,2.275873,0.001515,0.207622,-0.014818,1,8.231429,5.739183,-4.672399,0,1,4.768757,7.747757,6.267332,-4.762242,-1.025214,1.067348,-0.060518,-0.004648,0.229752,-0.009612,0.333093
17:07:14.847,4.850,97,7.638340,6.650046,-4.736311,1,0.000000,0.000000,2.268104,-0.016592,0.229495,-0.003934,1,8.231429,5.739183,-4.672399,0,1,4.790370,7.696339,6.320406,-4.765259,-1.033756,1.059620,-0.060949,-0.004773,0.229750,-0.009553,0.335952
17:07:14.908,4.900,98,7.588286,6.705872,-4.738059,1,0.000000,0.000000,2.296980,-0.019687,0.216770,0.010613,1,8.231429,5.739183,-4.672399,0,1,4.767714,7.644640,6.373118,-4.768233,-1.041852,1.051714,-0.061240,-0.004926,0.229616,-0.009348,0.338838
17:07:14.962,4.950,99,7.537815,6.761320,-4.739821,1,0.000000,0.000000,2.284147,0.008261,0.260352,-0.041362,1,8.231429,5.739183,-4.672399,0,1,4.790753,7.591949,6.425473,-4.777014,-1.050967,1.043916,-0.068339,-0.004792,0.229929,-0.009694,0.342208
17:07:15.018,5.000,100,7.486929,6.816388,-4.741598,1,0.000000,0.000000,2.312280,-0.015012,0.205899,-0.012709,1,8.231429,5.739183,-4.672399,0,1,4.813513,7.539514,6.477505,-4.780454,-1.058811,1.036057,-0.068849,-0.004895,0.229687,-0.009724,0.345133
17:07:15.092,5.050,101,7.435632,6.871072,-4.743390,1,0.000000,0.000000,2.294427,0.061273,0.234408,0.002412,1,8.231429,5.739183,-4.672399,0,1,4.588469,7.485882,6.529840,-4.783859,-1.068004,1.029255,-0.069226,-0.004234,0.229734,-0.009604,0.347278
17:07:15.161,5.100,102,7.383927,6.925370,-4.745195,1,0.000000,0.000000,2.318470,-0.005390,0.239107,0.015289,1,8.231429,5.739183,-4.672399,0,1,4.726926,7.432169,6.581025,-4.769819,-1.076419,1.021173,-0.049707,-0.004245,0.229827,-0.009291,0.348579
17:07:15.218,5.150,103,7.331816,6.979278,-4.747015,1,0.000000,0.000000,2.339491,0.055460,0.255184,0.008669,1,8.231429,5.739183,-4.672399,0,1,4.731205,7.377382,6.632458,-4.772251,-1.085575,1.013718,-0.050023,-0.003660,0.230075,-0.009117,0.350710
17:07:15.288,5.200,104,7.279302,7.032794,-4.748849,1,0.000000,0.000000,2.359372,0.032047,0.250159,-0.043501,1,8.231429,5.739183,-4.672399,0,1,4.712346,7.322354,6.683261,-4.774900,-1.094269,1.005788,-0.050777,-0.003313,0.230270,-0.009446,0.353137
17:07:15.425,5.250,105,7.226389,7.085914,-4.750697,1,0.000000,0.000000,2.323078,0.006323,0.261767,0.043588,1,8.231429,5.739183,-4.672399,0,1,4.811488,7.266908,6.733226,-4.787120,-1.103186,0.997607,-0.062002,-0.003221,0.230573,-0.008981,0.356872
17:07:15.482,5.300,106,7.173079,7.138636,-4.752558,1,0.000000,0.000000,2.348890,0.031129,0.171249,0.017710,1,8.231429,5.739183,-4.672399,0,1,4.758663,7.212125,6.783931,-4.790139,-1.110691,0.990644,-0.062236,-0.002894,0.230008,-0.008730,0.358821
17:07:15.535,5.350,107,7.119376,7.190956,-4.754434,1,0.000000,0.000000,2.371371,-0.031168,0.243634,-0.016889,1,8.231429,5.739183,-4.672399,0,1,4.733664,7.156443,6.832689,-4.793293,-1.118495,0.981657,-0.062741,-0.003160,0.230137,-0.008806,0.362270
17:07:15.590,5.400,108,7.065282,7.242872,-4.756323,1,0.000000,0.000000,2.372198,-0.010011,0.240129,0.061034,1,8.231429,5.739183,-4.672399,0,1,4.728564,7.100226,6.881354,-4.776609,-1.126475,0.973047,-0.040420,-0.003224,0.230230,-0.008088,0.363769
17:07:15.655,5.450,109,7.010800,7.294380,-4.758225,1,0.000000,0.000000,2.386825,0.005330,0.198600,-0.019472,1,8.231429,5.739183,-4.672399,0,1,4.741998,7.044155,6.930263,-4.778678,-1.133807,0.965079,-0.040913,-0.003145,0.229937,-0.008192,0.366213
17:07:15.710,5.500,110,6.955934,7.345478,-4.760141,1,0.000000,0.000000,2.401515,-0.003965,0.199155,-0.024193,1,8.231429,5.739183,-4.672399,0,1,4.699111,6.987825,6.978619,-4.780794,-1.140903,0.956847,-0.041454,-0.003153,0.229655,-0.008337,0.368821
17:07:15.768,5.550,111,6.900686,7.396163,-4.762070,1,0.000000,0.000000,2.401851,-0.001553,0.241019,-0.014331,1,8.231429,5.739183,-4.672399,0,1,4.701504,6.930363,7.026148,-4.759367,-1.148745,0.948145,-0.015261,-0.003138,0.229758,-0.008305,0.371213
17:07:15.824,5.600,112,6.845060,7.446431,-4.764013,1,0.000000,0.000000,2.397567,-0.015371,0.166685,0.009588,1,8.231429,5.739183,-4.672399,0,1,4.831884,6.874079,7.073853,-4.760082,-1.155148,0.940174,-0.015540,-0.003248,0.229190,-0.008146,0.373727
17:07:15.880,5.650,113,6.789058,7.496281,-4.765969,1,0.000000,0.000000,2.423354,0.024328,0.268444,-0.052782,1,8.231429,5.739183,-4.672399,0,1,4.814453,6.815021,7.120703,-4.761031,-1.163617,0.931418,-0.016303,-0.003002,0.229540,-0.008539,0.376507
17:07:15.939,5.700,114,6.732685,7.545709,-4.767937,1,0.000000,0.000000,2.458241,0.008318,0.246602,-0.058725,1,8.231429,5.739183,-4.672399,0,1,4.855476,6.756167,7.167061,-4.789069,-1.171200,0.922400,-0.047737,-0.002902,0.229691,-0.009074,0.379964
17:07:15.991,5.750,115,6.675943,7.594713,-4.769919,1,0.000000,0.000000,2.424433,-0.025668,0.230497,0.055637,1,8.231429,5.739183,-4.672399,0,1,4.799508,6.697710,7.212469,-4.791261,-1.178349,0.913230,-0.047711,-0.003102,0.229699,-0.008513,0.383457
17:07:16.047,5.800,116,6.618835,7.643289,-4.771913,1,0.000000,0.000000,2.408959,0.001396,0.181121,0.010612,1,8.231429,5.739183,-4.672399,0,1,4.843232,6.639602,7.258693,-4.793590,-1.185099,0.905330,-0.047988,-0.003062,0.229276,-0.008349,0.385766
17:07:16.098,5.850,117,6.561364,7.691436,-4.773920,1,0.000000,0.000000,2.451805,0.038257,0.226361,0.035774,1,8.231429,5.739183,-4.672399,0,1,4.759420,6.579632,7.304711,-4.785301,-1.192793,0.897181,-0.036129,-0.002706,0.229251,-0.007937,0.387324
17:07:16.150,5.900,118,6.503535,7.739150,-4.775939,1,0.000000,0.000000,2.416072,-0.048941,0.157938,0.029113,1,6.544074,7.428092,-4.720122,1,1,4.776086,6.539592,7.413551,-4.784790,-1.192690,0.913211,-0.033873,-0.002695,0.229238,-0.007929,0.327709
17:07:16.212,5.950,119,6.445349,7.786428,-4.777971,1,0.000000,0.000000,2.455099,0.045156,0.257522,0.029757,1,6.544074,7.428092,-4.720122,0,1,4.829826,6.479485,7.459128,-4.786367,-1.200628,0.904529,-0.033986,-0.002287,0.229480,-0.007611,0.329183
17:07:16.268,6.000,120,6.386810,7.833269,-4.780015,1,0.000000,0.000000,2.432004,-0.036429,0.222552,0.001428,1,6.544074,7.428092,-4.720122,0,1,4.772163,6.419433,7.503977,-4.783565,-1.207602,0.895427,-0.029209,-0.002576,0.229421,-0.007520,0.330923
17:07:16.323,6.050,121,6.327923,7.879669,-4.782072,1,0.000000,0.000000,2.507189,0.026255,0.304467,0.007176,1,6.544074,7.428092,-4.720122,0,1,4.745853,6.358321,7.548371,-4.784991,-1.215459,0.885688,-0.029482,-0.002334,0.230051,-0.007398,0.332702
17:07:16.383,6.100,122,6.268689,7.925626,-4.784140,1,0.000000,0.000000,2.475850,-0.005173,0.266937,0.013532,1,6.544074,7.428092,-4.720122,0,1,4.780098,6.297148,7.592238,-4.786405,-1.222877,0.876155,-0.029697,-0.002358,0.230358,-0.007226,0.334608
17:07:16.440,6.150,123,6.209112,7.971137,-4.786221,1,0.000000,0.000000,2.496958,0.037225,0.224395,-0.005516,1,6.544074,7.428092,-4.720122,0,1,4.768406,6.235672,7.636121,-4.782352,-1.230051,0.867413,-0.023736,-0.002031,0.230309,-0.007194,0.336090
17:07:16.507,6.200,124,6.149195,8.016199,-4.788313,1,0.000000,0.000000,2.483689,-0.006101,0.222384,-0.040105,1,6.544074,7.428092,-4.720122,0,1,4.787924,6.174078,7.679276,-4.783644,-1.236873,0.858276,-0.024323,-0.002064,0.230244,-0.007460,0.337873
17:07:16.569,6.250,125,6.088943,8.060811,-4.790417,1,0.000000,0.000000,2.505750,-0.068606,0.239986,0.003593,1,6.544074,7.428092,-4.720122,0,1,4.627172,6.112395,7.721360,-4.784834,-1.243009,0.848031,-0.024616,-0.002605,0.230323,-0.007371,0.340306
17:07:16.625,6.300,126,6.028358,8.104969,-4.792533,1,0.000000,0.000000,2.514059,-0.025849,0.238001,-0.044612,1,6.544074,7.428092,-4.720122,0,1,4.696149,6.050166,7.763276,-4.760444,-1.249498,0.838259,0.004077,-0.002792,0.230385,-0.007584,0.343889
17:07:16.694,6.350,127,5.967444,8.148672,-4.794660,1,0.000000,0.000000,2.540436,-0.007017,0.203390,0.005086,1,6.544074,7.428092,-4.720122,0,1,4.760436,5.987809,7.805104,-4.760213,-1.255513,0.828939,0.003783,-0.002826,0.230169,-0.007484,0.345891
17:07:16.756,6.400,128,5.906204,8.191916,-4.796799,1,0.000000,0.000000,2.517993,-0.060428,0.220435,0.021120,1,6.544074,7.428092,-4.720122,0,1,4.751483,5.925405,7.845830,-4.759941,-1.261318,0.818902,0.003612,-0.003282,0.230092,-0.007260,0.348572
17:07:16.813,6.450,129,5.844641,8.234699,-4.798948,1,0.000000,0.000000,2.535414,-0.010297,0.250794,0.046863,1,6.544074,7.428092,-4.720122,0,1,4.882046,5.862023,7.886295,-4.794766,-1.267917,0.809016,-0.036392,-0.003338,0.230255,-0.006951,0.348863
17:07:16.873,6.500,130,5.782760,8.277019,-4.801109,1,0.000000,0.000000,2.569683,-0.013509,0.228253,0.008901,1,6.544074,7.428092,-4.720122,0,1,4.751789,5.798586,7.926408,-4.796550,-1.273858,0.799139,-0.036635,-0.003417,0.230239,-0.006829,0.350997
17:07:16.940,6.550,131,5.720563,8.318873,-4.803281,1,0.000000,0.000000,2.544366,-0.017772,0.220785,0.041271,1,6.544074,7.428092,-4.720122,0,1,4.830093,5.734976,7.966049,-4.798239,-1.279889,0.789455,-0.036643,-0.003528,0.230166,-0.006461,0.353154
17:07:16.995,6.600,132,5.658054,8.360260,-4.805464,1,0.000000,0.000000,2.578922,0.021004,0.213831,0.007186,1,6.544074,7.428092,-4.720122,0,1,4.720932,5.670785,8.005730,-4.777240,-1.285977,0.780155,-0.010963,-0.003340,0.230040,-0.006287,0.355879
17:07:17.056,6.650,133,5.595236,8.401176,-4.807658,1,0.000000,0.000000,2.571159,-0.059335,0.242859,0.028867,1,6.544074,7.428092,-4.720122,0,1,4.796302,5.606757,8.043660,-4.777699,-1.291493,0.769480,-0.011050,-0.003767,0.230138,-0.006022,0.358954
17:07:17.108,6.700,134,5.532114,8.441620,-4.809862,1,0.000000,0.000000,2.552553,-0.009626,0.270622,0.036852,1,6.544074,7.428092,-4.720122,0,1,4.826317,5.541561,8.081371,-4.778127,-1.298191,0.759199,-0.011060,-0.003811,0.230445,-0.005702,0.361767
17:07:17.164,6.750,135,5.468690,8.481588,-4.812077,1,0.000000,0.000000,2.544948,0.074530,0.215743,-0.003686,1,6.544074,7.428092,-4.720122,0,1,4.930236,5.475789,8.120329,-4.822423,-1.305355,0.750806,-0.060983,-0.003222,0.230334,-0.005819,0.361478
17:07:17.219,6.800,136,5.404969,8.521080,-4.814302,1,0.000000,0.000000,2.596130,-0.056988,0.256134,0.040686,1,6.544074,7.428092,-4.720122,0,1,4.825958,5.410662,8.156544,-4.825354,-1.310811,0.739802,-0.060981,-0.003623,0.230527,-0.005476,0.364749
17:07:17.270,6.850,137,5.340953,8.560093,-4.816538,1,0.000000,0.000000,2.579804,-0.020013,0.233757,-0.014825,1,6.544074,7.428092,-4.720122,0,1,4.870220,5.345132,8.193004,-4.828438,-1.316616,0.729683,-0.061316,-0.003745,0.230550,-0.005545,0.367305
17:07:17.324,6.900,138,5.276647,8.598624,-4.818783,1,0.000000,0.000000,2.611689,0.009572,0.215628,-0.007380,1,6.544074,7.428092,-4.720122,0,1,4.901781,5.279211,8.229640,-4.851816,-1.322264,0.720033,-0.084623,-0.003647,0.230441,-0.005618,0.370468
17:07:17.378,6.950,139,5.212054,8.636671,-4.821039,1,0.000000,0.000000,2.648403,0.005287,0.189232,-0.056843,1,6.544074,7.428092,-4.720122,0,1,4.896766,5.213497,8.266103,-4.856190,-1.327118,0.710506,-0.085220,-0.003582,0.230140,-0.005987,0.372234
17:07:17.455,7.000,140,5.147177,8.674232,-4.823304,1,0.000000,0.000000,2.611771,0.006911,0.230115,-0.006980,1,6.544074,7.428092,-4.720122,0,1,4.787041,5.146848,8.301551,-4.860461,-1.332930,0.700631,-0.085526,-0.003506,0.230140,-0.005994,0.374529
17:07:17.625,7.050,141,5.082021,8.711306,-4.825580,1,0.000000,0.000000,2.644889,0.045921,0.212804,0.030219,1,6.544074,7.428092,-4.720122,0,1,4.837879,5.079614,8.337434,-4.856897,-1.338741,0.691372,-0.076821,-0.003150,0.230015,-0.005714,0.375189
17:07:17.682,7.100,142,5.016588,8.747889,-4.827865,1,0.000000,0.000000,2.639100,-0.004896,0.245562,0.013825,1,6.544074,7.428092,-4.720122,0,1,4.885826,5.012296,8.371472,-4.860694,-1.344333,0.680962,-0.076989,-0.003163,0.230126,-0.005577,0.377870
17:07:17.739,7.150,143,4.950883,8.783981,-4.830159,1,0.000000,0.000000,2.631893,-0.012679,0.231278,-0.020137,1,6.544074,7.428092,-4.720122,0,1,4.798793,4.945077,8.405075,-4.864592,-1.349682,0.670690,-0.077360,-0.003230,0.230135,-0.005679,0.380511
17:07:17.798,7.200,144,4.884910,8.819578,-4.832463,1,0.000000,0.000000,2.647415,0.032154,0.215505,-0.021188,1,6.544074,7.428092,-4.720122,0,1,4.822906,4.877132,8.439269,-4.855333,-1.355331,0.661206,-0.062818,-0.002981,0.230032,-0.005749,0.381076
17:07:17.856,7.250,145,4.818672,8.854679,-4.834776,1,0.000000,0.000000,2.614606,-0.025351,0.259277,-0.020834,1,6.544074,7.428092,-4.720122,0,1,4.803969,4.809054,8.471128,-4.858519,-1.361056,0.650421,-0.063194,-0.003138,0.230236,-0.005853,0.384406
17:07:17.912,7.300,146,4.752172,8.889282,-4.837098,1,0.000000,0.000000,2.647254,-0.011511,0.207343,0.081860,1,6.544074,7.428092,-4.720122,0,1,4.745761,4.741478,8.503647,-4.861438,-1.365922,0.640452,-0.062941,-0.003196,0.230077,-0.005252,0.386551
17:07:17.987,7.350,147,4.685415,8.923386,-4.839429,1,0.000000,0.000000,2.687141,-0.021919,0.272610,0.048429,1,6.544074,7.428092,-4.720122,0,1,4.873523,4.672543,8.534217,-4.867055,-1.371141,0.629103,-0.065831,-0.003325,0.230370,-0.004895,0.390361
17:07:18.045,7.400,148,4.618404,8.956987,-4.841770,1,0.000000,0.000000,2.634709,0.003458,0.207580,0.046797,1,6.544074,7.428092,-4.720122,0,1,4.791749,4.604197,8.566009,-4.870224,-1.376368,0.619415,-0.065776,-0.003278,0.230214,-0.004545,0.392269
17:07:18.099,7.450,149,4.551143,8.990084,-4.844118,1,0.000000,0.000000,2.682419,0.004815,0.172415,0.002209,1,6.544074,7.428092,-4.720122,0,1,4.936741,4.536341,8.598072,-4.873500,-1.380620,0.610079,-0.065962,-0.003223,0.229821,-0.004500,0.393390
17:07:18.162,7.500,150,4.483636,9.022676,-4.846476,1,0.000000,0.000000,2.693268,-0.002284,0.223304,-0.000905,1,6.544074,7.428092,-4.720122,0,1,4.796609,4.467315,8.628473,-4.853615,-1.385377,0.599774,-0.039932,-0.003217,0.229777,-0.004413,0.394605
17:07:18.224,7.550,151,4.415887,9.054760,-4.848842,1,0.000000,0.000000,2.716956,-0.022564,0.250320,0.049320,1,4.400255,8.917562,-4.817338,1,1,4.817792,4.399647,8.849752,-4.854288,-1.389409,0.654044,-0.038638,-0.003155,0.229718,-0.004410,0.205723
17:07:18.279,7.600,152,4.347899,9.086335,-4.851216,1,0.000000,0.000000,2.703392,0.012252,0.259634,-0.001720,1,4.400255,8.917562,-4.817338,0,1,4.844907,4.329771,8.882104,-4.856218,-1.394585,0.643371,-0.038843,-0.003052,0.229918,-0.004392,0.205095
17:07:18.331,7.650,153,4.279676,9.117399,-4.853598,1,0.000000,0.000000,2.729741,-0.025898,0.226396,0.008646,1,4.400255,8.917562,-4.817338,0,1,4.818693,4.260109,8.913876,-4.847011,-1.398747,0.632610,-0.026356,-0.003204,0.229894,-0.004277,0.204567
17:07:18.386,7.700,154,4.211222,9.147950,-4.855989,1,0.000000,0.000000,2.725043,0.016254,0.210362,-0.012652,1,4.400255,8.917562,-4.817338,0,1,4.901039,4.190057,8.945526,-4.848354,-1.403306,0.622444,-0.026616,-0.003075,0.229765,-0.004331,0.203670
17:07:18.441,7.750,155,4.142542,9.177986,-4.858387,1,0.000000,0.000000,2.728038,-0.023975,0.227775,-0.021416,1,4.400255,8.917562,-4.817338,0,1,4.851108,4.119960,8.976240,-4.849735,-1.407509,0.611694,-0.026933,-0.003213,0.229752,-0.004442,0.203190
17:07:18.501,7.800,156,4.073638,9.207506,-4.860793,1,0.000000,0.000000,2.708479,-0.016263,0.248542,-0.001501,1,4.400255,8.917562,-4.817338,0,1,4.911717,4.049427,9.006299,-4.868315,-1.412197,0.600846,-0.046758,-0.003298,0.229875,-0.004468,0.202798
17:07:18.578,7.850,157,4.004514,9.236508,-4.863207,1,0.000000,0.000000,2.742417,0.024759,0.204487,-0.009500,1,4.400255,8.917562,-4.817338,0,1,4.920010,3.978671,9.036540,-4.870670,-1.416629,0.590774,-0.047009,-0.003116,0.229710,-0.004501,0.201769
17:07:18.637,7.900,158,3.935176,9.264991,-4.865628,1,0.000000,0.000000,2.735693,-0.024283,0.238975,0.038244,1,4.400255,8.917562,-4.817338,0,1,4.820967,3.907850,9.065537,-4.872915,-1.420837,0.579842,-0.046988,-0.003252,0.229770,-0.004229,0.201448
17:07:18.694,7.950,159,3.865625,9.292952,-4.868057,1,0.000000,0.000000,2.741757,-0.054736,0.204039,-0.035449,1,4.400255,8.917562,-4.817338,0,1,4.864734,3.837462,9.094047,-4.872320,-1.424245,0.569045,-0.043927,-0.003582,0.229605,-0.004418,0.200934
17:07:18.750,8.000,160,3.795868,9.320391,-4.870493,1,0.000000,0.000000,2.765883,0.021491,0.189150,0.003435,1,4.400255,8.917562,-4.817338,0,1,4.818056,3.766272,9.122909,-4.874504,-1.428237,0.559074,-0.044106,-0.003422,0.229348,-0.004369,0.199728
17:07:18.804,8.050,161,3.725906,9.347305,-4.872936,1,0.000000,0.000000,2.755074,0.047523,0.222092,-0.003210,1,4.400255,8.917562,-4.817338,0,1,4.902933,3.694251,9.151193,-4.876712,-1.433017,0.548974,-0.044318,-0.003100,0.229302,-0.004362,0.198687
17:07:18.860,8.100,162,3.655745,9.373694,-4.875386,1,0.000000,0.000000,2.776602,0.013967,0.241824,0.006337,1,4.400255,8.917562,-4.817338,0,1,4.945414,3.622165,9.178402,-4.898010,-1.437319,0.538202,-0.066210,-0.002993,0.229381,-0.004344,0.199445
17:07:18.915,8.150,163,3.585388,9.399555,-4.877843,1,0.000000,0.000000,2.791775,0.017485,0.242215,-0.018187,1,4.400255,8.917562,-4.817338,0,1,4.802370,3.549807,9.205104,-4.901357,-1.441517,0.527396,-0.066501,-0.002866,0.229461,-0.004429,0.199073
17:07:18.973,8.200,164,3.514839,9.424888,-4.880307,1,0.000000,0.000000,2.776814,-0.006082,0.254455,0.032451,1,4.400255,8.917562,-4.817338,0,1,4.955927,3.477391,9.230839,-4.904595,-1.445674,0.516244,-0.066517,-0.002886,0.229616,-0.004203,0.199116
17:07:19.028,8.250,165,3.444102,9.449691,-4.882777,1,0.000000,0.000000,2.818656,-0.036449,0.300544,0.033309,1,4.400255,8.917562,-4.817338,0,1,4.870021,3.404648,9.255003,-4.896931,-1.449395,0.503971,-0.054135,-0.003092,0.230053,-0.003948,0.199149
17:07:19.084,8.300,166,3.373181,9.473962,-4.885254,1,0.000000,0.000000,2.813363,0.041948,0.254801,-0.004776,1,4.400255,8.917562,-4.817338,0,1,4.881613,3.331137,9.280120,-4.899645,-1.453851,0.493116,-0.054336,-0.002817,0.230204,-0.003953,0.198871
17:07:19.157,8.350,167,3.302080,9.497700,-4.887737,1,0.000000,0.000000,2.816947,0.032167,0.233241,-0.012003,1,4.400255,8.917562,-4.817338,0,1,4.878879,3.257790,9.304897,-4.902387,-1.457932,0.482462,-0.054578,-0.002604,0.230223,-0.004001,0.198366
17:07:19.212,8.400,168,3.230804,9.520903,-4.890226,1,0.000000,0.000000,2.796532,-0.021578,0.167549,-0.058483,1,4.400255,8.917562,-4.817338,0,1,4.857010,3.185914,9.329486,-4.891343,-1.460802,0.472330,-0.039286,-0.002718,0.229844,-0.004293,0.196613
17:07:19.269,8.450,169,3.159355,9.543572,-4.892721,1,0.000000,0.000000,2.844660,-0.022526,0.222254,-0.009177,1,4.400255,8.917562,-4.817338,0,1,4.930254,3.113219,9.352685,-4.893324,-1.463660,0.461219,-0.039525,-0.002838,0.229798,-0.004322,0.196384
17:07:19.339,8.500,170,3.087739,9.565703,-4.895222,1,0.000000,0.000000,2.846045,0.024037,0.283371,0.022241,1,4.400255,8.917562,-4.817338,0,1,4.856823,3.038756,9.374930,-4.895240,-1.467814,0.449635,-0.039599,-0.002677,0.230118,-0.004165,0.196961
17:07:19.393,8.550,171,3.015958,9.587297,-4.897728,1,0.000000,0.000000,2.848759,0.007223,0.255609,0.001703,1,4.400255,8.917562,-4.817338,0,1,4.939214,2.964747,9.396825,-4.909342,-1.471415,0.438285,-0.053528,-0.002618,0.230270,-0.004160,0.197577
17:07:19.447,8.600,172,2.944018,9.608351,-4.900240,1,0.000000,0.000000,2.834113,0.027240,0.200454,-0.021529,1,4.400255,8.917562,-4.817338,0,1,4.865730,2.890981,9.419450,-4.912061,-1.474944,0.428037,-0.053823,-0.002442,0.230094,-0.004261,0.196561
17:07:19.506,8.650,173,2.871922,9.628864,-4.902758,1,0.000000,0.000000,2.855661,0.004634,0.220339,0.036189,1,4.400255,8.917562,-4.817338,0,1,4.875072,2.817168,9.440868,-4.914661,-1.478086,0.417190,-0.053823,-0.002400,0.230036,-0.004026,0.196169
17:07:19.559,8.700,174,2.799674,9.648836,-4.905281,1,0.000000,0.000000,2.851836,0.014207,0.250817,0.007780,1,4.400255,8.917562,-4.817338,0,1,4.972755,2.742534,9.461298,-4.933343,-1.481732,0.405967,-0.072102,-0.002303,0.230158,-0.003996,0.198048
17:07:19.801,8.750,175,2.727279,9.668266,-4.907809,1,0.000000,0.000000,2.849212,-0.025637,0.229801,-0.029932,1,4.400255,8.917562,-4.817338,0,1,4.906924,2.668850,9.480956,-4.937008,-1.484557,0.394685,-0.072429,-0.002439,0.230156,-0.004145,0.198372
17:07:19.853,8.800,176,2.654740,9.687151,-4.910342,1,0.000000,0.000000,2.930021,-0.013729,0.254227,0.110270,1,4.400255,8.917562,-4.817338,0,1,4.940134,2.594410,9.499716,-4.940366,-1.486912,0.382900,-0.072044,-0.002504,0.230295,-0.003493,0.199181
17:07:19.904,8.850,177,2.582062,9.705492,-4.912880,1,0.000000,0.000000,2.871900,0.001074,0.163909,-0.000262,1,4.400255,8.917562,-4.817338,0,1,4.888428,2.521024,9.520091,-4.927913,-1.489248,0.372905,-0.054030,-0.002483,0.229914,-0.003438,0.195768
17:07:19.956,8.900,178,2.509248,9.723286,-4.915423,1,0.000000,0.000000,2.901929,-0.032665,0.213422,0.000251,1,4.400255,8.917562,-4.817338,0,1,4.940196,2.447459,9.538311,-4.930611,-1.491184,0.361680,-0.054184,-0.002655,0.229820,-0.003417,0.195613
17:07:20.010,8.950,179,2.436303,9.740534,-4.917970,1,0.000000,0.000000,2.906190,-0.014482,0.172437,0.028892,1,4.400255,8.917562,-4.817338,0,1,4.940924,2.374117,9.557240,-4.933250,-1.492954,0.351328,-0.054190,-0.002723,0.229494,-0.003236,0.194157
17:07:20.084,9.000,180,2.363230,9.757234,-4.920522,1,0.000000,0.000000,2.900116,-0.036759,0.234632,-0.008207,1,4.400255,8.917562,-4.817338,0,1,4.939287,2.300128,9.573793,-4.936933,-1.495035,0.339721,-0.055462,-0.002914,0.229523,-0.003266,0.194683
17:07:20.139,9.050,181,2.290035,9.773385,-4.923078,1,0.000000,0.000000,2.921762,-0.010286,0.251245,0.005225,1,4.400255,8.917562,-4.817338,0,1,4.988956,2.225100,9.589827,-4.939693,-1.497487,0.328039,-0.055585,-0.002956,0.229645,-0.003219,0.195412
17:07:20.193,9.100,182,2.216720,9.788986,-4.925638,1,0.000000,0.000000,2.906673,0.013582,0.219933,0.002516,1,2.172446,9.862468,-4.935798,1,1,4.887000,2.165559,9.783187,-4.942218,-1.494813,0.377203,-0.055451,-0.002903,0.229559,-0.003218,0.054093
17:07:20.267,9.150,183,2.143291,9.804036,-4.928202,1,0.000000,0.000000,2.964636,-0.013771,0.200922,0.042100,1,2.172446,9.862468,-4.935798,0,1,4.894719,2.091037,9.801939,-4.930789,-1.496397,0.366153,-0.039396,-0.002963,0.229400,-0.002937,0.052360
17:07:20.321,9.200,184,2.069751,9.818535,-4.930770,1,0.000000,0.000000,2.940610,-0.001869,0.267479,0.014653,1,2.172446,9.862468,-4.935798,0,1,4.900408,2.015912,9.819630,-4.932728,-1.498776,0.354434,-0.039461,-0.002957,0.229610,-0.002841,0.053885
17:07:20.375,9.250,185,1.996104,9.832482,-4.933342,1,0.000000,0.000000,2.974193,-0.004485,0.185514,-0.020595,1,2.172446,9.862468,-4.935798,0,1,5.013352,1.941235,9.837479,-4.934743,-1.500268,0.343618,-0.039690,-0.002966,0.229368,-0.002937,0.055114
17:07:20.431,9.300,186,1.922355,9.845876,-4.935918,1,0.000000,0.000000,2.972214,0.000470,0.205432,0.010295,1,2.172446,9.862468,-4.935798,0,1,5.006689,1.866306,9.854642,-4.956542,-1.501958,0.332605,-0.062341,-0.002947,0.229237,-0.002910,0.060363
17:07:20.486,9.350,187,1.848507,9.858716,-4.938496,1,0.000000,0.000000,2.958125,0.018504,0.253405,-0.023293,1,2.172446,9.862468,-4.935798,0,1,4.909638,1.790759,9.870884,-4.959702,-1.504316,0.321130,-0.062580,-0.002830,0.229368,-0.003019,0.062710
17:07:20.538,9.400,188,1.774565,9.871001,-4.941079,1,0.000000,0.000000,2.926782,0.003435,0.207697,-0.018522,1,2.172446,9.862468,-4.935798,0,1,4.932465,1.715575,9.886949,-4.962869,-1.506575,0.310209,-0.062806,-0.002796,0.229251,-0.003102,0.064877
17:07:20.593,9.450,189,1.700534,9.882731,-4.943664,1,0.000000,0.000000,2.983410,-0.056798,0.228808,0.003164,1,2.172446,9.862468,-4.935798,0,1,4.959382,1.640846,9.901770,-4.964109,-1.507539,0.298555,-0.060779,-0.003087,0.229248,-0.003065,0.065903
17:07:20.648,9.500,190,1.626416,9.893905,-4.946252,1,0.000000,0.000000,3.002739,0.039204,0.247881,0.010454,1,2.172446,9.862468,-4.935798,0,1,4.935692,1.564762,9.916515,-4.967126,-1.509639,0.287186,-0.060871,-0.002861,0.229348,-0.002993,0.068907
17:07:20.703,9.550,191,1.552217,9.904523,-4.948843,1,0.000000,0.000000,2.984307,-0.006434,0.192236,-0.046046,1,2.172446,9.862468,-4.935798,0,1,4.937213,1.489586,9.931044,-4.970266,-1.511028,0.276312,-0.061227,-0.002880,0.229151,-0.003220,0.071309
17:07:20.762,9.600,192,1.477940,9.914583,-4.951437,1,0.000000,0.000000,2.977412,0.019814,0.234500,0.005692,1,2.172446,9.862468,-4.935798,0,1,4.997541,1.413638,9.944694,-4.980261,-1.513097,0.265047,-0.069253,-0.002759,0.229179,-0.003188,0.076631
17:07:20.815,9.650,193,1.403590,9.924086,-4.954033,1,0.000000,0.000000,3.016741,0.019324,0.246105,0.016223,1,2.172446,9.862468,-4.935798,0,1,4.910676,1.337491,9.957611,-4.983691,-1.514791,0.253558,-0.069325,-0.002643,0.229268,-0.003087,0.079828
17:07:20.874,9.700,194,1.329171,9.933031,-4.956632,1,0.000000,0.000000,3.058050,-0.014687,0.210724,0.017036,1,2.172446,9.862468,-4.935798,0,1,4.933034,1.262074,9.970172,-4.987118,-1.515339,0.242311,-0.069385,-0.002706,0.229171,-0.002983,0.082528
17:07:20.931,9.750,195,1.254687,9.941417,-4.959233,1,0.000000,0.000000,3.018674,-0.089146,0.282085,-0.053397,1,2.172446,9.862468,-4.935798,0,1,4.965166,1.187128,9.980397,-4.983358,-1.515701,0.229664,-0.061427,-0.003157,0.229447,-0.003227,0.081643
17:07:21.000,9.800,196,1.180142,9.949243,-4.961836,1,0.000000,0.000000,3.050285,0.003806,0.225357,-0.009106,1,2.172446,9.862468,-4.935798,0,1,4.943301,1.111247,9.991725,-4.986445,-1.516666,0.218325,-0.061615,-0.003121,0.229426,-0.003258,0.084597
17:07:21.071,9.850,197,1.105540,9.956511,-4.964441,1,0.000000,0.000000,3.059288,0.019111,0.199276,-0.030652,1,2.172446,9.862468,-4.935798,0,1,4.889763,1.035313,10.003073,-4.989587,-1.517598,0.207448,-0.061905,-0.003006,0.229270,-0.003397,0.087933
17:07:21.125,9.900,198,1.030887,9.963218,-4.967048,1,0.000000,0.000000,3.048577,0.005785,0.228954,-0.017778,1,2.172446,9.862468,-4.935798,0,1,4.929602,0.959260,10.013252,-4.974517,-1.518640,0.196076,-0.041482,-0.002961,0.229268,-0.003433,0.087690
17:07:21.177,9.950,199,0.956185,9.969364,-4.969657,1,0.000000,0.000000,3.066725,0.023020,0.286804,0.001701,1,2.172446,9.862468,-4.935798,0,1,5.041270,0.882262,10.021996,-4.976585,-1.520073,0.183932,-0.041631,-0.002828,0.229562,-0.003407,0.091009
17:07:21.244,10.000,200,0.881439,9.974950,-4.972267,1,0.000000,0.000000,3.060051,-0.046236,0.221661,0.027338,1,2.172446,9.862468,-4.935798,0,1,5.011850,0.807130,10.030605,-4.978608,-1.520169,0.172344,-0.041661,-0.003049,0.229522,-0.003252,0.093056
17:07:21.305,10.050,201,0.806653,9.979975,-4.974879,1,0.000000,0.000000,3.071510,-0.006704,0.193487,-0.011606,1,2.172446,9.862468,-4.935798,0,1,4.948239,0.731557,10.039593,-4.971337,-1.520554,0.161412,-0.031232,-0.003067,0.229340,-0.003275,0.095949
17:07:21.361,10.100,202,0.731832,9.984438,-4.977492,1,0.000000,0.000000,3.047042,0.042983,0.200602,-0.002407,1,2.172446,9.862468,-4.935798,0,1,4.985305,0.654897,10.048450,-4.972901,-1.522024,0.150693,-0.031392,-0.002836,0.229195,-0.003271,0.100188
17:07:21.423,10.150,203,0.656979,9.988340,-4.980106,1,0.000000,0.000000,3.047817,0.020692,0.222936,0.015727,1,2.172446,9.862468,-4.935798,0,1,5.016606,0.578355,10.056088,-4.974436,-1.523285,0.139505,-0.031471,-0.002718,0.229164,-0.003177,0.103941
17:07:21.491,10.200,204,0.582099,9.991679,-4.982720,1,0.000000,0.000000,3.060106,-0.028057,0.131811,0.021570,1,2.172446,9.862468,-4.935798,0,1,5.062648,0.503811,10.064569,-5.001003,-1.523116,0.129457,-0.059884,-0.002844,0.228679,-0.003105,0.108518
17:07:21.546,10.250,205,0.507196,9.994457,-4.985336,1,0.000000,0.000000,3.113752,-0.037289,0.210761,-0.012146,1,2.172446,9.862468,-4.935798,0,1,4.966470,0.428615,10.070753,-5.004017,-1.522641,0.118108,-0.060078,-0.003015,0.228590,-0.003149,0.111108
17:07:21.622,10.300,206,0.432275,9.996673,-4.987952,1,0.000000,0.000000,3.124786,0.012152,0.190430,0.039172,1,2.172446,9.862468,-4.935798,0,1,5.059851,0.352586,10.077417,-5.006940,-1.522705,0.107378,-0.060048,-0.002940,0.228402,-0.002943,0.115024
17:07:21.675,10.350,207,0.357339,9.998326,-4.990569,1,0.000000,0.000000,3.126203,0.003223,0.206399,-0.035312,1,2.172446,9.862468,-4.935798,0,1,4.991494,0.276570,10.083089,-5.004665,-1.522707,0.096350,-0.054285,-0.002910,0.228294,-0.003089,0.117929
17:07:21.730,10.400,208,0.282393,9.999417,-4.993186,1,0.000000,0.000000,3.148383,0.009201,0.243898,-0.004492,1,2.172446,9.862468,-4.935798,0,1,5.044212,0.199958,10.087394,-5.007386,-1.522772,0.084750,-0.054445,-0.002851,0.228370,-0.003096,0.121396
17:07:21.802,10.450,209,0.207441,9.999946,-4.995804,1,0.000000,0.000000,3.107968,-0.021109,0.266458,-0.022155,1,2.172446,9.862468,-4.935798,0,1,4.974231,0.123792,10.090174,-5.010150,-1.522929,0.072598,-0.054683,-0.002939,0.228555,-0.003188,0.123871
17:07:21.861,10.500,210,0.132486,9.999912,-4.998421,1,0.000000,0.000000,3.128753,0.025820,0.220880,0.018259,1,2.172446,9.862468,-4.935798,0,1,5.046156,0.047009,10.094078,-5.022468,-1.523366,0.061461,-0.065640,-0.002800,0.228518,-0.003104,0.129429
17:07:21.917,10.550,211,0.057535,9.999315,-5.001039,1,0.000000,0.000000,3.138555,-0.000269,0.252329,0.061189,1,2.172446,9.862468,-4.935798,0,1,4.996247,-0.029530,10.096274,-5.025642,-1.523438,0.049648,-0.065533,-0.002788,0.228633,-0.002798,0.132614
17:07:21.987,10.600,212,-0.017410,9.998156,-5.003656,1,0.000000,0.000000,3.176751,-0.013260,0.243759,0.016227,1,2.172446,9.862468,-4.935798,0,1,4.890544,-0.105604,10.097926,-5.028885,-1.522803,0.037911,-0.065591,-0.002838,0.228705,-0.002708,0.135531
17:07:22.048,10.650,213,-0.092345,9.996435,-5.006272,1,0.000000,0.000000,3.154494,0.016519,0.267179,-0.002662,1,2.172446,9.862468,-4.935798,0,1,5.090625,-0.182785,10.098729,-5.049060,-1.523062,0.025926,-0.084840,-0.002746,0.228889,-0.002740,0.143088
17:07:22.103,10.700,214,-0.167264,9.994151,-5.008889,1,0.000000,0.000000,3.157108,0.040201,0.243440,-0.019210,1,2.172446,9.862468,-4.935798,0,1,5.024002,-0.260347,10.099907,-5.053334,-1.523573,0.014471,-0.085044,-0.002542,0.228958,-0.002817,0.147730
17:07:22.181,10.750,215,-0.242164,9.991305,-5.011504,1,0.000000,0.000000,3.161487,0.001253,0.224790,-0.024811,1,2.172446,9.862468,-4.935798,0,1,5.111501,-0.336570,10.100518,-5.057632,-1.523262,0.003122,-0.085278,-0.002524,0.228938,-0.002920,0.151551
17:07:22.236,10.800,216,-0.317041,9.987897,-5.014119,1,0.000000,0.000000,3.183509,-0.009476,0.246489,-0.020712,1,-0.165588,9.853441,-4.915073,1,1,5.000118,-0.239114,9.926912,-5.040035,-1.463659,-0.067160,-0.060685,-0.002654,0.228985,-0.002878,0.102291
17:07:22.293,10.850,217,-0.391890,9.983928,-5.016733,1,0.000000,0.000000,3.178038,-0.041480,0.223245,0.022912,1,-0.165588,9.853441,-4.915073,0,1,4.984849,-0.311893,9.923157,-5.043030,-1.462679,-0.078619,-0.060727,-0.002836,0.228958,-0.002759,0.103847
17:07:22.347,10.900,218,-0.466707,9.979397,-5.019346,1,0.000000,0.000000,3.196355,-0.043816,0.188714,-0.019576,1,-0.165588,9.853441,-4.915073,0,1,5.008180,-0.384426,9.919161,-5.046101,-1.461376,-0.089689,-0.060935,-0.003027,0.228770,-0.002836,0.105425
17:07:22.407,10.950,219,-0.541489,9.974304,-5.021957,1,0.000000,0.000000,3.228772,-0.015664,0.206591,0.012558,1,-0.165588,9.853441,-4.915073,0,1,4.944541,-0.457236,9.914567,-5.019557,-1.460042,-0.100851,-0.027411,-0.003086,0.228667,-0.002710,0.103309
17:07:22.699,11.000,220,-0.616229,9.968650,-5.024567,1,0.000000,0.000000,3.198852,-0.019218,0.206708,0.050826,1,-0.165588,9.853441,-4.915073,0,1,4.948313,-0.529942,9.909407,-5.020842,-1.459006,-0.112042,-0.027337,-0.003160,0.228566,-0.002465,0.104734
17:07:22.752,11.050,221,-0.690926,9.962436,-5.027175,1,0.000000,0.000000,3.187737,0.007666,0.275560,-0.070865,1,-0.165588,9.853441,-4.915073,0,1,5.071708,-0.603216,9.903031,-5.022339,-1.458542,-0.123968,-0.027742,-0.003110,0.228782,-0.002777,0.106044
17:07:22.810,11.100,222,-0.765574,9.955661,-5.029782,1,0.000000,0.000000,3.205661,0.011638,0.224527,0.007729,1,-0.165588,9.853441,-4.915073,0,1,4.990472,-0.676277,9.896668,-5.014241,-1.457818,-0.135294,-0.017059,-0.003043,0.228763,-0.002711,0.108146
17:07:22.870,11.150,223,-0.840168,9.948326,-5.032387,1,0.000000,0.000000,3.274682,0.043207,0.253390,-0.020707,1,-0.165588,9.853441,-4.915073,0,1,5.088090,-0.749822,9.889532,-5.015127,-1.456746,-0.146809,-0.017264,-0.002832,0.228875,-0.002793,0.109165
17:07:22.929,11.200,224,-0.914706,9.940432,-5.034990,1,0.000000,0.000000,3.202191,0.056752,0.192084,0.032477,1,-0.165588,9.853441,-4.915073,0,1,5.015434,-0.823238,9.882675,-5.015929,-1.456553,-0.157664,-0.017260,-0.002562,0.228708,-0.002634,0.109844
17:07:22.981,11.250,225,-0.989183,9.931979,-5.037591,1,0.000000,0.000000,3.261823,-0.003451,0.282583,0.018387,1,-0.165588,9.853441,-4.915073,0,1,4.951019,-0.896281,9.873772,-4.997924,-1.455149,-0.169659,0.004127,-0.002566,0.228951,-0.002506,0.116585
17:07:23.034,11.300,226,-1.063594,9.922966,-5.040189,1,0.000000,0.000000,3.260482,0.012173,0.273079,-0.034590,1,-0.165588,9.853441,-4.915073,0,1,5.152107,-0.969430,9.864455,-4.997774,-1.453930,-0.181527,0.003879,-0.002499,0.229150,-0.002648,0.118699
17:07:23.095,11.350,227,-1.137935,9.913396,-5.042785,1,0.000000,0.000000,3.245065,-0.017288,0.267622,0.028182,1,-0.165588,9.853441,-4.915073,0,1,5.132875,-1.042071,9.854454,-4.997527,-1.452509,-0.193419,0.003871,-0.002565,0.229322,-0.002512,0.121295
17:07:23.157,11.400,228,-1.212203,9.903268,-5.045379,1,0.000000,0.000000,3.244841,-0.026494,0.218217,0.028372,1,-0.165588,9.853441,-4.915073,0,1,5.075288,-1.114242,9.844544,-5.019705,-1.450876,-0.204715,-0.021627,-0.002672,0.229273,-0.002416,0.117064
17:07:23.217,11.450,229,-1.286392,9.892583,-5.047970,1,0.000000,0.000000,3.278299,-0.029652,0.184200,0.025375,1,-0.165588,9.853441,-4.915073,0,1,5.011761,-1.186082,9.834598,-5.020744,-1.448754,-0.215523,-0.021643,-0.002792,0.229073,-0.002294,0.119020
17:07:23.273,11.500,230,-1.360500,9.881342,-5.050557,1,0.000000,0.000000,3.277026,0.016344,0.172196,-0.015952,1,-0.165588,9.853441,-4.915073,0,1,5.023683,-1.258491,9.824573,-5.021854,-1.447217,-0.226080,-0.021812,-0.002707,0.228821,-0.002353,0.120218
17:07:23.329,11.550,231,-1.434521,9.869544,-5.053142,1,0.000000,0.000000,3.294958,-0.012563,0.246206,-0.040895,1,-0.165588,9.853441,-4.915073,0,1,5.028737,-1.330731,9.812639,-5.024671,-1.445236,-0.237612,-0.023960,-0.002751,0.228898,-0.002524,0.121743
17:07:23.402,11.600,232,-1.508451,9.857192,-5.055724,1,0.000000,0.000000,3.261056,0.007677,0.223689,0.038407,1,-0.165588,9.853441,-4.915073,0,1,4.986620,-1.403110,9.800622,-5.025807,-1.443865,-0.248872,-0.023934,-0.002705,0.228875,-0.002347,0.123256
17:07:23.462,11.650,233,-1.582287,9.844285,-5.058302,1,0.000000,0.000000,3.293110,0.057510,0.192898,-0.009818,1,-0.165588,9.853441,-4.915073,0,1,5.066180,-1.476154,9.788878,-5.027019,-1.442756,-0.259579,-0.024080,-0.002442,0.228718,-0.002379,0.123745
17:07:23.517,11.700,234,-1.656024,9.830824,-5.060877,1,0.000000,0.000000,3.302788,0.016516,0.235024,0.005813,1,-0.165588,9.853441,-4.915073,0,1,5.071594,-1.548633,9.775604,-5.040732,-1.441069,-0.270903,-0.038367,-0.002360,0.228745,-0.002366,0.122425
17:07:23.594,11.750,235,-1.729658,9.816811,-5.063449,1,0.000000,0.000000,3.319714,0.008152,0.212765,0.008776,1,-0.165588,9.853441,-4.915073,0,1,5.093915,-1.620748,9.762145,-5.042636,-1.439046,-0.281901,-0.038444,-0.002315,0.228676,-0.002318,0.123624
17:07:23.651,11.800,236,-1.803185,9.802245,-5.066016,1,0.000000,0.000000,3.336569,0.003695,0.274032,-0.010862,1,-0.165588,9.853441,-4.915073,0,1,5.018324,-1.693017,9.746899,-5.044576,-1.436870,-0.293719,-0.038593,-0.002289,0.228872,-0.002355,0.125140
17:07:23.706,11.850,237,-1.876601,9.787128,-5.068580,1,0.000000,0.000000,3.351181,0.005710,0.231782,-0.025089,1,-0.165588,9.853441,-4.915073,0,1,5.054826,-1.764979,9.731919,-5.048942,-1.434494,-0.304918,-0.041511,-0.002255,0.228884,-0.002455,0.126068
17:07:23.779,11.900,238,-1.949901,9.771460,-5.071140,1,0.000000,0.000000,3.362725,0.007353,0.221745,-0.006738,1,-0.165588,9.853441,-4.915073,0,1,5.096383,-1.836801,9.716601,-5.051028,-1.432001,-0.315943,-0.041649,-0.002214,0.228854,-0.002473,0.127301
17:07:23.842,11.950,239,-2.023082,9.755242,-5.073695,1,0.000000,0.000000,3.330165,0.003215,0.203461,-0.021194,1,-0.165588,9.853441,-4.915073,0,1,5.143221,-1.908317,9.701109,-5.053146,-1.429790,-0.326790,-0.041844,-0.002190,0.228746,-0.002552,0.128545
17:07:23.895,12.000,240,-2.096139,9.738476,-5.076247,1,0.000000,0.000000,3.382501,0.017128,0.293304,0.005757,1,-0.165588,9.853441,-4.915073,0,1,5.100452,-1.980544,9.683155,-5.068293,-1.427321,-0.338783,-0.056734,-0.002109,0.229019,-0.002539,0.128398
