timestamp,sim_time,iteration,true_pos_x,true_pos_y,true_pos_z,imu_valid,imu_roll,imu_pitch,imu_yaw,imu_acc_x,imu_acc_y,imu_acc_z,usbl_valid,usbl_pos_x,usbl_pos_y,usbl_pos_z,usbl_fix_used,depth_valid,depth_measurement,kf_pos_x,kf_pos_y,kf_pos_z,kf_vel_x,kf_vel_y,kf_vel_z,kf_acc_x,kf_acc_y,kf_acc_z,error_norm
16:56:44.410,0.000,0,10.168406,0.000000,-4.647959,1,0.000000,0.000000,1.583849,0.022412,0.264985,0.052144,0,0.000000,0.000000,0.000000,0,1,4.662366,10.168074,0.000024,-4.662330,-0.013251,0.000947,0.001885,0.022392,0.264747,0.052097,0.014374
16:56:44.463,0.050,1,10.168125,0.074999,-4.647969,1,0.000000,0.000000,1.557444,-0.046612,0.256715,-0.039928,0,0.000000,0.000000,0.000000,0,1,4.574234,10.167103,-0.000069,-4.662343,-0.026071,-0.001205,-0.000107,-0.012095,0.260733,0.006105,0.076439
16:56:44.515,0.100,2,10.167281,0.149994,-4.647998,1,0.000000,0.000000,1.588067,-0.010408,0.225450,0.026597,0,0.000000,0.000000,0.000000,0,1,4.554299,10.165606,-0.000143,-4.662272,-0.037332,-0.001941,0.001222,-0.011533,0.248975,0.012933,0.150824
16:56:44.569,0.150,3,10.165876,0.224981,-4.648048,1,0.000000,0.000000,1.563812,0.027324,0.241739,0.030775,0,0.000000,0.000000,0.000000,0,1,4.643986,10.163463,-0.000058,-4.645635,-0.049428,-0.000488,0.101560,-0.001821,0.247167,0.017396,0.225065
16:56:44.646,0.200,4,10.163909,0.299955,-4.648116,1,0.000000,0.000000,1.605692,-0.029678,0.242697,0.019858,0,0.000000,0.000000,0.000000,0,1,4.606579,10.160712,-0.000269,-4.640532,-0.061540,-0.002400,0.102503,-0.007391,0.246273,0.017888,0.300337
16:56:44.706,0.250,5,10.161380,0.374912,-4.648205,1,0.000000,0.000000,1.597988,-0.004690,0.205815,0.023024,0,0.000000,0.000000,0.000000,0,1,4.726715,10.157630,-0.000385,-4.635370,-0.071818,-0.002945,0.103566,-0.006941,0.239531,0.018744,0.375535
16:56:44.768,0.300,6,10.158289,0.449848,-4.648312,1,0.000000,0.000000,1.597098,-0.014532,0.215328,0.011685,0,0.000000,0.000000,0.000000,0,1,4.635033,10.153953,-0.000613,-4.634099,-0.082567,-0.003969,0.088984,-0.008025,0.236074,0.017734,0.450706
16:56:44.837,0.350,7,10.154636,0.524759,-4.648440,1,0.000000,0.000000,1.610504,0.009956,0.219211,0.026467,0,0.000000,0.000000,0.000000,0,1,4.632846,10.149697,-0.000652,-4.629611,-0.093518,-0.003925,0.090100,-0.005778,0.233966,0.018826,0.525771
16:56:44.895,0.400,8,10.150422,0.599640,-4.648587,1,0.000000,0.000000,1.617711,-0.025017,0.260194,-0.051902,0,0.000000,0.000000,0.000000,0,1,4.593171,10.144437,-0.001089,-4.625290,-0.106481,-0.005751,0.088994,-0.007915,0.236880,0.010968,0.601210
16:56:44.951,0.450,9,10.145647,0.674488,-4.648754,1,0.000000,0.000000,1.625737,0.005713,0.247898,-0.066148,0,0.000000,0.000000,0.000000,0,1,4.619401,10.138677,-0.001234,-4.619940,-0.118852,-0.006129,0.090559,-0.006553,0.237982,0.003258,0.676372
16:56:45.004,0.500,10,10.140311,0.749297,-4.648940,1,0.000000,0.000000,1.629067,-0.006199,0.214378,0.004846,0,0.000000,0.000000,0.000000,0,1,4.659414,10.132763,-0.001556,-4.615404,-0.129533,-0.007099,0.090762,-0.006520,0.235836,0.003402,0.751640
16:56:45.060,0.550,11,10.134415,0.824064,-4.649146,1,0.000000,0.000000,1.633415,0.055970,0.220881,-0.050077,0,0.000000,0.000000,0.000000,0,1,4.721833,10.126200,-0.000997,-4.611043,-0.140628,-0.005018,0.089458,-0.001313,0.234590,-0.001054,0.825981
16:56:45.119,0.600,12,10.127958,0.898785,-4.649372,1,0.000000,0.000000,1.650140,-0.004141,0.244043,-0.016842,0,0.000000,0.000000,0.000000,0,1,4.683781,10.118723,-0.001321,-4.652663,-0.152783,-0.006170,-0.013713,-0.001531,0.235317,-0.002319,0.900160
16:56:45.181,0.650,13,10.120941,0.973456,-4.649617,1,0.000000,0.000000,1.644651,-0.012362,0.278422,-0.047561,0,0.000000,0.000000,0.000000,0,1,4.527194,10.110041,-0.001860,-4.653480,-0.166644,-0.007735,-0.014969,-0.002304,0.238396,-0.005550,0.975384
16:56:45.262,0.700,14,10.113365,1.048072,-4.649881,1,0.000000,0.000000,1.662987,0.000973,0.247909,0.025511,0,0.000000,0.000000,0.000000,0,1,4.619885,10.101233,-0.002220,-4.654114,-0.178984,-0.008803,-0.014412,-0.002086,0.239030,-0.003479,1.050370
16:56:45.326,0.750,15,10.105230,1.122628,-4.650165,1,0.000000,0.000000,1.674482,-0.018115,0.242628,-0.005083,0,0.000000,0.000000,0.000000,0,1,4.696080,10.091924,-0.003016,-4.676450,-0.191005,-0.010952,-0.054531,-0.003088,0.239255,-0.003615,1.126029
16:56:45.388,0.800,16,10.096536,1.197122,-4.650469,1,0.000000,0.000000,1.670722,0.071619,0.220177,0.053437,0,0.000000,0.000000,0.000000,0,1,4.662529,10.082436,-0.001999,-4.678985,-0.202118,-0.008524,-0.053285,0.001307,0.238133,-0.000260,1.199543
16:56:45.470,0.850,17,10.087284,1.271548,-4.650792,1,0.000000,0.000000,1.697910,0.031321,0.183208,-0.034940,0,0.000000,0.000000,0.000000,0,1,4.658243,10.073248,-0.001748,-4.681806,-0.211274,-0.008329,-0.054214,0.002974,0.235082,-0.002186,1.273752
16:56:45.525,0.900,18,10.077474,1.345903,-4.651135,1,0.000000,0.000000,1.693285,-0.019418,0.187368,-0.055704,0,0.000000,0.000000,0.000000,0,1,4.677520,10.063542,-0.002690,-4.681405,-0.220516,-0.010601,-0.050374,0.001795,0.232570,-0.004995,1.349005
16:56:45.583,0.950,19,10.067108,1.420182,-4.651497,1,0.000000,0.000000,1.721189,-0.064140,0.151071,-0.042104,0,0.000000,0.000000,0.000000,0,1,4.696961,10.054322,-0.004835,-4.684079,-0.227765,-0.015296,-0.051545,-0.001501,0.228496,-0.006850,1.425447
16:56:45.638,1.000,20,10.056185,1.494381,-4.651878,1,0.000000,0.000000,1.707724,-0.002879,0.227277,-0.012205,0,0.000000,0.000000,0.000000,0,1,4.728668,10.042684,-0.005676,-4.686691,-0.239007,-0.016995,-0.052027,-0.001567,0.228438,-0.007104,1.500522
16:56:45.751,1.050,21,10.044706,1.568496,-4.652279,1,0.000000,0.000000,1.714757,-0.024834,0.217097,0.008229,0,0.000000,0.000000,0.000000,0,1,4.570318,10.030789,-0.007195,-4.638860,-0.249656,-0.019832,0.019346,-0.002624,0.227922,-0.006257,1.575810
16:56:45.809,1.100,22,10.032672,1.642523,-4.652699,1,0.000000,0.000000,1.708488,-0.015213,0.279287,-0.053179,0,0.000000,0.000000,0.000000,0,1,4.645172,10.016566,-0.008654,-4.638114,-0.263440,-0.022335,0.017878,-0.003172,0.230155,-0.008296,1.651320
16:56:45.865,1.150,23,10.020083,1.716458,-4.653139,1,0.000000,0.000000,1.761074,0.028302,0.195828,0.052345,0,0.000000,0.000000,0.000000,0,1,4.596055,10.004097,-0.008839,-4.636891,-0.273120,-0.022970,0.019020,-0.001860,0.228725,-0.005770,1.725448
16:56:45.933,1.200,24,10.006941,1.790296,-4.653598,1,0.000000,0.000000,1.728703,0.017699,0.238524,-0.006413,0,0.000000,0.000000,0.000000,0,1,4.648095,9.989824,-0.009440,-4.640676,-0.284964,-0.023926,0.012589,-0.001078,0.229117,-0.005814,1.799863
16:56:45.990,1.250,25,9.993246,1.864033,-4.654076,1,0.000000,0.000000,1.767940,-0.050491,0.225805,0.004061,0,0.000000,0.000000,0.000000,0,1,4.731485,9.975484,-0.012290,-4.640003,-0.295817,-0.028666,0.012539,-0.002978,0.228990,-0.005434,1.876460
16:56:46.050,1.300,26,9.978998,1.937665,-4.654573,1,0.000000,0.000000,1.775148,0.025706,0.243770,-0.007321,0,0.000000,0.000000,0.000000,0,1,4.692276,9.959865,-0.012846,-4.639395,-0.307859,-0.029775,0.012219,-0.001916,0.229537,-0.005504,1.950664
16:56:46.114,1.350,27,9.964199,2.011189,-4.655090,1,0.000000,0.000000,1.768729,0.018767,0.204774,-0.030584,0,0.000000,0.000000,0.000000,0,1,4.685427,9.945015,-0.013624,-4.655790,-0.317957,-0.030984,-0.009172,-0.001177,0.228653,-0.006475,2.024903
16:56:46.172,1.400,28,9.948849,2.084599,-4.655626,1,0.000000,0.000000,1.778984,0.024051,0.257467,0.028806,0,0.000000,0.000000,0.000000,0,1,4.748524,9.927743,-0.014382,-4.656061,-0.330682,-0.032290,-0.008652,-0.000307,0.229646,-0.005260,2.099088
16:56:46.230,1.450,29,9.932949,2.157892,-4.656181,1,0.000000,0.000000,1.788936,-0.013320,0.266664,-0.006310,0,0.000000,0.000000,0.000000,0,1,4.628698,9.909575,-0.016630,-4.656507,-0.343661,-0.035620,-0.008941,-0.000741,0.230880,-0.005295,2.174648
16:56:46.305,1.500,30,9.916500,2.231064,-4.656756,1,0.000000,0.000000,1.767799,0.018446,0.220797,-0.000742,0,0.000000,0.000000,0.000000,0,1,4.640096,9.892451,-0.017703,-4.651183,-0.354573,-0.036912,-0.002397,-0.000122,0.230555,-0.005118,2.248902
16:56:46.365,1.550,31,9.899504,2.304110,-4.657349,1,0.000000,0.000000,1.772205,-0.028779,0.211502,0.008664,0,0.000000,0.000000,0.000000,0,1,4.641214,9.875275,-0.020698,-4.651227,-0.364770,-0.040545,-0.002329,-0.001018,0.229959,-0.004688,2.324942
16:56:46.423,1.600,32,9.881960,2.377026,-4.657962,1,0.000000,0.000000,1.780327,-0.008869,0.231328,-0.055958,0,0.000000,0.000000,0.000000,0,1,4.670520,9.856721,-0.023113,-4.651707,-0.376031,-0.043383,-0.003807,-0.001256,0.230001,-0.006240,2.400280
16:56:46.490,1.650,33,9.863870,2.449809,-4.658594,1,0.000000,0.000000,1.788781,-0.016521,0.228963,0.041175,0,0.000000,0.000000,0.000000,0,1,4.645747,9.837729,-0.025988,-4.649646,-0.387109,-0.046681,-0.000798,-0.001705,0.229970,-0.004835,2.475951
16:56:46.544,1.700,34,9.845236,2.522454,-4.659245,1,0.000000,0.000000,1.821813,0.071223,0.244712,0.015926,0,0.000000,0.000000,0.000000,0,1,4.695576,9.817220,-0.025267,-4.649560,-0.399378,-0.046094,-0.000565,0.000379,0.230392,-0.004243,2.547894
16:56:46.597,1.750,35,9.826057,2.594957,-4.659914,1,0.000000,0.000000,1.829415,0.059752,0.274354,-0.034702,0,0.000000,0.000000,0.000000,0,1,4.562374,9.794802,-0.025137,-4.649816,-0.413051,-0.046348,-0.001496,0.002028,0.231613,-0.005088,2.620300
16:56:46.652,1.800,36,9.806335,2.667314,-4.660603,1,0.000000,0.000000,1.836918,-0.009593,0.182946,-0.009565,0,0.000000,0.000000,0.000000,0,1,4.583166,9.776151,-0.027886,-4.628993,-0.421772,-0.049569,0.021601,0.001714,0.230297,-0.005072,2.695555
16:56:46.707,1.850,37,9.786072,2.739521,-4.661311,1,0.000000,0.000000,1.827462,0.042827,0.240825,-0.054662,0,0.000000,0.000000,0.000000,0,1,4.643920,9.754128,-0.028534,-4.628247,-0.433713,-0.050444,0.020249,0.002796,0.230574,-0.006374,2.768437
16:56:46.769,1.900,38,9.765268,2.811575,-4.662037,1,0.000000,0.000000,1.848303,-0.035167,0.187656,-0.016290,0,0.000000,0.000000,0.000000,0,1,4.629599,9.734398,-0.032798,-4.627318,-0.442471,-0.055062,0.019704,0.001823,0.229474,-0.006628,2.844752
16:56:46.823,1.950,39,9.743925,2.883469,-4.662782,1,0.000000,0.000000,1.889715,-0.021181,0.215942,0.020554,0,0.000000,0.000000,0.000000,0,1,4.617704,9.712772,-0.036724,-4.623544,-0.452571,-0.059616,0.022872,0.001248,0.229136,-0.005932,2.920623
16:56:46.878,2.000,40,9.722043,2.955202,-4.663547,1,0.000000,0.000000,1.857941,0.013984,0.191240,0.022796,0,0.000000,0.000000,0.000000,0,1,4.665294,9.691740,-0.038965,-4.622212,-0.461797,-0.061910,0.023189,0.001558,0.228211,-0.005233,2.994606
16:56:46.942,2.050,41,9.699624,3.026769,-4.664329,1,0.000000,0.000000,1.867003,-0.015171,0.202006,-0.019305,0,0.000000,0.000000,0.000000,0,1,4.754208,9.669823,-0.042889,-4.621168,-0.471323,-0.065803,0.022617,0.001160,0.227588,-0.005567,3.070106
16:56:46.993,2.100,42,9.676669,3.098165,-4.665131,1,0.000000,0.000000,1.859924,0.020602,0.220280,0.073728,0,0.000000,0.000000,0.000000,0,1,4.695699,9.646276,-0.045185,-4.642201,-0.482028,-0.067982,-0.001347,0.001612,0.227418,-0.003894,3.143581
16:56:47.050,2.150,43,9.653180,3.169387,-4.665951,1,0.000000,0.000000,1.888374,0.014762,0.218233,-0.047959,0,0.000000,0.000000,0.000000,0,1,4.584360,9.622337,-0.047905,-4.642578,-0.492502,-0.070740,-0.002444,0.001911,0.227209,-0.004892,3.217525
16:56:47.103,2.200,44,9.629158,3.240430,-4.666790,1,0.000000,0.000000,1.885292,0.049866,0.190433,-0.060809,0,0.000000,0.000000,0.000000,0,1,4.736980,9.599228,-0.048650,-4.643142,-0.501895,-0.071524,-0.003871,0.002977,0.226392,-0.006131,3.289301
16:56:47.161,2.250,45,9.604604,3.311292,-4.667648,1,0.000000,0.000000,1.878018,-0.023257,0.254193,0.041656,0,0.000000,0.000000,0.000000,0,1,4.681881,9.572429,-0.053964,-4.654429,-0.513890,-0.076312,-0.016008,0.002406,0.226996,-0.005181,3.365436
16:56:47.220,2.300,46,9.579519,3.381967,-4.668524,1,0.000000,0.000000,1.899282,0.020388,0.217737,-0.055101,0,0.000000,0.000000,0.000000,0,1,4.646390,9.546896,-0.056765,-4.655583,-0.524361,-0.078902,-0.017243,0.002789,0.226799,-0.006239,3.438911
16:56:47.286,2.350,47,9.553906,3.452452,-4.669418,1,0.000000,0.000000,1.902433,0.025218,0.223327,-0.020094,0,0.000000,0.000000,0.000000,0,1,4.620233,9.520473,-0.059444,-4.656561,-0.535142,-0.081334,-0.017835,0.003256,0.226727,-0.006527,3.512079
16:56:47.342,2.400,48,9.527764,3.522742,-4.670331,1,0.000000,0.000000,1.911398,-0.006392,0.188784,-0.010989,0,0.000000,0.000000,0.000000,0,1,4.636423,9.495813,-0.063937,-4.651329,-0.543941,-0.085124,-0.011322,0.003059,0.225952,-0.006571,3.586872
16:56:47.395,2.450,49,9.501097,3.592835,-4.671262,1,0.000000,0.000000,1.952372,-0.028936,0.187477,-0.044999,0,0.000000,0.000000,0.000000,0,1,4.679695,9.470953,-0.070009,-4.652168,-0.552325,-0.090426,-0.012365,0.002419,0.225183,-0.007336,3.663018
16:56:47.450,2.500,50,9.473905,3.662725,-4.672212,1,0.000000,0.000000,1.959492,0.071712,0.226939,-0.007531,1,9.379061,3.669469,-4.561253,1,1,4.536553,9.379252,3.658295,-4.649209,-0.584517,1.175938,-0.008667,0.002448,0.225180,-0.007309,0.097509
16:56:47.505,2.550,51,9.446190,3.732410,-4.673179,1,0.000000,0.000000,1.950075,0.041845,0.184035,-0.010322,1,9.379061,3.669469,-4.561253,0,1,4.630658,9.349815,3.717067,-4.644293,-0.594116,1.173278,-0.003010,0.003221,0.224373,-0.007326,0.101775
16:56:47.560,2.600,52,9.417954,3.801884,-4.674166,1,0.000000,0.000000,1.933363,-0.014515,0.260447,0.011676,1,9.379061,3.669469,-4.561253,0,1,4.658826,9.319750,3.775558,-4.644324,-0.605578,1.168690,-0.003038,0.002880,0.225067,-0.006963,0.105960
16:56:47.619,2.650,53,9.389197,3.871145,-4.675170,1,0.000000,0.000000,1.990705,-0.019877,0.236313,-0.000487,1,9.379061,3.669469,-4.561253,0,1,4.631729,9.289187,3.833771,-4.644436,-0.616076,1.163491,-0.003267,0.002450,0.225279,-0.006841,0.111101
16:56:47.686,2.700,54,9.359923,3.940188,-4.676192,1,0.000000,0.000000,1.962923,-0.012686,0.196610,-0.004836,1,9.379061,3.669469,-4.561253,0,1,4.659860,9.258306,3.891793,-4.648941,-0.625578,1.159066,-0.008515,0.002170,0.224748,-0.006837,0.115804
16:56:47.760,2.750,55,9.330131,4.009009,-4.677232,1,0.000000,0.000000,1.985653,-0.026177,0.258129,-0.009852,1,9.379061,3.669469,-4.561253,0,1,4.701891,9.226581,3.949378,-4.649395,-0.636681,1.153540,-0.008908,0.001655,0.225355,-0.006892,0.122692
16:56:47.819,2.800,56,9.299825,4.077605,-4.678291,1,0.000000,0.000000,1.998823,0.069150,0.241754,-0.020161,1,9.379061,3.669469,-4.561253,0,1,4.674330,9.194213,4.007476,-4.649947,-0.647988,1.150834,-0.009484,0.002860,0.225648,-0.007127,0.129905
16:56:47.878,2.850,57,9.269005,4.145971,-4.679367,1,0.000000,0.000000,1.960940,-0.031849,0.224479,-0.045582,1,9.379061,3.669469,-4.561253,0,1,4.573683,9.161647,4.064577,-4.628671,-0.658162,1.145634,0.014624,0.002251,0.225627,-0.007637,0.143947
16:56:48.024,2.900,58,9.237673,4.214104,-4.680461,1,0.000000,0.000000,2.014379,-0.008261,0.215091,-0.003815,1,9.379061,3.669469,-4.561253,0,1,4.605156,9.128629,4.121652,-4.627925,-0.667992,1.140660,0.014303,0.002070,0.225446,-0.007571,0.152309
16:56:48.076,2.950,59,9.205832,4.282000,-4.681573,1,0.000000,0.000000,2.012576,-0.044064,0.240151,-0.038501,1,9.379061,3.669469,-4.561253,0,1,4.696086,9.094935,4.177947,-4.627441,-0.678287,1.134390,0.013412,0.001288,0.225695,-0.008092,0.161417
16:56:48.130,3.000,60,9.173483,4.349655,-4.682703,1,0.000000,0.000000,1.983587,-0.020946,0.203794,-0.022779,1,9.379061,3.669469,-4.561253,0,1,4.765055,9.061142,4.234326,-4.666639,-0.687777,1.129422,-0.032567,0.000917,0.225330,-0.008615,0.161801
16:56:48.186,3.050,61,9.140628,4.417066,-4.683850,1,0.000000,0.000000,2.011003,-0.039430,0.185658,0.015631,1,9.379061,3.669469,-4.561253,0,1,4.712903,9.027253,4.290223,-4.668126,-0.696390,1.123754,-0.032631,0.000256,0.224680,-0.008221,0.170851
16:56:48.245,3.100,62,9.107268,4.484228,-4.685015,1,0.000000,0.000000,2.011777,0.011175,0.181973,-0.000092,1,9.379061,3.669469,-4.561253,0,1,4.778816,8.992833,4.346653,-4.669712,-0.705310,1.119703,-0.032915,0.000432,0.223991,-0.008090,0.179601
16:56:48.317,3.150,63,9.073406,4.551138,-4.686197,1,0.000000,0.000000,2.024377,-0.041102,0.207111,-0.053667,1,9.379061,3.669469,-4.561253,0,1,4.674753,8.957808,4.401860,-4.672591,-0.714465,1.113655,-0.035057,-0.000227,0.223723,-0.008815,0.189293
16:56:48.428,3.200,64,9.039043,4.617792,-4.687397,1,0.000000,0.000000,2.046713,-0.016274,0.184467,-0.048613,1,9.379061,3.669469,-4.561253,0,1,4.686286,8.922664,4.457307,-4.674595,-0.722998,1.108382,-0.036065,-0.000478,0.223110,-0.009432,0.198654
16:56:48.485,3.250,65,9.004182,4.684186,-4.688615,1,0.000000,0.000000,2.037768,-0.030490,0.239724,0.019581,1,9.379061,3.669469,-4.561253,0,1,4.682481,8.886092,4.511900,-4.676217,-0.733190,1.102214,-0.036107,-0.000940,0.223365,-0.008989,0.209240
16:56:48.544,3.300,66,8.968824,4.750317,-4.689849,1,0.000000,0.000000,2.047071,-0.015164,0.255842,0.012780,1,9.379061,3.669469,-4.561253,0,1,4.757415,8.848567,4.566385,-4.700868,-0.744001,1.096271,-0.062393,-0.001155,0.223857,-0.008810,0.220032
16:56:48.598,3.350,67,8.932971,4.816180,-4.691101,1,0.000000,0.000000,2.071225,0.011554,0.219394,-0.042641,1,9.379061,3.669469,-4.561253,0,1,4.700554,8.811144,4.621381,-4.704194,-0.753778,1.091307,-0.063290,-0.000966,0.223791,-0.009311,0.230130
16:56:48.661,3.400,68,8.896626,4.881772,-4.692371,1,0.000000,0.000000,2.074640,0.013991,0.242798,-0.022132,1,9.379061,3.669469,-4.561253,0,1,4.683611,8.772652,4.676045,-4.707452,-0.764328,1.086154,-0.063935,-0.000746,0.224070,-0.009498,0.240668
16:56:48.722,3.450,69,8.859790,4.947090,-4.693657,1,0.000000,0.000000,2.061426,0.010279,0.210693,0.006392,1,9.379061,3.669469,-4.561253,0,1,4.692895,8.734451,4.730595,-4.705441,-0.773870,1.081345,-0.058372,-0.000586,0.223876,-0.009238,0.250438
16:56:48.782,3.500,70,8.822466,5.012130,-4.694960,1,0.000000,0.000000,2.096344,-0.046117,0.190015,-0.004435,1,9.379061,3.669469,-4.561253,0,1,4.678301,8.696762,4.783561,-4.708344,-0.781935,1.074567,-0.058772,-0.001236,0.223393,-0.009170,0.261198
16:56:48.843,3.550,71,8.784655,5.076888,-4.696281,1,0.000000,0.000000,2.098798,-0.056280,0.204804,-0.031322,1,9.379061,3.669469,-4.561253,0,1,4.666101,8.658383,4.835756,-4.711429,-0.790336,1.067269,-0.059525,-0.002012,0.223131,-0.009479,0.272614
16:56:48.912,3.600,72,8.746359,5.141360,-4.697618,1,0.000000,0.000000,2.093337,0.053485,0.202477,0.001824,1,9.379061,3.669469,-4.561253,0,1,4.819202,8.618763,4.890773,-4.744700,-0.799884,1.063687,-0.094310,-0.001241,0.222844,-0.009502,0.285116
16:56:48.972,3.650,73,8.707582,5.205543,-4.698972,1,0.000000,0.000000,2.113335,0.012015,0.230015,-0.008973,1,9.379061,3.669469,-4.561253,0,1,4.694333,8.578196,4.944153,-4.749425,-0.809784,1.058242,-0.094779,-0.001059,0.222942,-0.009495,0.295991
16:56:49.027,3.700,74,8.668325,5.269433,-4.700343,1,0.000000,0.000000,2.130698,-0.053737,0.231961,-0.008069,1,9.379061,3.669469,-4.561253,0,1,4.611858,8.537675,4.995162,-4.754167,-0.818895,1.050410,-0.095236,-0.001771,0.223064,-0.009476,0.308531
16:56:49.083,3.750,75,8.628589,5.333027,-4.701731,1,0.000000,0.000000,2.113164,-0.010863,0.264520,0.017275,1,9.379061,3.669469,-4.561253,0,1,4.740588,8.495214,5.046833,-4.753506,-0.829688,1.043786,-0.089387,-0.001892,0.223617,-0.009093,0.319964
16:56:49.140,3.800,76,8.588379,5.396320,-4.703135,1,0.000000,0.000000,2.126856,-0.036657,0.206719,-0.026487,1,9.379061,3.669469,-4.561253,0,1,4.705905,8.454426,5.097856,-4.758074,-0.838151,1.036833,-0.090042,-0.002350,0.223394,-0.009320,0.331727
16:56:49.201,3.850,77,8.547695,5.459311,-4.704556,1,0.000000,0.000000,2.127443,-0.007671,0.211135,-0.024302,1,9.379061,3.669469,-4.561253,0,1,4.710365,8.412774,5.149490,-4.762671,-0.847093,1.030800,-0.090688,-0.002419,0.223235,-0.009512,0.342885
16:56:49.268,3.900,78,8.506540,5.521994,-4.705993,1,0.000000,0.000000,2.154081,0.018621,0.233203,-0.047332,1,9.379061,3.669469,-4.561253,0,1,4.770713,8.369589,5.201534,-4.768393,-0.856940,1.025143,-0.092709,-0.002149,0.223363,-0.009998,0.354039
16:56:49.321,3.950,79,8.464916,5.584366,-4.707446,1,0.000000,0.000000,2.165798,0.003213,0.205584,-0.009579,1,9.379061,3.669469,-4.561253,0,1,4.712495,8.327123,5.253042,-4.773039,-0.865590,1.019198,-0.093204,-0.002081,0.223138,-0.009992,0.364781
16:56:49.373,4.000,80,8.422826,5.646425,-4.708916,1,0.000000,0.000000,2.149418,0.005117,0.230147,-0.018086,1,9.379061,3.669469,-4.561253,0,1,4.687148,8.283251,5.304044,-4.777755,-0.875205,1.013167,-0.093797,-0.001991,0.223226,-0.010093,0.376091
16:56:49.434,4.050,81,8.380272,5.708166,-4.710402,1,0.000000,0.000000,2.181866,-0.109138,0.155921,-0.007970,1,8.722467,5.695824,-4.762499,1,1,4.641830,8.695568,5.676825,-4.742401,-0.615103,1.196817,-0.048912,-0.001974,0.223172,-0.009884,0.318462
16:56:49.489,4.100,82,8.337256,5.769585,-4.711904,1,0.000000,0.000000,2.175248,0.002054,0.203915,0.000857,1,8.722467,5.695824,-4.762499,0,1,4.741138,8.664636,5.736536,-4.744810,-0.624017,1.190564,-0.049293,-0.001924,0.222934,-0.009753,0.330684
16:56:49.547,4.150,83,8.293782,5.830680,-4.713422,1,0.000000,0.000000,2.166696,0.020199,0.229393,-0.053941,1,8.722467,5.695824,-4.762499,0,1,4.659758,8.633154,5.795973,-4.747508,-0.633414,1.184465,-0.050266,-0.001655,0.223013,-0.010286,0.342841
16:56:49.613,4.200,84,8.249850,5.891448,-4.714957,1,0.000000,0.000000,2.192025,0.008273,0.215619,0.009145,1,8.722467,5.695824,-4.762499,0,1,4.697462,8.601272,5.855084,-4.735075,-0.642405,1.178086,-0.033656,-0.001535,0.222924,-0.009980,0.353870
16:56:49.668,4.250,85,8.205465,5.951883,-4.716507,1,0.000000,0.000000,2.193814,-0.010792,0.207801,-0.009270,1,8.722467,5.695824,-4.762499,0,1,4.677528,8.569014,5.913811,-4.736767,-0.651146,1.171504,-0.034148,-0.001645,0.222744,-0.009971,0.366099
16:56:49.724,4.300,86,8.160627,6.011984,-4.718072,1,0.000000,0.000000,2.188658,-0.019455,0.193453,0.023287,1,8.722467,5.695824,-4.762499,0,1,4.727464,8.536425,5.972197,-4.738326,-0.659648,1.164956,-0.034293,-0.001855,0.222400,-0.009584,0.378441
16:56:49.776,4.350,87,8.115341,6.071747,-4.719654,1,0.000000,0.000000,2.225851,-0.024658,0.179979,0.045896,1,8.722467,5.695824,-4.762499,0,1,4.675793,8.503532,6.030251,-4.721514,-0.667648,1.158112,-0.013370,-0.002120,0.221906,-0.008858,0.390408
16:56:49.834,4.400,88,8.069607,6.131169,-4.721251,1,0.000000,0.000000,2.222494,-0.030739,0.166880,-0.006375,1,8.722467,5.695824,-4.762499,0,1,4.706289,8.470373,6.087964,-4.722183,-0.675400,1.151322,-0.013789,-0.002448,0.221274,-0.008830,0.403089
16:56:49.895,4.450,89,8.023430,6.190245,-4.722863,1,0.000000,0.000000,2.246540,0.006985,0.225286,-0.056614,1,8.722467,5.695824,-4.762499,0,1,4.743437,8.436329,6.145408,-4.723108,-0.684090,1.144411,-0.014720,-0.002341,0.221320,-0.009367,0.415327
16:56:49.975,4.500,90,7.976811,6.248973,-4.724491,1,0.000000,0.000000,2.243863,-0.014637,0.235820,-0.008912,1,8.722467,5.695824,-4.762499,0,1,4.732380,8.401843,6.202305,-4.726299,-0.692781,1.137118,-0.017969,-0.002479,0.221483,-0.009373,0.427590
16:56:50.033,4.550,91,7.929753,6.307350,-4.726135,1,0.000000,0.000000,2.271510,-0.076978,0.247042,0.047154,1,8.722467,5.695824,-4.762499,0,1,4.698031,8.367083,6.258247,-4.726977,-0.700909,1.128544,-0.017903,-0.003307,0.221767,-0.008752,0.440078
16:56:50.096,4.600,92,7.882259,6.365372,-4.727793,1,0.000000,0.000000,2.220342,-0.019323,0.222033,0.032031,1,8.722467,5.695824,-4.762499,0,1,4.687092,8.331889,6.314356,-4.727697,-0.709501,1.121459,-0.017937,-0.003483,0.221769,-0.008309,0.452514
16:56:50.152,4.650,93,7.834332,6.423036,-4.729467,1,0.000000,0.000000,2.275120,0.009996,0.238782,-0.022662,1,8.722467,5.695824,-4.762499,0,1,4.747541,8.295973,6.370295,-4.734106,-0.718225,1.114201,-0.024679,-0.003336,0.221954,-0.008488,0.464668
16:56:50.208,4.700,94,7.785973,6.480338,-4.731156,1,0.000000,0.000000,2.291461,0.000398,0.198033,0.013061,1,8.722467,5.695824,-4.762499,0,1,4.706816,8.260086,6.425984,-4.735265,-0.726111,1.107035,-0.024906,-0.003296,0.221697,-0.008259,0.477236
16:56:50.264,4.750,95,7.737187,6.537276,-4.732859,1,0.000000,0.000000,2.272883,-0.014709,0.228124,0.007569,1,8.722467,5.695824,-4.762499,0,1,4.794270,8.223565,6.480991,-4.736451,-0.734462,1.099506,-0.025168,-0.003418,0.221766,-0.008092,0.489638
16:56:50.418,4.800,96,7.687975,6.593847,-4.734578,1,0.000000,0.000000,2.302254,0.006650,0.296665,-0.009559,1,8.722467,5.695824,-4.762499,0,1,4.690457,8.185694,6.535438,-4.724091,-0.743915,1.091398,-0.010090,-0.003312,0.222554,-0.008049,0.501244
16:56:50.475,4.850,97,7.638340,6.650046,-4.736311,1,0.000000,0.000000,2.288833,-0.010839,0.244746,-0.003629,1,8.722467,5.695824,-4.762499,0,1,4.707049,8.148063,6.589582,-4.724588,-0.752475,1.083604,-0.010454,-0.003390,0.222785,-0.008004,0.513430
16:56:50.526,4.900,98,7.588286,6.705872,-4.738059,1,0.000000,0.000000,2.283028,-0.052315,0.233903,0.010029,1,8.722467,5.695824,-4.762499,0,1,4.778363,8.110427,6.642855,-4.725044,-0.760476,1.075265,-0.010687,-0.003894,0.222899,-0.007820,0.526091
16:56:50.583,4.950,99,7.537815,6.761320,-4.739821,1,0.000000,0.000000,2.286315,-0.016668,0.264998,0.056928,1,8.722467,5.695824,-4.762499,0,1,4.776631,8.071706,6.695941,-4.740118,-0.769336,1.067147,-0.027287,-0.004025,0.223329,-0.007228,0.537880
16:56:50.644,5.000,100,7.486929,6.816388,-4.741598,1,0.000000,0.000000,2.297907,-0.009545,0.250119,-0.019099,1,8.722467,5.695824,-4.762499,0,1,4.718112,8.032687,6.748817,-4.741535,-0.777944,1.059191,-0.027750,-0.004080,0.223599,-0.007347,0.549925
16:56:50.702,5.050,101,7.435632,6.871072,-4.743390,1,0.000000,0.000000,2.308839,0.028028,0.169856,-0.062466,1,8.722467,5.695824,-4.762499,0,1,4.717903,7.994140,6.802525,-4.743158,-0.785501,1.052665,-0.028611,-0.003759,0.223062,-0.007891,0.562699
16:56:50.763,5.100,102,7.383927,6.925370,-4.745195,1,0.000000,0.000000,2.312991,-0.014377,0.182197,-0.016628,1,8.722467,5.695824,-4.762499,0,1,4.709925,7.955411,6.855157,-4.734604,-0.792759,1.045261,-0.017710,-0.003864,0.222658,-0.007937,0.575879
16:56:50.822,5.150,103,7.331816,6.979278,-4.747015,1,0.000000,0.000000,2.333725,-0.037328,0.210539,-0.023020,1,8.722467,5.695824,-4.762499,0,1,4.764668,7.916090,6.906777,-4.735553,-0.800075,1.036976,-0.018231,-0.004192,0.222539,-0.008083,0.588867
16:56:50.884,5.200,104,7.279302,7.032794,-4.748849,1,0.000000,0.000000,2.362642,0.025543,0.184739,-0.017402,1,8.722467,5.695824,-4.762499,0,1,4.761923,7.876263,6.959314,-4.736512,-0.807416,1.029883,-0.018717,-0.003904,0.222172,-0.008172,0.601593
16:56:50.937,5.250,105,7.226389,7.085914,-4.750697,1,0.000000,0.000000,2.336834,-0.026931,0.185906,-0.025665,1,8.722467,5.695824,-4.762499,0,1,4.795493,7.836591,7.010566,-4.754293,-0.814358,1.022058,-0.038273,-0.004125,0.221823,-0.008403,0.614847
16:56:50.995,5.300,106,7.173079,7.138636,-4.752558,1,0.000000,0.000000,2.396293,-0.022335,0.234764,0.004981,1,8.722467,5.695824,-4.762499,0,1,4.690545,7.795641,7.060978,-4.756170,-0.821742,1.013280,-0.038586,-0.004299,0.221947,-0.008277,0.627397
16:56:51.050,5.350,107,7.119376,7.190956,-4.754434,1,0.000000,0.000000,2.364643,-0.028871,0.172861,-0.041950,1,8.722467,5.695824,-4.762499,0,1,4.707326,7.755605,7.111512,-4.758239,-0.828166,1.005373,-0.039284,-0.004530,0.221484,-0.008591,0.641181
16:56:51.138,5.400,108,7.065282,7.242872,-4.756323,1,0.000000,0.000000,2.386738,0.056238,0.229218,-0.015832,1,8.722467,5.695824,-4.762499,0,1,4.800789,7.713136,7.162722,-4.771969,-0.836497,0.998177,-0.053055,-0.003963,0.221556,-0.008702,0.652981
16:56:51.206,5.450,109,7.010800,7.294380,-4.758225,1,0.000000,0.000000,2.359410,0.004130,0.214723,-0.007924,1,8.722467,5.695824,-4.762499,0,1,4.785858,7.671163,7.212686,-4.774630,-0.844141,0.990418,-0.053484,-0.003888,0.221493,-0.008695,0.665600
16:56:51.256,5.500,110,6.955934,7.345478,-4.760141,1,0.000000,0.000000,2.381048,-0.019541,0.245885,-0.010655,1,8.722467,5.695824,-4.762499,0,1,4.696614,7.628438,7.261347,-4.777322,-0.851888,0.981649,-0.053935,-0.004031,0.221716,-0.008713,0.677964
16:56:51.308,5.550,111,6.900686,7.396163,-4.762070,1,0.000000,0.000000,2.408827,-0.018020,0.232273,-0.042864,1,8.722467,5.695824,-4.762499,0,1,4.739192,7.585611,7.309763,-4.768322,-0.859168,0.972869,-0.041247,-0.004158,0.221812,-0.008976,0.690381
16:56:51.369,5.600,112,6.845060,7.446431,-4.764013,1,0.000000,0.000000,2.392751,-0.025893,0.292990,-0.024819,1,8.722467,5.695824,-4.762499,0,1,4.778166,7.541110,7.356700,-4.770447,-0.867630,0.963232,-0.041816,-0.004354,0.222453,-0.009117,0.701840
16:56:51.435,5.650,113,6.789058,7.496281,-4.765969,1,0.000000,0.000000,2.411888,-0.009088,0.247131,-0.044967,1,8.722467,5.695824,-4.762499,0,1,4.725450,7.497022,7.404179,-4.772680,-0.875291,0.954368,-0.042559,-0.004396,0.222674,-0.009433,0.713961
16:56:51.494,5.700,114,6.732685,7.545709,-4.767937,1,0.000000,0.000000,2.406483,-0.031575,0.231893,-0.064560,1,6.940788,7.377632,-4.767109,1,1,4.646474,7.026286,7.389991,-4.738626,-1.049081,0.921874,-0.002053,-0.004357,0.222767,-0.009304,0.333630
16:56:51.552,5.750,115,6.675943,7.594713,-4.769919,1,0.000000,0.000000,2.447178,0.013285,0.228130,-0.003594,1,6.940788,7.377632,-4.767109,0,1,4.804449,6.973580,7.435935,-4.738723,-1.056267,0.913329,-0.002476,-0.004201,0.222814,-0.009254,0.338780
16:56:51.603,5.800,116,6.618835,7.643289,-4.771913,1,0.000000,0.000000,2.428583,-0.048334,0.194924,0.011050,1,6.940788,7.377632,-4.767109,0,1,4.792564,6.920886,7.481251,-4.738788,-1.062647,0.904515,-0.002781,-0.004588,0.222570,-0.009078,0.344367
16:56:51.656,5.850,117,6.561364,7.691436,-4.773920,1,0.000000,0.000000,2.450787,0.007297,0.228287,0.015441,1,6.940788,7.377632,-4.767109,0,1,4.781404,6.867502,7.526305,-4.750881,-1.069745,0.895876,-0.016726,-0.004484,0.222619,-0.008909,0.348596
16:56:51.713,5.900,118,6.503535,7.739150,-4.775939,1,0.000000,0.000000,2.446214,-0.014445,0.218014,0.014916,1,6.940788,7.377632,-4.767109,0,1,4.898078,6.813913,7.570838,-4.751655,-1.076548,0.887113,-0.016999,-0.004570,0.222580,-0.008707,0.353911
16:56:51.767,5.950,119,6.445349,7.786428,-4.777971,1,0.000000,0.000000,2.459781,-0.062630,0.224807,-0.026105,1,6.940788,7.377632,-4.767109,0,1,4.788678,6.760178,7.614564,-4.752576,-1.082813,0.877595,-0.017566,-0.005066,0.222599,-0.008853,0.359582
16:56:51.825,6.000,120,6.386810,7.833269,-4.780015,1,0.000000,0.000000,2.456739,-0.037046,0.251839,0.032143,1,6.940788,7.377632,-4.767109,0,1,4.778360,6.705817,7.657832,-4.760449,-1.089681,0.868109,-0.025814,-0.005337,0.222846,-0.008535,0.364591
16:56:51.887,6.050,121,6.327923,7.879669,-4.782072,1,0.000000,0.000000,2.469653,0.043899,0.223944,-0.039240,1,6.940788,7.377632,-4.767109,0,1,4.756541,6.650872,7.701403,-4.761843,-1.096954,0.859829,-0.026458,-0.004923,0.222856,-0.008790,0.369438
16:56:51.953,6.100,122,6.268689,7.925626,-4.784140,1,0.000000,0.000000,2.473489,0.009164,0.216654,0.011712,1,6.940788,7.377632,-4.767109,0,1,4.828655,6.595822,7.744331,-4.763108,-1.103741,0.851177,-0.026745,-0.004806,0.222804,-0.008621,0.374601
16:56:52.021,6.150,123,6.209112,7.971137,-4.786221,1,0.000000,0.000000,2.517867,-0.028650,0.214452,0.008677,1,6.940788,7.377632,-4.767109,0,1,4.800560,6.540714,7.786499,-4.774756,-1.109676,0.841782,-0.038844,-0.005003,0.222735,-0.008514,0.379714
16:56:52.077,6.200,124,6.149195,8.016199,-4.788313,1,0.000000,0.000000,2.499001,-0.005347,0.204757,-0.036666,1,6.940788,7.377632,-4.767109,0,1,4.794747,6.485246,7.828489,-4.776792,-1.115912,0.832919,-0.039465,-0.005006,0.222588,-0.008742,0.385094
16:56:52.135,6.250,125,6.088943,8.060811,-4.790417,1,0.000000,0.000000,2.515393,-0.022097,0.221226,-0.017614,1,6.940788,7.377632,-4.767109,0,1,4.795072,6.429439,7.869741,-4.778806,-1.122013,0.823547,-0.039966,-0.005145,0.222577,-0.008813,0.390615
16:56:52.189,6.300,126,6.028358,8.104969,-4.792533,1,0.000000,0.000000,2.473771,0.005097,0.208718,-0.008407,1,6.940788,7.377632,-4.767109,0,1,4.792384,6.373236,7.910923,-4.784142,-1.128642,0.814951,-0.044190,-0.005062,0.222465,-0.008821,0.395810
16:56:52.245,6.350,127,5.967444,8.148672,-4.794660,1,0.000000,0.000000,2.534641,-0.033520,0.172010,-0.004298,1,6.940788,7.377632,-4.767109,0,1,4.729225,6.317479,7.951561,-4.786349,-1.133757,0.805906,-0.044601,-0.005290,0.222062,-0.008785,0.401804
16:56:52.305,6.400,128,5.906204,8.191916,-4.796799,1,0.000000,0.000000,2.500632,0.019433,0.229372,0.012917,1,6.940788,7.377632,-4.767109,0,1,4.890613,6.260310,7.991857,-4.788521,-1.140590,0.797091,-0.044886,-0.005094,0.222120,-0.008615,0.406796
16:56:52.366,6.450,129,5.844641,8.234699,-4.798948,1,0.000000,0.000000,2.538975,-0.033621,0.283830,-0.093581,1,6.940788,7.377632,-4.767109,0,1,4.801827,6.202637,8.030506,-4.794177,-1.147155,0.786628,-0.049470,-0.005318,0.222605,-0.009285,0.412163
16:56:52.438,6.500,130,5.782760,8.277019,-4.801109,1,0.000000,0.000000,2.517386,0.016272,0.198821,-0.003794,1,6.940788,7.377632,-4.767109,0,1,4.756321,6.145208,8.070142,-4.796647,-1.153395,0.778044,-0.049898,-0.005149,0.222419,-0.009243,0.417357
16:56:52.498,6.550,131,5.720563,8.318873,-4.803281,1,0.000000,0.000000,2.540074,0.038572,0.268650,0.009100,1,6.940788,7.377632,-4.767109,0,1,4.777198,6.086266,8.108900,-4.799096,-1.160689,0.768730,-0.050232,-0.004811,0.222778,-0.009102,0.421717
16:56:52.555,6.600,132,5.658054,8.360260,-4.805464,1,0.000000,0.000000,2.582921,-0.005424,0.241395,0.003700,1,6.940788,7.377632,-4.767109,0,1,4.833343,6.027829,8.146871,-4.810747,-1.166641,0.758900,-0.061003,-0.004815,0.222921,-0.009034,0.426962
16:56:52.610,6.650,133,5.595236,8.401176,-4.807658,1,0.000000,0.000000,2.560266,0.042087,0.264763,0.002420,1,6.940788,7.377632,-4.767109,0,1,4.866389,5.968151,8.184768,-4.813777,-1.173783,0.749546,-0.061381,-0.004458,0.223240,-0.008947,0.431202
16:56:52.672,6.700,134,5.532114,8.441620,-4.809862,1,0.000000,0.000000,2.602363,-0.022117,0.233673,0.000085,1,6.940788,7.377632,-4.767109,0,1,4.832309,5.909388,8.221596,-4.816829,-1.179228,0.739460,-0.061767,-0.004591,0.223319,-0.008880,0.436801
16:56:52.925,6.750,135,5.468690,8.481588,-4.812077,1,0.000000,0.000000,2.566756,0.005485,0.274753,0.019909,1,6.940788,7.377632,-4.767109,0,1,4.854479,5.849317,8.257803,-4.829843,-1.185980,0.729389,-0.073356,-0.004516,0.223705,-0.008696,0.441896
16:56:52.979,6.800,136,5.404969,8.521080,-4.814302,1,0.000000,0.000000,2.571675,0.034503,0.182134,-0.024157,1,6.940788,7.377632,-4.767109,0,1,4.728760,5.790019,8.295268,-4.833563,-1.191782,0.720999,-0.073888,-0.004225,0.223395,-0.008810,0.446795
16:56:53.040,6.850,137,5.340953,8.560093,-4.816538,1,0.000000,0.000000,2.615085,0.005306,0.221658,-0.005610,1,6.940788,7.377632,-4.767109,0,1,4.831894,5.730184,8.331264,-4.837259,-1.197324,0.711398,-0.074307,-0.004154,0.223382,-0.008787,0.451988
16:56:53.109,6.900,138,5.276647,8.598624,-4.818783,1,0.000000,0.000000,2.599754,-0.015151,0.207658,-0.030099,1,6.940788,7.377632,-4.767109,0,1,4.868343,5.670627,8.366635,-4.848944,-1.202518,0.701792,-0.083829,-0.004235,0.223267,-0.008965,0.458202
16:56:53.172,6.950,139,5.212054,8.636671,-4.821039,1,0.000000,0.000000,2.590759,-0.047084,0.199038,-0.040025,1,6.940788,7.377632,-4.767109,0,1,4.677623,5.611487,8.401077,-4.853229,-1.207192,0.691902,-0.084469,-0.004548,0.223090,-0.009188,0.464852
16:56:53.239,7.000,140,5.147177,8.674232,-4.823304,1,0.000000,0.000000,2.596365,0.021667,0.268714,-0.000454,1,6.940788,7.377632,-4.767109,0,1,4.892431,5.549686,8.435178,-4.857438,-1.213845,0.681947,-0.084872,-0.004358,0.223421,-0.009126,0.469388
16:56:53.291,7.050,141,5.082021,8.711306,-4.825580,1,0.000000,0.000000,2.615278,-0.013616,0.204591,0.008158,1,6.940788,7.377632,-4.767109,0,1,4.772876,5.489386,8.469172,-4.835978,-1.218850,0.672328,-0.056159,-0.004424,0.223285,-0.008929,0.474008
16:56:53.345,7.100,142,5.016588,8.747889,-4.827865,1,0.000000,0.000000,2.623491,0.054622,0.252903,-0.017592,1,6.940788,7.377632,-4.767109,0,1,4.774025,5.426662,8.503213,-4.838820,-1.225536,0.662938,-0.056658,-0.004003,0.223497,-0.008990,0.477647
16:56:53.435,7.150,143,4.950883,8.783981,-4.830159,1,0.000000,0.000000,2.662896,-0.042704,0.267618,0.009978,1,6.940788,7.377632,-4.767109,0,1,4.831643,5.365053,8.534490,-4.841609,-1.230558,0.651662,-0.056987,-0.004277,0.223809,-0.008858,0.483646
16:56:53.499,7.200,144,4.884910,8.819578,-4.832463,1,0.000000,0.000000,2.662896,-0.042704,0.267618,0.009978,1,6.940788,7.377632,-4.767109,0,1,4.834907,5.303194,8.565163,-4.841663,-1.235568,0.640364,-0.054195,-0.004547,0.224118,-0.008719,0.489666
16:56:53.626,7.250,145,4.818672,8.854679,-4.834776,1,0.000000,0.000000,2.667354,-0.046751,0.197306,0.020880,1,5.004623,8.918071,-4.943910,1,1,4.834907,5.068486,8.831415,-4.847840,-1.299818,0.710744,-0.058570,-0.004420,0.224105,-0.008729,0.251235
16:56:53.698,7.300,146,4.752172,8.889282,-4.837098,1,0.000000,0.000000,2.656212,-0.012114,0.201575,0.025442,1,5.004623,8.918071,-4.943910,0,1,4.834907,5.003559,8.866785,-4.850686,-1.304546,0.700912,-0.058796,-0.004474,0.223948,-0.008493,0.252757
16:56:53.757,7.350,147,4.685415,8.923386,-4.839429,1,0.000000,0.000000,2.657071,-0.052339,0.233958,0.036067,1,5.004623,8.918071,-4.943910,0,1,4.795769,4.938445,8.901188,-4.837224,-1.309105,0.690318,-0.040448,-0.004805,0.224018,-0.008143,0.254011
16:56:53.820,7.400,148,4.618404,8.956987,-4.841770,1,0.000000,0.000000,2.677860,0.011679,0.171248,-0.026839,1,5.004623,8.918071,-4.943910,0,1,4.914464,4.873140,8.935938,-4.839303,-1.313578,0.680979,-0.040963,-0.004692,0.223654,-0.008270,0.255616
16:56:53.874,7.450,149,4.551143,8.990084,-4.844118,1,0.000000,0.000000,2.730692,-0.018290,0.205589,0.001359,1,5.004623,8.918071,-4.943910,0,1,4.809102,4.807597,8.969758,-4.841335,-1.317487,0.670717,-0.041318,-0.004785,0.223531,-0.008205,0.257273
16:56:53.931,7.500,150,4.483636,9.022676,-4.846476,1,0.000000,0.000000,2.719208,0.043235,0.235310,-0.006930,1,5.004623,8.918071,-4.943910,0,1,4.719566,4.741130,9.003335,-4.808203,-1.322558,0.660757,-0.001645,-0.004459,0.223611,-0.008100,0.261040
16:56:53.997,7.550,151,4.415887,9.054760,-4.848842,1,0.000000,0.000000,2.701323,0.003298,0.210845,0.020123,1,5.004623,8.918071,-4.943910,0,1,4.807336,4.674931,9.036295,-4.808227,-1.327091,0.650786,-0.001889,-0.004406,0.223525,-0.007912,0.262859
16:56:54.057,7.600,152,4.347899,9.086335,-4.851216,1,0.000000,0.000000,2.722974,0.038610,0.203573,0.011701,1,5.004623,8.918071,-4.943910,0,1,4.874976,4.608254,9.069150,-4.808278,-1.331779,0.641174,-0.002167,-0.004118,0.223391,-0.007782,0.264431
16:56:54.120,7.650,153,4.279676,9.117399,-4.853598,1,0.000000,0.000000,2.685131,-0.013573,0.273116,0.027814,1,5.004623,8.918071,-4.943910,0,1,4.855988,4.541165,9.100380,-4.821933,-1.336901,0.630316,-0.017867,-0.004181,0.223722,-0.007585,0.263949
16:56:54.190,7.700,154,4.211222,9.147950,-4.855989,1,0.000000,0.000000,2.719436,-0.017492,0.293502,-0.009016,1,5.004623,8.918071,-4.943910,0,1,4.848918,4.473653,9.130783,-4.822839,-1.341833,0.618971,-0.018254,-0.004269,0.224183,-0.007594,0.265073
16:56:54.246,7.750,155,4.142542,9.177986,-4.858387,1,0.000000,0.000000,2.718703,0.044533,0.269622,-0.014658,1,5.004623,8.918071,-4.943910,0,1,4.874219,4.405444,9.161484,-4.823780,-1.347361,0.608556,-0.018676,-0.003949,0.224482,-0.007640,0.265683
16:56:54.301,7.800,156,4.073638,9.207506,-4.860793,1,0.000000,0.000000,2.701398,-0.015153,0.205438,-0.002449,1,5.004623,8.918071,-4.943910,0,1,4.890321,4.338297,9.191754,-4.843557,-1.351615,0.598461,-0.040470,-0.004022,0.224357,-0.007656,0.265687
16:56:54.356,7.850,157,4.004514,9.236508,-4.863207,1,0.000000,0.000000,2.731283,0.000315,0.216598,-0.012185,1,5.004623,8.918071,-4.943910,0,1,4.877888,4.270644,9.221561,-4.845601,-1.355884,0.588246,-0.040878,-0.003994,0.224307,-0.007685,0.267130
16:56:54.413,7.900,158,3.935176,9.264991,-4.865628,1,0.000000,0.000000,2.756336,0.051652,0.210097,-0.058627,1,5.004623,8.918071,-4.943910,0,1,4.752897,4.202205,9.251547,-4.847788,-1.360544,0.578561,-0.041557,-0.003635,0.224216,-0.008009,0.267962
16:56:54.472,7.950,159,3.865625,9.292952,-4.868057,1,0.000000,0.000000,2.783531,-0.009265,0.244432,0.002893,1,5.004623,8.918071,-4.943910,0,1,4.780814,4.133913,9.279872,-4.829957,-1.364436,0.567651,-0.019294,-0.003671,0.224345,-0.007889,0.271294
16:56:54.537,8.000,160,3.795868,9.320391,-4.870493,1,0.000000,0.000000,2.762509,-0.025310,0.268783,0.018530,1,5.004623,8.918071,-4.943910,0,1,4.858435,4.065333,9.307095,-4.830871,-1.368575,0.556292,-0.019546,-0.003809,0.224627,-0.007723,0.272687
16:56:54.617,8.050,161,3.725906,9.347305,-4.872936,1,0.000000,0.000000,2.762540,-0.031497,0.180231,0.029556,1,5.004623,8.918071,-4.943910,0,1,4.826372,3.997792,9.334935,-4.831762,-1.371676,0.546142,-0.019720,-0.003984,0.224347,-0.007490,0.275264
16:56:54.680,8.100,162,3.655745,9.373694,-4.875386,1,0.000000,0.000000,2.788842,0.000630,0.275112,0.027001,1,5.004623,8.918071,-4.943910,0,1,4.827926,3.928358,9.361263,-4.831293,-1.375976,0.534843,-0.018340,-0.003955,0.224666,-0.007273,0.276435
16:56:54.744,8.150,163,3.585388,9.399555,-4.877843,1,0.000000,0.000000,2.782882,-0.029848,0.220113,-0.022922,1,5.004623,8.918071,-4.943910,0,1,4.817640,3.859942,9.387450,-4.832255,-1.379296,0.524046,-0.018786,-0.004116,0.224637,-0.007369,0.278576
16:56:54.805,8.200,164,3.514839,9.424888,-4.880307,1,0.000000,0.000000,2.793901,-0.037983,0.227131,0.058903,1,5.004623,8.918071,-4.943910,0,1,4.773428,3.791413,9.412856,-4.833036,-1.382441,0.513013,-0.018786,-0.004326,0.224653,-0.006964,0.280842
16:56:54.863,8.250,165,3.444102,9.449691,-4.882777,1,0.000000,0.000000,2.824072,0.021788,0.245935,-0.016896,1,5.004623,8.918071,-4.943910,0,1,4.836287,3.721440,9.438260,-4.834669,-1.386375,0.502228,-0.019937,-0.004166,0.224784,-0.007026,0.281712
16:56:54.921,8.300,166,3.373181,9.473962,-4.885254,1,0.000000,0.000000,2.827699,-0.035102,0.194678,-0.015672,1,5.004623,8.918071,-4.943910,0,1,4.845747,3.653056,9.463168,-4.835694,-1.388838,0.491609,-0.020333,-0.004355,0.224599,-0.007078,0.284434
16:56:54.982,8.350,167,3.302080,9.497700,-4.887737,1,0.000000,0.000000,2.819283,-0.016078,0.225464,0.032129,1,5.004623,8.918071,-4.943910,0,1,4.886817,3.583735,9.487279,-4.836622,-1.392012,0.480748,-0.020473,-0.004426,0.224605,-0.006842,0.286445
16:56:55.042,8.400,168,3.230804,9.520903,-4.890226,1,0.000000,0.000000,2.827318,-0.000809,0.271449,-0.001436,1,5.004623,8.918071,-4.943910,0,1,4.831277,3.513223,9.510202,-4.835801,-1.395841,0.469288,-0.018701,-0.004404,0.224888,-0.006806,0.287814
16:56:55.096,8.450,169,3.159355,9.543572,-4.892721,1,0.000000,0.000000,2.821287,-0.026676,0.203885,0.016532,1,5.004623,8.918071,-4.943910,0,1,4.882562,3.444143,9.533446,-4.836693,-1.398582,0.458644,-0.018923,-0.004538,0.224762,-0.006667,0.290423
16:56:55.155,8.500,170,3.087739,9.565703,-4.895222,1,0.000000,0.000000,2.837236,0.016792,0.269414,-0.018390,1,5.004623,8.918071,-4.943910,0,1,4.973195,3.372929,9.555551,-4.837676,-1.402572,0.447356,-0.019319,-0.004411,0.225029,-0.006736,0.291115
16:56:55.210,8.550,171,3.015958,9.587297,-4.897728,1,0.000000,0.000000,2.852630,-0.031841,0.236050,-0.021639,1,5.004623,8.918071,-4.943910,0,1,4.917884,3.303118,9.576930,-4.861579,-1.405233,0.436024,-0.045653,-0.004574,0.225094,-0.006878,0.289612
16:56:55.265,8.600,172,2.944018,9.608351,-4.900240,1,0.000000,0.000000,2.824600,0.031347,0.280831,0.001115,1,5.004623,8.918071,-4.943910,0,1,4.826134,3.230977,9.597878,-4.863853,-1.409738,0.424720,-0.045957,-0.004362,0.225423,-0.006832,0.289446
16:56:55.321,8.650,173,2.871922,9.628864,-4.902758,1,0.000000,0.000000,2.858651,0.060313,0.209953,-0.005356,1,5.004623,8.918071,-4.943910,0,1,4.781461,3.159228,9.620388,-4.866156,-1.413601,0.414809,-0.046291,-0.003982,0.225333,-0.006823,0.289752
16:56:55.375,8.700,174,2.799674,9.648836,-4.905281,1,0.000000,0.000000,2.879229,-0.032575,0.220108,-0.046014,1,5.004623,8.918071,-4.943910,0,1,4.817986,3.089251,9.640438,-4.853959,-1.415783,0.403651,-0.030297,-0.004149,0.225302,-0.007015,0.294209
16:56:55.437,8.750,175,2.727279,9.668266,-4.907809,1,0.000000,0.000000,2.870484,0.037658,0.202359,-0.003678,1,5.004623,8.918071,-4.943910,0,1,4.947314,3.017822,9.661712,-4.855476,-1.419071,0.393600,-0.030631,-0.003906,0.225169,-0.006996,0.295291
16:56:55.492,8.800,176,2.654740,9.687151,-4.910342,1,0.000000,0.000000,2.904841,-0.013899,0.302329,0.006067,1,5.004623,8.918071,-4.943910,0,1,4.857195,2.945531,9.678994,-4.856985,-1.422198,0.381150,-0.030914,-0.003964,0.225614,-0.006921,0.295758
16:56:55.593,8.850,177,2.582062,9.705492,-4.912880,1,0.000000,0.000000,2.873693,0.012567,0.202812,-0.027325,1,2.544809,9.682766,-4.993342,1,1,4.953521,2.644405,9.687303,-4.889330,-1.503117,0.366609,-0.066104,-0.003865,0.225700,-0.006992,0.069081
16:56:55.662,8.900,178,2.509248,9.723286,-4.915423,1,0.000000,0.000000,2.924767,-0.013362,0.198211,-0.038839,1,2.544809,9.682766,-4.993342,0,1,4.939991,2.569449,9.705526,-4.892709,-1.505070,0.355813,-0.066607,-0.003919,0.225542,-0.007173,0.066750
16:56:55.716,8.950,179,2.436303,9.740534,-4.917970,1,0.000000,0.000000,2.896311,-0.034112,0.214635,0.004743,1,2.544809,9.682766,-4.993342,0,1,4.882463,2.494474,9.722936,-4.896021,-1.507185,0.344765,-0.066905,-0.004091,0.225480,-0.007106,0.064617
16:56:55.768,9.000,180,2.363230,9.757234,-4.920522,1,0.000000,0.000000,2.871763,-0.041907,0.306149,-0.047810,1,2.544809,9.682766,-4.993342,0,1,4.945550,2.418839,9.738875,-4.912503,-1.510045,0.332614,-0.082283,-0.004305,0.225937,-0.007363,0.059107
16:56:55.830,9.050,181,2.290035,9.773385,-4.923078,1,0.000000,0.000000,2.903209,-0.071955,0.171763,-0.008030,1,2.544809,9.682766,-4.993342,0,1,4.928809,2.344346,9.755281,-4.916628,-1.511312,0.321827,-0.082654,-0.004686,0.225632,-0.007367,0.057611
16:56:56.116,9.100,182,2.216720,9.788986,-4.925638,1,0.000000,0.000000,2.902551,0.015839,0.245581,-0.007663,1,2.544809,9.682766,-4.993342,0,1,4.961404,2.268352,9.771041,-4.920770,-1.514144,0.310690,-0.083024,-0.004571,0.225744,-0.007369,0.054878
16:56:56.171,9.150,183,2.143291,9.804036,-4.928202,1,0.000000,0.000000,2.911140,0.017451,0.159104,-0.036619,1,2.544809,9.682766,-4.993342,0,1,4.970212,2.192861,9.787216,-4.937882,-1.516352,0.300649,-0.098208,-0.004448,0.225373,-0.007559,0.053234
16:56:56.245,9.200,184,2.069751,9.818535,-4.930770,1,0.000000,0.000000,2.911777,0.029602,0.215878,-0.000567,1,2.544809,9.682766,-4.993342,0,1,4.911203,2.116662,9.802360,-4.942788,-1.519085,0.289972,-0.098553,-0.004260,0.225320,-0.007520,0.051056
16:56:56.302,9.250,185,1.996104,9.832482,-4.933342,1,0.000000,0.000000,2.943021,0.035969,0.200366,-0.028719,1,2.544809,9.682766,-4.993342,0,1,4.940908,2.040370,9.817227,-4.947772,-1.521470,0.279479,-0.099034,-0.004038,0.225183,-0.007636,0.048994
16:56:56.365,9.300,186,1.922355,9.845876,-4.935918,1,0.000000,0.000000,2.961276,0.008317,0.250760,-0.013539,1,2.544809,9.682766,-4.993342,0,1,4.939191,1.963869,9.830699,-4.948865,-1.523624,0.268102,-0.095026,-0.003971,0.225323,-0.007659,0.046059
16:56:56.426,9.350,187,1.848507,9.858716,-4.938496,1,0.000000,0.000000,2.979446,-0.036301,0.252587,-0.015182,1,2.544809,9.682766,-4.993342,0,1,4.870578,1.887842,9.843167,-4.953640,-1.524984,0.256368,-0.095443,-0.004147,0.225471,-0.007700,0.044926
16:56:56.489,9.400,188,1.774565,9.871001,-4.941079,1,0.000000,0.000000,2.967624,-0.071231,0.211524,-0.077565,1,2.544809,9.682766,-4.993342,0,1,4.933804,1.812627,9.855286,-4.958576,-1.525710,0.244982,-0.096168,-0.004510,0.225396,-0.008074,0.044742
16:56:56.554,9.450,189,1.700534,9.882731,-4.943664,1,0.000000,0.000000,2.980086,-0.087881,0.189231,-0.029689,1,2.544809,9.682766,-4.993342,0,1,4.984280,1.737878,9.866998,-4.969438,-1.525892,0.233783,-0.103494,-0.004959,0.225201,-0.008202,0.048025
16:56:56.633,9.500,190,1.626416,9.893905,-4.946252,1,0.000000,0.000000,3.006990,0.023363,0.223502,-0.014790,1,2.544809,9.682766,-4.993342,0,1,4.955483,1.661132,9.878711,-4.974635,-1.527549,0.222802,-0.103934,-0.004807,0.225192,-0.008237,0.047346
16:56:56.691,9.550,191,1.552217,9.904523,-4.948843,1,0.000000,0.000000,2.994861,-0.005110,0.235006,0.051549,1,2.544809,9.682766,-4.993342,0,1,4.956823,1.584625,9.889411,-4.979713,-1.529018,0.211485,-0.104060,-0.004809,0.225244,-0.007922,0.047240
16:56:56.758,9.600,192,1.477940,9.914583,-4.951437,1,0.000000,0.000000,3.001870,-0.052247,0.252577,0.035619,1,2.544809,9.682766,-4.993342,0,1,4.983697,1.508650,9.898760,-4.984497,-1.529835,0.199588,-0.103869,-0.005060,0.225389,-0.007693,0.047817
16:56:56.816,9.650,193,1.403590,9.924086,-4.954033,1,0.000000,0.000000,2.999673,-0.011857,0.217645,-0.021491,1,2.544809,9.682766,-4.993342,0,1,4.939446,1.432324,9.908522,-4.989726,-1.531027,0.188466,-0.104315,-0.005096,0.225348,-0.007765,0.048393
16:56:56.870,9.700,194,1.329171,9.933031,-4.956632,1,0.000000,0.000000,3.008343,-0.022283,0.173314,-0.010675,1,2.544809,9.682766,-4.993342,0,1,4.957107,1.356616,9.918413,-4.994958,-1.531672,0.177930,-0.104717,-0.005186,0.225075,-0.007780,0.049354
16:56:56.925,9.750,195,1.254687,9.941417,-4.959233,1,0.000000,0.000000,3.012542,0.001282,0.220460,0.044094,1,2.544809,9.682766,-4.993342,0,1,4.841727,1.279934,9.927188,-4.954371,-1.532931,0.166849,-0.053004,-0.005152,0.225051,-0.007416,0.029386
16:56:56.982,9.800,196,1.180142,9.949243,-4.961836,1,0.000000,0.000000,3.067089,0.000677,0.183245,-0.037299,1,2.544809,9.682766,-4.993342,0,1,4.968505,1.203638,9.936123,-4.957087,-1.533327,0.156288,-0.053506,-0.005122,0.224834,-0.007570,0.027327
16:56:57.043,9.850,197,1.105540,9.956511,-4.964441,1,0.000000,0.000000,3.006633,-0.059995,0.236685,-0.025362,1,2.544809,9.682766,-4.993342,0,1,4.899963,1.127897,9.942780,-4.959809,-1.533812,0.144570,-0.053967,-0.005405,0.224896,-0.007660,0.026642
16:56:57.103,9.900,198,1.030887,9.963218,-4.967048,1,0.000000,0.000000,3.031341,-0.020336,0.214848,-0.021885,1,2.544809,9.682766,-4.993342,0,1,4.950814,1.051610,9.949757,-4.959160,-1.534481,0.133424,-0.050578,-0.005482,0.224844,-0.007726,0.025940
16:56:57.166,9.950,199,0.956185,9.969364,-4.969657,1,0.000000,0.000000,3.051967,0.024655,0.189387,-0.003895,1,2.544809,9.682766,-4.993342,0,1,4.965680,0.974658,9.957272,-4.961692,-1.535460,0.122961,-0.050948,-0.005328,0.224663,-0.007706,0.023472
16:56:57.219,10.000,200,0.881439,9.974950,-4.972267,1,0.000000,0.000000,3.057800,-0.019242,0.197920,-0.033439,1,2.544809,9.682766,-4.993342,0,1,4.974832,0.898508,9.963555,-4.964302,-1.535737,0.112083,-0.051450,-0.005399,0.224527,-0.007836,0.022015
16:56:57.297,10.050,201,0.806653,9.979975,-4.974879,1,0.000000,0.000000,3.086138,-0.021224,0.233339,0.008817,1,2.544809,9.682766,-4.993342,0,1,4.965626,0.821959,9.968477,-4.966494,-1.535891,0.100613,-0.051363,-0.005479,0.224571,-0.007752,0.020900
16:56:57.353,10.100,202,0.731832,9.984438,-4.977492,1,0.000000,0.000000,3.069544,0.006271,0.239295,-0.019503,1,2.544809,9.682766,-4.993342,0,1,4.958486,0.744685,9.973035,-4.969093,-1.536714,0.089229,-0.051801,-0.005420,0.224645,-0.007810,0.019125
16:56:57.414,10.150,203,0.656979,9.988340,-4.980106,1,0.000000,0.000000,3.102770,0.023427,0.211090,-0.010560,1,2.544809,9.682766,-4.993342,0,1,4.939469,0.667330,9.977925,-4.971699,-1.537268,0.078406,-0.052204,-0.005275,0.224578,-0.007824,0.016920
16:56:57.485,10.200,204,0.582099,9.991679,-4.982720,1,0.000000,0.000000,3.077860,-0.027766,0.208350,-0.031522,1,2.544809,9.682766,-4.993342,0,1,5.005363,0.591233,9.981663,-4.983328,-1.537240,0.067309,-0.062844,-0.005387,0.224497,-0.007958,0.013569
16:56:57.543,10.250,205,0.507196,9.994457,-4.985336,1,0.000000,0.000000,3.119422,-0.056783,0.224298,-0.057203,1,2.544809,9.682766,-4.993342,0,1,4.978651,0.515686,9.984045,-4.986569,-1.536351,0.055754,-0.063449,-0.005642,0.224496,-0.008200,0.013491
16:56:57.605,10.300,206,0.432275,9.996673,-4.987952,1,0.000000,0.000000,3.092850,-0.005378,0.234523,-0.019084,1,0.448019,10.038892,-4.907388,1,1,4.957427,0.444965,10.021434,-4.986560,-1.534489,0.056740,-0.060225,-0.005636,0.224476,-0.008193,0.027858
16:56:57.663,10.350,207,0.357339,9.998326,-4.990569,1,0.000000,0.000000,3.082818,0.004605,0.179339,-0.021937,1,0.448019,10.038892,-4.907388,0,1,5.014625,0.368354,10.024460,-4.996639,-1.534839,0.046055,-0.068665,-0.005585,0.224253,-0.008274,0.029002
16:56:57.718,10.400,208,0.282393,9.999417,-4.993186,1,0.000000,0.000000,3.071896,0.018434,0.290192,-0.005918,1,0.448019,10.038892,-4.907388,0,1,5.021040,0.291036,10.025954,-5.000078,-1.535822,0.034178,-0.069069,-0.005468,0.224576,-0.008263,0.028747
16:56:57.773,10.450,209,0.207441,9.999946,-4.995804,1,0.000000,0.000000,3.087957,0.012371,0.275990,0.029032,1,0.448019,10.038892,-4.907388,0,1,5.018774,0.213789,10.026942,-5.003470,-1.536520,0.022414,-0.069320,-0.005381,0.224827,-0.008083,0.028773
16:56:57.837,10.500,210,0.132486,9.999912,-4.998421,1,0.000000,0.000000,3.180838,-0.030927,0.219045,0.021172,1,0.448019,10.038892,-4.907388,0,1,5.073952,0.137289,10.027711,-5.025896,-1.535492,0.011179,-0.091218,-0.005505,0.224799,-0.007980,0.039379
16:56:57.896,10.550,211,0.057535,9.999315,-5.001039,1,0.000000,0.000000,3.134489,0.035695,0.218239,0.021611,1,0.448019,10.038892,-4.907388,0,1,5.061865,0.060085,10.028285,-5.030415,-1.535767,0.000144,-0.091496,-0.005306,0.224767,-0.007838,0.041337
16:56:57.947,10.600,212,-0.017410,9.998156,-5.003656,1,0.000000,0.000000,3.149296,-0.019079,0.184321,-0.015068,1,0.448019,10.038892,-4.907388,0,1,4.944488,-0.016308,10.028419,-5.035014,-1.535123,-0.010645,-0.091919,-0.005372,0.224573,-0.007873,0.043593
16:56:58.007,10.650,213,-0.092345,9.996435,-5.006272,1,0.000000,0.000000,3.155940,-0.035940,0.189839,-0.037830,1,0.448019,10.038892,-4.907388,0,1,4.935842,-0.092476,10.027868,-5.010043,-1.534211,-0.021537,-0.058705,-0.005518,0.224407,-0.007957,0.031659
16:56:58.069,10.700,214,-0.167264,9.994151,-5.008889,1,0.000000,0.000000,3.169921,-0.002764,0.254807,-0.072437,1,0.448019,10.038892,-4.907388,0,1,4.983166,-0.169382,10.026130,-5.013100,-1.533745,-0.033115,-0.059364,-0.005505,0.224552,-0.008261,0.032325
16:56:58.156,10.750,215,-0.242164,9.991305,-5.011504,1,0.000000,0.000000,3.163179,0.029742,0.273992,0.029588,1,0.448019,10.038892,-4.907388,0,1,5.085056,-0.246827,10.023727,-5.016005,-1.533823,-0.044851,-0.059616,-0.005338,0.224786,-0.008083,0.033064
16:56:58.219,10.800,216,-0.317041,9.987897,-5.014119,1,0.000000,0.000000,3.204090,0.005191,0.248228,-0.011193,1,0.448019,10.038892,-4.907388,0,1,4.938325,-0.323784,10.020935,-4.995861,-1.533060,-0.056320,-0.033704,-0.005288,0.224896,-0.008054,0.038345
16:56:58.284,10.850,217,-0.391890,9.983928,-5.016733,1,0.000000,0.000000,3.159151,0.002687,0.178442,-0.004169,1,0.448019,10.038892,-4.907388,0,1,5.004158,-0.400259,10.018573,-4.997549,-1.532563,-0.066932,-0.034091,-0.005251,0.224678,-0.008036,0.040477
16:56:58.344,10.900,218,-0.466707,9.979397,-5.019346,1,0.000000,0.000000,3.180066,0.063610,0.211440,-0.008843,1,0.448019,10.038892,-4.907388,0,1,5.001765,-0.477845,10.015579,-4.999265,-1.532734,-0.077768,-0.034496,-0.004929,0.224616,-0.008039,0.042854
16:56:58.408,10.950,219,-0.541489,9.974304,-5.021957,1,0.000000,0.000000,3.175401,0.023939,0.215372,-0.003684,1,0.448019,10.038892,-4.907388,0,1,4.933968,-0.554867,10.011741,-4.981702,-1.532465,-0.088776,-0.012959,-0.004795,0.224574,-0.007983,0.056577
16:56:58.466,11.000,220,-0.616229,9.968650,-5.024567,1,0.000000,0.000000,3.238395,0.001760,0.270747,0.061735,1,0.448019,10.038892,-4.907388,0,1,5.090983,-0.631865,10.006303,-4.982243,-1.531365,-0.100533,-0.013084,-0.004765,0.224787,-0.007664,0.058767
16:56:58.521,11.050,221,-0.690926,9.962436,-5.027175,1,0.000000,0.000000,3.207246,0.040846,0.222867,-0.043661,1,0.448019,10.038892,-4.907388,0,1,5.001950,-0.709178,10.001330,-4.982974,-1.531007,-0.111574,-0.013616,-0.004555,0.224778,-0.007828,0.061641
16:56:58.574,11.100,222,-0.765574,9.955661,-5.029782,1,0.000000,0.000000,3.223641,0.068854,0.247769,-0.011812,1,0.448019,10.038892,-4.907388,0,1,5.077758,-0.787156,9.995556,-5.010805,-1.530939,-0.122865,-0.044819,-0.004218,0.224884,-0.007896,0.049168
16:56:58.626,11.150,223,-0.840168,9.948326,-5.032387,1,0.000000,0.000000,3.215287,0.022737,0.219067,0.022733,1,0.448019,10.038892,-4.907388,0,1,5.106625,-0.864133,9.989423,-5.013005,-1.530262,-0.133905,-0.045095,-0.004095,0.224857,-0.007758,0.051370
16:56:58.687,11.200,224,-0.914706,9.940432,-5.034990,1,0.000000,0.000000,3.235143,0.015550,0.233894,-0.028305,1,0.448019,10.038892,-4.907388,0,1,5.018943,-0.941050,9.982413,-5.015308,-1.529311,-0.145153,-0.045567,-0.004006,0.224898,-0.007850,0.053327
16:56:58.773,11.250,225,-0.989183,9.931979,-5.037591,1,0.000000,0.000000,3.241129,-0.063171,0.237446,0.019054,1,0.448019,10.038892,-4.907388,0,1,5.075562,-1.016411,9.974214,-5.034292,-1.527182,-0.156665,-0.064835,-0.004274,0.224955,-0.007760,0.050360
16:56:58.847,11.300,226,-1.063594,9.922966,-5.040189,1,0.000000,0.000000,3.247518,-0.013995,0.251625,0.018102,1,0.448019,10.038892,-4.907388,0,1,5.132292,-1.092729,9.965493,-5.037501,-1.525712,-0.168239,-0.065124,-0.004317,0.225075,-0.007645,0.051619
16:56:59.622,11.350,227,-1.137935,9.913396,-5.042785,1,0.000000,0.000000,3.236607,0.044882,0.231917,-0.005159,1,-1.161086,9.849320,-5.180945,1,1,4.976499,-1.164295,9.893004,-5.046195,-1.522665,-0.203174,-0.071695,-0.004333,0.225111,-0.007655,0.033501
16:56:59.700,11.400,228,-1.212203,9.903268,-5.045379,1,0.000000,0.000000,3.259266,-0.002668,0.200221,0.031698,1,-1.161086,9.849320,-5.180945,0,1,5.095960,-1.240330,9.882795,-5.062702,-1.521119,-0.214070,-0.086655,-0.004325,0.224999,-0.007504,0.038864
16:56:59.771,11.450,229,-1.286392,9.892583,-5.047970,1,0.000000,0.000000,3.289237,0.077597,0.219373,-0.003302,1,-1.161086,9.849320,-5.180945,0,1,5.063740,-1.317098,9.872116,-5.067037,-1.520097,-0.225023,-0.087014,-0.003961,0.224974,-0.007485,0.041537
16:56:59.841,11.500,230,-1.360500,9.881342,-5.050557,1,0.000000,0.000000,3.283401,-0.021985,0.150003,0.005684,1,-1.161086,9.849320,-5.180945,0,1,5.131804,-1.392648,9.861277,-5.071374,-1.518046,-0.235355,-0.087337,-0.004041,0.224642,-0.007428,0.043237
16:56:59.909,11.550,231,-1.434521,9.869544,-5.053142,1,0.000000,0.000000,3.315004,-0.015261,0.242689,-0.010536,1,-1.161086,9.849320,-5.180945,0,1,5.062111,-1.468436,9.849011,-5.071888,-1.515806,-0.246589,-0.083319,-0.004090,0.224722,-0.007434,0.043855
16:56:59.964,11.600,232,-1.508451,9.857192,-5.055724,1,0.000000,0.000000,3.283384,-0.016736,0.229027,-0.020748,1,-1.161086,9.849320,-5.180945,0,1,5.037544,-1.544057,9.836317,-5.076084,-1.513881,-0.257742,-0.083740,-0.004146,0.224740,-0.007492,0.046023
16:57:00.028,11.650,233,-1.582287,9.844285,-5.058302,1,0.000000,0.000000,3.339279,0.011530,0.196787,-0.020184,1,-1.161086,9.849320,-5.180945,0,1,5.110689,-1.619781,9.823525,-5.080303,-1.511620,-0.268395,-0.084165,-0.004077,0.224618,-0.007547,0.048175
16:57:00.084,11.700,234,-1.656024,9.830824,-5.060877,1,0.000000,0.000000,3.311788,-0.022479,0.211407,0.020828,1,-1.161086,9.849320,-5.180945,0,1,5.089667,-1.695048,9.809928,-5.085950,-1.509299,-0.279296,-0.086116,-0.004157,0.224561,-0.007427,0.050874
16:57:00.152,11.750,235,-1.729658,9.816811,-5.063449,1,0.000000,0.000000,3.311788,-0.022479,0.211407,0.020828,1,-1.161086,9.849320,-5.180945,0,1,4.987580,-1.770190,9.795792,-5.090221,-1.506973,-0.290191,-0.086383,-0.004237,0.224504,-0.007306,0.052927
16:57:01.340,11.800,236,-1.803185,9.802245,-5.066016,1,0.000000,0.000000,3.331610,0.017436,0.228667,0.014751,1,-1.161086,9.849320,-5.180945,0,1,5.092357,-1.845775,9.781024,-5.094510,-1.504899,-0.301206,-0.086662,-0.004143,0.224522,-0.007211,0.055462
16:57:01.409,11.850,237,-1.876601,9.787128,-5.068580,1,0.000000,0.000000,3.320170,-0.074369,0.242213,-0.037798,1,-1.161086,9.849320,-5.180945,0,1,5.077368,-1.920075,9.765220,-5.092732,-1.501888,-0.312474,-0.080117,-0.004445,0.224598,-0.007331,0.054343
16:57:01.481,11.900,238,-1.949901,9.771460,-5.071140,1,0.000000,0.000000,3.349584,-0.003614,0.198040,0.043811,1,-1.161086,9.849320,-5.180945,0,1,5.084112,-1.995030,9.749698,-5.096667,-1.499344,-0.323099,-0.080297,-0.004441,0.224484,-0.007114,0.056230
16:57:01.532,11.950,239,-2.023082,9.755242,-5.073695,1,0.000000,0.000000,3.376553,-0.085385,0.238080,-0.026870,1,-1.161086,9.849320,-5.180945,0,1,5.076035,-2.068792,9.732806,-5.100725,-1.495547,-0.334176,-0.080729,-0.004787,0.224542,-0.007198,0.057649
16:57:01.611,12.000,240,-2.096139,9.738476,-5.076247,1,0.000000,0.000000,3.409705,-0.001779,0.189957,0.019404,1,-2.099190,9.489050,-5.055112,1,1,5.037402,-2.121451,9.603009,-5.084445,-1.483471,-0.390164,-0.057994,-0.004815,0.224608,-0.007162,0.138056
