timestamp,sim_time,iteration,true_pos_x,true_pos_y,true_pos_z,imu_valid,imu_roll,imu_pitch,imu_yaw,imu_acc_x,imu_acc_y,imu_acc_z,usbl_valid,usbl_pos_x,usbl_pos_y,usbl_pos_z,usbl_fix_used,depth_valid,depth_measurement,kf_pos_x,kf_pos_y,kf_pos_z,kf_vel_x,kf_vel_y,kf_vel_z,kf_acc_x,kf_acc_y,kf_acc_z,error_norm
21:32:57.262,0.000,0,10.168406,0.000000,-4.647959,1,0.000000,0.000000,1.542644,0.002092,0.265081,-0.011172,1,10.203894,0.286827,-4.569065,1,1,4.653884,10.203115,0.280531,-4.645408,0.001733,0.014010,0.000127,0.000351,-0.000033,0.000003,0.282682
21:32:57.313,0.050,1,10.168125,0.074999,-4.647969,1,0.000000,0.000000,1.579124,-0.003918,0.280321,0.009424,1,9.928753,0.230602,-4.593837,0,1,4.717016,10.202144,0.281233,-4.645366,-0.026256,0.013878,0.001068,-0.003914,0.280069,0.009416,0.209037
21:32:57.363,0.100,2,10.167281,0.149994,-4.647998,1,0.000000,0.000000,1.553019,0.044162,0.226224,-0.000254,1,10.000061,-0.035531,-4.661478,0,1,4.717016,10.200754,0.282165,-4.645349,-0.036182,0.017483,0.000814,0.020113,0.253158,0.004583,0.136369
21:32:57.413,0.150,3,10.165876,0.224981,-4.648048,1,0.000000,0.000000,1.546110,0.019592,0.215314,-0.000358,1,9.848902,0.090944,-4.565438,0,1,4.635695,10.198866,0.283066,-4.636580,-0.046291,0.018727,0.053739,0.019940,0.240547,0.002939,0.067777
21:32:57.464,0.200,4,10.163909,0.299955,-4.648116,1,0.000000,0.000000,1.595252,0.051416,0.231000,-0.008090,1,10.010932,0.281474,-4.776052,0,1,4.635695,10.196325,0.284255,-4.633911,-0.057728,0.021391,0.053481,0.027807,0.238161,0.000182,0.038718
21:32:57.514,0.250,5,10.161380,0.374912,-4.648205,1,0.000000,0.000000,1.626362,0.010520,0.234444,-0.025199,1,10.147095,0.275170,-4.467307,1,1,4.741968,10.156739,0.277301,-4.593355,-0.177107,-0.001613,0.228097,0.027806,0.238165,0.000203,0.112063
21:32:57.564,0.300,6,10.158289,0.449848,-4.648312,1,0.000000,0.000000,1.616980,0.039363,0.205178,-0.019853,1,10.271999,0.352416,-4.732708,0,1,4.741968,10.147719,0.277288,-4.703704,-0.187443,-0.000174,-0.247644,0.030117,0.231569,-0.003871,0.181540
21:32:57.614,0.350,7,10.154636,0.524759,-4.648440,1,0.000000,0.000000,1.590063,0.011967,0.208124,-0.028126,1,10.254275,0.280336,-4.460567,0,1,4.689564,10.138190,0.277210,-4.716151,-0.197870,0.000228,-0.248692,0.027092,0.227662,-0.007913,0.257168
21:32:57.664,0.400,8,10.150422,0.599640,-4.648587,1,0.000000,0.000000,1.637582,0.063247,0.225406,-0.005962,1,10.122318,0.651156,-5.076822,0,1,4.689564,10.128023,0.277495,-4.728588,-0.209249,0.002617,-0.249015,0.032257,0.227340,-0.007634,0.332685
21:32:57.715,0.450,9,10.145647,0.674488,-4.648754,1,0.000000,0.000000,1.626810,-0.039142,0.203830,0.017698,1,10.255881,0.352644,-4.507142,0,1,4.718135,10.117486,0.277041,-4.725498,-0.219421,0.000077,-0.204775,0.023333,0.224401,-0.004454,0.405767
21:32:57.766,0.500,10,10.140311,0.749297,-4.648940,1,0.000000,0.000000,1.659286,-0.007599,0.202753,-0.014018,1,10.162149,0.626750,-4.709365,1,1,4.718135,10.148533,0.541598,-4.733369,-0.136300,0.590635,-0.198761,0.023371,0.224395,-0.004451,0.224355
21:32:57.816,0.550,11,10.134415,0.824064,-4.649146,1,0.000000,0.000000,1.638866,-0.025661,0.219569,-0.012252,1,9.888509,0.725760,-4.435828,0,1,4.610207,10.141463,0.570934,-4.743347,-0.147301,0.589164,-0.199266,0.017924,0.223858,-0.005318,0.270183
21:32:57.866,0.600,12,10.127958,0.898785,-4.649372,1,0.000000,0.000000,1.632558,-0.065194,0.197595,-0.078070,1,9.973424,0.856536,-4.608535,0,1,4.610207,10.133982,0.599933,-4.672207,-0.157331,0.586131,-0.020775,0.009613,0.221232,-0.012466,0.299784
21:32:57.916,0.650,13,10.120941,0.973456,-4.649617,1,0.000000,0.000000,1.653286,-0.094144,0.226027,0.006745,1,10.252117,0.667906,-4.814199,0,1,4.662735,10.125835,0.628497,-4.673189,-0.168369,0.581489,-0.020778,0.000181,0.221668,-0.010720,0.345798
21:32:57.966,0.700,14,10.113365,1.048072,-4.649881,1,0.000000,0.000000,1.670203,0.049406,0.207176,0.022830,1,10.077537,0.955786,-4.754463,0,1,4.662735,10.117244,0.657964,-4.674074,-0.178917,0.582463,-0.020180,0.004283,0.220461,-0.007924,0.390877
21:32:58.017,0.750,15,10.105230,1.122628,-4.650165,1,0.000000,0.000000,1.651829,0.004512,0.229876,-0.008977,1,10.168065,1.193235,-4.598209,1,1,4.698896,10.148188,1.025667,-4.682476,-0.122945,1.146415,-0.034177,0.004353,0.220449,-0.007942,0.110865
21:32:58.067,0.800,16,10.096536,1.197122,-4.650469,1,0.000000,0.000000,1.702950,0.011887,0.259713,-0.004799,1,10.046208,1.230402,-4.888129,0,1,4.698896,10.141573,1.082983,-4.684181,-0.135286,1.145343,-0.034471,0.004933,0.223469,-0.007700,0.127250
21:32:58.117,0.850,17,10.087284,1.271548,-4.650792,1,0.000000,0.000000,1.707388,0.042503,0.192753,-0.071758,1,10.202996,1.154065,-4.637128,0,1,4.716050,10.134709,1.140464,-4.686281,-0.145392,1.145500,-0.037029,0.007616,0.221275,-0.012275,0.143846
21:32:58.167,0.900,18,10.077474,1.345903,-4.651135,1,0.000000,0.000000,1.698562,0.080529,0.260261,-0.048359,1,9.965672,1.161501,-4.577192,0,1,4.716050,10.126833,1.198247,-4.700777,-0.158069,1.147032,-0.058612,0.012477,0.223874,-0.014718,0.163411
21:32:58.217,0.950,19,10.067108,1.420182,-4.651497,1,0.000000,0.000000,1.701380,0.018275,0.180392,-0.023209,1,10.234560,1.366732,-4.421223,0,1,4.641748,10.119034,1.255655,-4.703770,-0.167633,1.146553,-0.059613,0.012839,0.221157,-0.015249,0.180272
21:32:58.268,1.000,20,10.056185,1.494381,-4.651878,1,0.000000,0.000000,1.717452,-0.017809,0.265411,-0.076334,1,9.925377,1.549982,-4.680980,1,1,4.641748,10.002027,1.451777,-4.705136,-0.321557,1.328644,-0.057961,0.012884,0.221187,-0.015242,0.087090
21:32:58.319,1.050,21,10.044706,1.568496,-4.652279,1,0.000000,0.000000,1.703478,-0.048724,0.247789,-0.021641,1,10.226195,1.659628,-4.668107,0,1,4.681606,9.985546,1.517817,-4.697577,-0.333286,1.325680,-0.044001,0.009260,0.222752,-0.015575,0.090112
21:32:58.370,1.100,22,10.032672,1.642523,-4.652699,1,0.000000,0.000000,1.702754,0.006577,0.214034,0.029318,1,10.310900,1.545462,-4.567716,0,1,4.681606,9.968668,1.584062,-4.699535,-0.344080,1.324612,-0.043367,0.009111,0.222267,-0.013082,0.098528
21:32:58.420,1.150,23,10.020083,1.716458,-4.653139,1,0.000000,0.000000,1.734200,-0.031261,0.193383,-0.012633,1,9.855290,1.565955,-4.762093,0,1,4.702709,9.951463,1.649939,-4.701716,-0.353958,1.321948,-0.044006,0.006987,0.220747,-0.013058,0.107207
21:32:58.470,1.200,24,10.006941,1.790296,-4.653598,1,0.000000,0.000000,1.748164,-0.005851,0.217721,0.003488,1,9.984119,1.727463,-4.737120,0,1,4.702709,9.933533,1.715874,-4.703388,-0.364725,1.319898,-0.043578,0.006345,0.220596,-0.012229,0.115787
21:32:58.520,1.250,25,9.993246,1.864033,-4.654076,1,0.000000,0.000000,1.763042,0.009863,0.251232,-0.023110,1,10.001583,1.904444,-4.561790,1,1,4.588968,9.959777,1.845221,-4.699086,-0.326776,1.387284,-0.035868,0.006370,0.220574,-0.012192,0.059160
21:32:58.571,1.300,26,9.978998,1.937665,-4.654573,1,0.000000,0.000000,1.758797,-0.022860,0.189242,0.035706,1,10.022794,2.111054,-4.720959,0,1,4.588968,9.943403,1.914362,-4.700526,-0.336533,1.384716,-0.034932,0.004979,0.219082,-0.009913,0.062624
21:32:58.621,1.350,27,9.964199,2.011189,-4.655090,1,0.000000,0.000000,1.738481,-0.049903,0.234088,-0.022696,1,9.912117,1.973988,-4.418658,0,1,4.636565,9.926231,1.983096,-4.679804,-0.347637,1.381245,-0.008135,0.002484,0.219764,-0.010355,0.053307
21:32:58.671,1.400,28,9.948849,2.084599,-4.655626,1,0.000000,0.000000,1.741170,0.041326,0.254867,-0.001986,1,10.089083,1.966929,-4.716653,0,1,4.636565,9.908204,2.052446,-4.680165,-0.359852,1.380665,-0.008400,0.004173,0.221290,-0.009991,0.057341
21:32:58.721,1.450,29,9.932949,2.157892,-4.656181,1,0.000000,0.000000,1.768048,-0.034942,0.277970,0.013974,1,10.029748,2.275737,-4.709715,0,1,4.646128,9.889377,2.120939,-4.680399,-0.372518,1.377083,-0.008156,0.002543,0.223651,-0.008994,0.062053
21:32:58.771,1.500,30,9.916500,2.231064,-4.656756,1,0.000000,0.000000,1.797353,-0.025780,0.242026,-0.006529,1,10.078513,2.117227,-4.729746,1,1,4.646128,9.966566,2.156244,-4.671504,-0.293628,1.343393,0.002356,0.002517,0.223598,-0.008927,0.091225
21:32:58.821,1.550,31,9.899504,2.304110,-4.657349,1,0.000000,0.000000,1.786507,0.010863,0.235823,-0.024280,1,9.980177,2.168421,-4.735625,0,1,4.638783,9.951504,2.223412,-4.671514,-0.305005,1.341331,0.001452,0.002851,0.224087,-0.009540,0.097041
21:32:58.871,1.600,32,9.881960,2.377026,-4.657962,1,0.000000,0.000000,1.805593,0.022881,0.160162,-0.012679,1,9.991477,2.367271,-4.773984,0,1,4.638783,9.936551,2.290679,-4.671480,-0.313957,1.339836,0.000878,0.003621,0.221628,-0.009660,0.103047
21:32:58.921,1.650,33,9.863870,2.449809,-4.658594,1,0.000000,0.000000,1.812049,-0.036872,0.203400,0.028418,1,9.985885,2.290519,-4.612870,0,1,4.668493,9.920833,2.357207,-4.670267,-0.323943,1.336120,0.002511,0.002122,0.220953,-0.008246,0.109344
21:32:58.972,1.700,34,9.845236,2.522454,-4.659245,1,0.000000,0.000000,1.834750,-0.039352,0.209981,0.022303,1,9.650443,2.589952,-4.488107,0,1,4.668493,9.904565,2.423471,-4.669908,-0.334036,1.332006,0.002971,0.000641,0.220562,-0.007157,0.115894
21:32:59.022,1.750,35,9.826057,2.594957,-4.659914,1,0.000000,0.000000,1.809308,-0.001040,0.237205,-0.004246,1,9.710828,2.616641,-4.475225,1,1,4.665372,9.813775,2.542891,-4.661652,-0.405531,1.372965,0.011923,0.000689,0.220612,-0.007086,0.053523
21:32:59.072,1.800,36,9.806335,2.667314,-4.660603,1,0.000000,0.000000,1.823109,-0.027083,0.181609,0.008851,1,9.749288,2.424680,-4.453345,0,1,4.665372,9.793625,2.611270,-4.662226,-0.414843,1.369592,0.010549,-0.000269,0.219267,-0.006550,0.057491
21:32:59.122,1.850,37,9.786072,2.739521,-4.661311,1,0.000000,0.000000,1.834753,0.005003,0.256406,-0.023122,1,9.723136,3.013704,-4.866740,0,1,4.606925,9.772224,2.679674,-4.661844,-0.426639,1.366671,0.009759,-0.000093,0.220505,-0.007100,0.061431
21:32:59.173,1.900,38,9.765268,2.811575,-4.662037,1,0.000000,0.000000,1.869201,-0.029699,0.228646,-0.000385,1,9.846526,2.752556,-4.678826,0,1,4.606925,9.750588,2.747567,-4.661302,-0.437258,1.362415,0.009596,-0.001048,0.220767,-0.006884,0.065674
21:32:59.223,1.950,39,9.743925,2.883469,-4.662782,1,0.000000,0.000000,1.840774,-0.071166,0.203425,-0.003143,1,9.745471,2.970849,-4.796483,0,1,4.653484,9.728828,2.814745,-4.658641,-0.446868,1.357223,0.011800,-0.003238,0.220225,-0.006748,0.070485
21:32:59.273,2.000,40,9.722043,2.955202,-4.663547,1,0.000000,0.000000,1.861102,-0.021198,0.229977,0.013789,1,9.715249,3.206270,-4.723322,1,1,4.653484,9.709670,3.006169,-4.660366,-0.454816,1.445703,0.008831,-0.003122,0.220203,-0.006770,0.052544
21:32:59.324,2.050,41,9.699624,3.026769,-4.664329,1,0.000000,0.000000,1.884755,0.058606,0.273914,-0.044834,1,9.449183,2.834779,-4.599771,0,1,4.622991,9.686011,3.078903,-4.660297,-0.467289,1.443713,0.007440,-0.001253,0.221830,-0.007920,0.054033
21:32:59.375,2.100,42,9.676669,3.098165,-4.665131,1,0.000000,0.000000,1.876819,0.001888,0.212257,-0.038628,1,9.823721,3.011670,-4.816935,0,1,4.622991,9.662486,3.151059,-4.649622,-0.477567,1.440473,0.018266,-0.001160,0.221549,-0.008718,0.056917
21:32:59.425,2.150,43,9.653180,3.169387,-4.665951,1,0.000000,0.000000,1.836210,0.027282,0.241005,-0.023104,1,9.721627,2.956106,-4.640737,0,1,4.691905,9.638028,3.223325,-4.648844,-0.489054,1.438283,0.017463,-0.000348,0.222104,-0.009127,0.058580
21:32:59.475,2.200,44,9.629158,3.240430,-4.666790,1,0.000000,0.000000,1.922114,-0.006629,0.256859,-0.044222,1,9.378642,3.281969,-4.664893,0,1,4.691905,9.612848,3.294967,-4.648322,-0.500550,1.433995,0.016087,-0.000522,0.223069,-0.010098,0.059844
21:32:59.525,2.250,45,9.604604,3.311292,-4.667648,1,0.000000,0.000000,1.933102,0.033717,0.171380,-0.002985,1,9.487338,3.024952,-4.424623,1,1,4.664900,9.552176,3.245959,-4.645474,-0.535148,1.347582,0.017924,-0.000652,0.223136,-0.010077,0.086653
21:32:59.576,2.300,46,9.579519,3.381967,-4.668524,1,0.000000,0.000000,1.913818,0.025124,0.219745,0.007665,1,9.463849,3.310711,-4.659528,0,1,4.664900,9.525138,3.313542,-4.644438,-0.545726,1.344602,0.017853,0.000044,0.223044,-0.009600,0.090661
21:32:59.626,2.350,47,9.553906,3.452452,-4.669418,1,0.000000,0.000000,1.892500,0.003133,0.215302,-0.049437,1,9.592618,3.194331,-4.617248,0,1,4.734793,9.497676,3.380741,-4.643939,-0.556092,1.341230,0.016373,0.000125,0.222840,-0.010643,0.094622
21:32:59.677,2.400,48,9.527764,3.522742,-4.670331,1,0.000000,0.000000,1.895243,-0.059421,0.308489,-0.009802,1,9.605026,3.353312,-4.802748,0,1,4.734793,9.468602,3.446659,-4.668943,-0.568864,1.335180,-0.013687,-0.001401,0.225035,-0.010874,0.096388
21:32:59.728,2.450,49,9.501097,3.592835,-4.671262,1,0.000000,0.000000,1.962836,-0.014212,0.244042,-0.050523,1,9.468841,3.623027,-4.460905,0,1,4.684554,9.439657,3.513059,-4.669980,-0.579733,1.330263,-0.015142,-0.001721,0.225510,-0.011859,0.100701
21:32:59.778,2.500,50,9.473905,3.662725,-4.672212,1,0.000000,0.000000,1.924819,-0.010208,0.194535,0.003095,1,9.408134,3.527096,-4.433220,1,1,4.684554,9.409657,3.562204,-4.661749,-0.590758,1.315202,-0.005356,-0.001744,0.225516,-0.011770,0.119758
21:32:59.828,2.550,51,9.446190,3.732410,-4.673179,1,0.000000,0.000000,1.967510,-0.018600,0.257886,-0.026755,1,9.324016,3.873165,-4.817881,0,1,4.826131,9.379509,3.627560,-4.707559,-0.601949,1.310011,-0.058406,-0.002155,0.226305,-0.012574,0.128926
21:32:59.878,2.600,52,9.417954,3.801884,-4.674166,1,0.000000,0.000000,1.971961,-0.029093,0.258826,-0.021576,1,9.380377,3.902532,-4.562871,0,1,4.826131,9.348798,3.692488,-4.710571,-0.613079,1.304421,-0.059231,-0.002795,0.227079,-0.012787,0.134445
21:32:59.928,2.650,53,9.389197,3.871145,-4.675170,1,0.000000,0.000000,1.973968,0.015688,0.212468,0.003019,1,9.213221,3.632963,-4.517297,0,1,4.747573,9.318035,3.757913,-4.713402,-0.623180,1.300522,-0.059515,-0.002366,0.226739,-0.012422,0.139094
21:32:59.978,2.700,54,9.359923,3.940188,-4.676192,1,0.000000,0.000000,1.969866,0.034347,0.222273,0.012332,1,9.479344,3.718094,-4.579929,0,1,4.747573,9.286551,3.823422,-4.724981,-0.633761,1.297173,-0.069736,-0.001532,0.226638,-0.011946,0.146281
21:33:00.029,2.750,55,9.330131,4.009009,-4.677232,1,0.000000,0.000000,1.928187,-0.029307,0.265630,0.001218,1,9.436987,4.020492,-4.652619,1,1,4.706498,9.311303,3.929316,-4.725912,-0.609688,1.318292,-0.067356,-0.001490,0.226535,-0.011921,0.095264
21:33:00.081,2.800,56,9.299825,4.077605,-4.678291,1,0.000000,0.000000,1.972934,0.001773,0.194127,0.023459,1,9.190197,3.931082,-4.919109,0,1,4.706498,9.280972,3.995264,-4.728979,-0.619175,1.314160,-0.067199,-0.001417,0.225816,-0.011141,0.098512
21:33:00.131,2.850,57,9.269005,4.145971,-4.679367,1,0.000000,0.000000,1.996784,-0.004579,0.230492,-0.015010,1,9.299189,4.147168,-4.708067,0,1,4.742792,9.249702,4.060792,-4.735279,-0.629536,1.309297,-0.071171,-0.001486,0.225918,-0.011251,0.103702
21:33:00.181,2.900,58,9.237673,4.214104,-4.680461,1,0.000000,0.000000,1.988664,-0.012168,0.204733,-0.060690,1,9.278362,4.332300,-4.706730,0,1,4.742792,9.218336,4.126060,-4.739240,-0.639107,1.304520,-0.072694,-0.001713,0.225467,-0.012294,0.107614
21:33:00.232,2.950,59,9.205832,4.282000,-4.681573,1,0.000000,0.000000,1.961833,-0.016880,0.210982,-0.032435,1,8.949629,4.181388,-4.605946,0,1,4.724928,9.186426,4.190988,-4.743065,-0.648923,1.299825,-0.073713,-0.002029,0.225166,-0.012710,0.111540
21:33:00.282,3.000,60,9.173483,4.349655,-4.682703,1,0.000000,0.000000,2.018882,0.064721,0.214114,-0.023437,1,9.235919,4.254196,-4.658387,1,1,4.724928,9.178046,4.255364,-4.738107,-0.644646,1.294569,-0.064365,-0.002041,0.225124,-0.012633,0.109459
21:33:00.332,3.050,61,9.140628,4.417066,-4.683850,1,0.000000,0.000000,2.034092,-0.002766,0.239870,0.017670,1,9.210218,4.405824,-4.887318,0,1,4.687440,9.145361,4.319899,-4.741113,-0.655077,1.289292,-0.064441,-0.002055,0.225425,-0.012021,0.112884
21:33:00.383,3.100,62,9.107268,4.484228,-4.685015,1,0.000000,0.000000,2.027211,-0.031588,0.216338,0.004757,1,9.320770,4.365246,-4.560470,0,1,4.687440,9.112614,4.383833,-4.744211,-0.664614,1.283479,-0.064724,-0.002645,0.225243,-0.011688,0.116670
21:33:00.434,3.150,63,9.073406,4.551138,-4.686197,1,0.000000,0.000000,2.033064,0.000556,0.255439,0.057517,1,8.880442,4.516082,-4.634755,0,1,4.693410,9.078632,4.447793,-4.731921,-0.675532,1.278139,-0.046737,-0.002583,0.225835,-0.010217,0.113128
21:33:00.484,3.200,64,9.039043,4.617792,-4.687397,1,0.000000,0.000000,2.074602,0.002110,0.238842,0.036602,1,8.918274,4.582969,-4.668670,0,1,4.693410,9.044363,4.511578,-4.733930,-0.685782,1.272582,-0.046439,-0.002492,0.226084,-0.009326,0.116082
21:33:00.534,3.250,65,9.004182,4.684186,-4.688615,1,0.000000,0.000000,2.063679,0.062943,0.195703,-0.042993,1,9.127683,4.784629,-4.492290,1,1,4.671774,9.043298,4.634586,-4.727081,-0.676320,1.301573,-0.036252,-0.002399,0.225989,-0.009249,0.073958
21:33:00.584,3.300,66,8.968824,4.750317,-4.689849,1,0.000000,0.000000,2.056274,-0.005529,0.185813,0.012795,1,9.047721,4.523848,-4.576674,0,1,4.671774,9.009828,4.699657,-4.713028,-0.685139,1.296501,-0.018200,-0.002458,0.225232,-0.008710,0.069173
21:33:00.634,3.350,67,8.932971,4.816180,-4.691101,1,0.000000,0.000000,2.043367,-0.003113,0.251594,0.026137,1,8.790484,4.754972,-4.466202,0,1,4.702822,8.974915,4.764218,-4.713708,-0.695827,1.290984,-0.018065,-0.002470,0.225719,-0.008072,0.070501
21:33:00.684,3.400,68,8.896626,4.881772,-4.692371,1,0.000000,0.000000,2.063025,0.019292,0.220343,-0.025144,1,8.782264,4.743167,-4.496129,0,1,4.702822,8.939855,4.829020,-4.714751,-0.705788,1.286200,-0.018759,-0.002075,0.225622,-0.008379,0.071781
21:33:00.735,3.450,69,8.859790,4.947090,-4.693657,1,0.000000,0.000000,2.083319,0.034807,0.201742,0.025858,1,9.002718,5.017117,-4.699925,0,1,4.687729,8.904540,4.893974,-4.707646,-0.715287,1.281860,-0.009615,-0.001417,0.225196,-0.007714,0.070849
21:33:00.785,3.500,70,8.822466,5.012130,-4.694960,1,0.000000,0.000000,2.083887,-0.033514,0.260770,-0.004717,1,8.754272,4.655165,-4.756593,1,1,4.687729,8.837134,4.874734,-4.709775,-0.742993,1.228707,-0.011902,-0.001565,0.225313,-0.007727,0.138969
21:33:00.835,3.550,71,8.784655,5.076888,-4.696281,1,0.000000,0.000000,2.100716,-0.040017,0.198750,-0.035933,1,9.076108,5.157208,-4.676676,0,1,4.715969,8.800324,4.935580,-4.710583,-0.751588,1.222215,-0.012742,-0.002238,0.224848,-0.008216,0.142892
21:33:00.885,3.600,72,8.746359,5.141360,-4.697618,1,0.000000,0.000000,2.104459,-0.046113,0.203876,-0.044323,1,8.917876,5.042708,-4.454706,0,1,4.715969,8.763069,4.995955,-4.712750,-0.760196,1.215463,-0.015179,-0.002993,0.224487,-0.008841,0.147142
21:33:00.935,3.650,73,8.707582,5.205543,-4.698972,1,0.000000,0.000000,2.116390,0.008109,0.255596,0.021613,1,8.297882,5.102523,-4.753261,0,1,4.699404,8.724230,5.056591,-4.713328,-0.770662,1.209471,-0.015172,-0.002805,0.225013,-0.008331,0.150565
21:33:00.985,3.700,74,8.668325,5.269433,-4.700343,1,0.000000,0.000000,2.062948,0.014822,0.258686,0.018698,1,8.767522,5.247178,-4.644130,0,1,4.699404,8.684735,5.117040,-4.713909,-0.781611,1.204137,-0.015175,-0.002512,0.225573,-0.007885,0.153873
21:33:01.035,3.750,75,8.628589,5.333027,-4.701731,1,0.000000,0.000000,2.135580,-0.022179,0.225892,-0.021276,1,8.884266,5.379391,-4.773930,1,1,4.721082,8.709371,5.231260,-4.718227,-0.754730,1.228800,-0.019659,-0.002444,0.225398,-0.007911,0.130974
21:33:01.085,3.800,76,8.588379,5.396320,-4.703135,1,0.000000,0.000000,2.134145,0.035539,0.222921,0.018897,1,8.812976,5.213157,-4.671292,0,1,4.721082,8.671233,5.293138,-4.719059,-0.764536,1.223654,-0.019679,-0.001823,0.225357,-0.007477,0.133285
21:33:01.135,3.850,77,8.547695,5.459311,-4.704556,1,0.000000,0.000000,2.145717,-0.014090,0.217592,0.010269,1,8.730237,5.269189,-4.651523,0,1,4.647410,8.632968,5.354012,-4.719936,-0.773613,1.217225,-0.019794,-0.002020,0.225232,-0.007194,0.136367
21:33:01.186,3.900,78,8.506540,5.521994,-4.705993,1,0.000000,0.000000,2.172926,0.020074,0.203930,0.023814,1,8.455910,5.606455,-4.669228,0,1,4.647410,8.594285,5.415225,-4.700265,-0.782541,1.211566,0.003890,-0.001671,0.224895,-0.006570,0.138317
21:33:01.236,3.950,79,8.464916,5.584366,-4.707446,1,0.000000,0.000000,2.181205,-0.027894,0.238422,-0.023256,1,8.436052,5.343004,-4.821583,0,1,4.617881,8.554859,5.475072,-4.700175,-0.791755,1.204221,0.003338,-0.002079,0.225106,-0.006827,0.141731
21:33:01.286,4.000,80,8.422826,5.646425,-4.708916,1,0.000000,0.000000,2.152646,0.006360,0.279734,0.036597,1,8.555447,5.631493,-4.796905,1,1,4.617881,8.525646,5.560426,-4.703660,-0.795084,1.212317,-0.001223,-0.002032,0.225062,-0.006851,0.134147
21:33:01.336,4.050,81,8.380272,5.708166,-4.710402,1,0.000000,0.000000,2.137629,-0.002120,0.284252,0.025133,1,8.064081,5.607466,-4.827035,0,1,4.694743,8.484748,5.620541,-4.701097,-0.805928,1.205532,0.001677,-0.002034,0.225969,-0.006350,0.136675
21:33:01.386,4.100,82,8.337256,5.769585,-4.711904,1,0.000000,0.000000,2.189726,0.035389,0.240887,-0.014683,1,8.658682,5.908038,-4.873413,0,1,4.694743,8.443744,5.681167,-4.701067,-0.815854,1.199624,0.001253,-0.001469,0.226195,-0.006474,0.138834
21:33:01.436,4.150,83,8.293782,5.830680,-4.713422,1,0.000000,0.000000,2.202085,0.008585,0.253936,-0.042234,1,8.469742,5.792781,-4.969388,0,1,4.734205,8.402177,5.740965,-4.701230,-0.825731,1.192812,0.000451,-0.001319,0.226607,-0.007001,0.141234
21:33:01.486,4.200,84,8.249850,5.891448,-4.714957,1,0.000000,0.000000,2.200854,0.024270,0.205488,-0.003906,1,8.319914,5.875618,-4.652414,0,1,4.734205,8.360861,5.801057,-4.710449,-0.834633,1.186961,-0.010516,-0.000944,0.226298,-0.007013,0.143228
21:33:01.536,4.250,85,8.205465,5.951883,-4.716507,1,0.000000,0.000000,2.184087,-0.051375,0.197339,-0.042640,1,7.989418,5.879357,-4.486990,1,1,4.782801,8.233645,5.865188,-4.703416,-0.892345,1.183195,-0.002099,-0.000856,0.226483,-0.006967,0.092096
21:33:01.586,4.300,86,8.160627,6.011984,-4.718072,1,0.000000,0.000000,2.194813,0.025886,0.222093,0.024340,1,8.380591,6.068112,-4.609268,0,1,4.782801,8.188697,5.924619,-4.703350,-0.901715,1.177195,-0.002047,-0.000470,0.226420,-0.006519,0.092938
21:33:01.636,4.350,87,8.115341,6.071747,-4.719654,1,0.000000,0.000000,2.223921,0.014646,0.216604,0.036921,1,8.323933,5.658047,-4.490305,0,1,4.676452,8.143443,5.983618,-4.695778,-0.910645,1.170755,0.006743,-0.000255,0.226280,-0.005862,0.095533
21:33:01.686,4.400,88,8.069607,6.131169,-4.721251,1,0.000000,0.000000,2.225144,-0.025156,0.216737,-0.015721,1,8.215568,6.380797,-4.809190,0,1,4.676452,8.098032,6.041626,-4.695499,-0.919098,1.163401,0.006333,-0.000605,0.226146,-0.005999,0.097411
21:33:01.736,4.450,89,8.023430,6.190245,-4.722863,1,0.000000,0.000000,2.246099,0.005149,0.259594,0.009305,1,8.047573,6.179632,-4.878317,0,1,4.711633,8.051208,6.099462,-4.695103,-0.928751,1.156034,0.006222,-0.000525,0.226609,-0.005790,0.098913
21:33:01.788,4.500,90,7.976811,6.248973,-4.724491,1,0.000000,0.000000,2.258887,0.001071,0.254929,-0.055699,1,8.005403,6.280798,-4.835322,1,1,4.711633,8.004770,6.188767,-4.703660,-0.937374,1.166889,-0.004265,-0.000455,0.226578,-0.005841,0.069573
21:33:01.838,4.550,91,7.929753,6.307350,-4.726135,1,0.000000,0.000000,2.250730,-0.052058,0.191431,0.026357,1,7.993251,6.387082,-4.699075,0,1,4.703413,7.958562,6.246389,-4.703724,-0.944823,1.159066,-0.004190,-0.001158,0.226099,-0.005406,0.071052
21:33:01.888,4.600,92,7.882259,6.365372,-4.727793,1,0.000000,0.000000,2.241546,0.035427,0.217157,-0.004535,1,8.032363,6.625672,-4.789596,0,1,4.703413,7.910979,6.304815,-4.703936,-0.953887,1.152884,-0.004450,-0.000666,0.225978,-0.005394,0.071141
21:33:01.938,4.650,93,7.834332,6.423036,-4.729467,1,0.000000,0.000000,2.267303,-0.034058,0.217794,0.017677,1,7.771039,6.315701,-4.706153,0,1,4.602523,7.863464,6.361778,-4.675741,-0.961949,1.144987,0.028159,-0.001109,0.225870,-0.004935,0.086532
21:33:01.988,4.700,94,7.785973,6.480338,-4.731156,1,0.000000,0.000000,2.271852,-0.016202,0.202448,-0.052268,1,8.151349,6.203918,-4.529702,0,1,4.602523,7.815692,6.418770,-4.674563,-0.969843,1.137621,0.027390,-0.001307,0.225563,-0.005549,0.088750
21:33:02.038,4.750,95,7.737187,6.537276,-4.732859,1,0.000000,0.000000,2.284508,-0.035315,0.211101,-0.032959,1,7.542965,6.558699,-4.477496,1,1,4.710776,7.710015,6.496633,-4.665849,-1.010932,1.142278,0.035623,-0.001201,0.225667,-0.005509,0.082949
21:33:02.088,4.800,96,7.687975,6.593847,-4.734578,1,0.000000,0.000000,2.276482,-0.054863,0.187341,-0.057187,1,7.542781,6.672891,-4.721925,0,1,4.710776,7.660205,6.553040,-4.677132,-1.018084,1.134304,0.020027,-0.001893,0.225172,-0.006239,0.075739
21:33:02.138,4.850,97,7.638340,6.650046,-4.736311,1,0.000000,0.000000,2.298157,0.039257,0.245913,0.042223,1,7.497133,6.677770,-4.736779,0,1,4.819498,7.608454,6.610051,-4.675918,-1.027346,1.127322,0.020232,-0.001369,0.225436,-0.005627,0.078359
21:33:02.188,4.900,98,7.588286,6.705872,-4.738059,1,0.000000,0.000000,2.291798,-0.002679,0.252283,-0.018007,1,7.623004,6.465496,-4.679712,0,1,4.819498,7.556446,6.665990,-4.674976,-1.036296,1.119470,0.019812,-0.001385,0.225774,-0.005781,0.081141
21:33:02.238,4.950,99,7.537815,6.761320,-4.739821,1,0.000000,0.000000,2.345624,-0.029806,0.160150,0.030812,1,7.693223,6.691898,-4.313246,0,1,4.807148,7.505809,6.721843,-4.711151,-1.042609,1.111773,-0.023072,-0.001739,0.224958,-0.005521,0.058351
21:33:02.288,5.000,100,7.486929,6.816388,-4.741598,1,0.000000,0.000000,2.359265,-0.008988,0.264224,0.035253,1,7.660188,6.830600,-4.963509,1,1,4.807148,7.505811,6.790741,-4.720792,-1.020452,1.111509,-0.033170,-0.001767,0.224831,-0.005565,0.038042
21:33:02.338,5.050,101,7.435632,6.871072,-4.743390,1,0.000000,0.000000,2.342005,0.026278,0.221343,-0.040498,1,7.393809,7.040020,-4.512909,0,1,4.752437,7.454430,6.846549,-4.722626,-1.028724,1.104171,-0.033824,-0.001423,0.224788,-0.005990,0.037227
21:33:02.388,5.100,102,7.383927,6.925370,-4.745195,1,0.000000,0.000000,2.337033,0.038299,0.230243,0.048026,1,7.492547,6.534033,-4.925597,0,1,4.752437,7.402393,6.902120,-4.731902,-1.037365,1.097002,-0.042576,-0.000942,0.224854,-0.005380,0.032531
21:33:02.438,5.150,103,7.331816,6.979278,-4.747015,1,0.000000,0.000000,2.352311,-0.006370,0.179618,0.020993,1,7.408560,6.992863,-4.579455,0,1,4.743198,7.351092,6.957070,-4.733925,-1.044389,1.089517,-0.042580,-0.001007,0.224312,-0.005067,0.032189
21:33:02.488,5.200,104,7.279302,7.032794,-4.748849,1,0.000000,0.000000,2.354537,-0.024807,0.174568,-0.009473,1,7.263823,6.884550,-4.994832,0,1,4.743198,7.299719,7.011399,-4.736081,-1.051041,1.081749,-0.042880,-0.001288,0.223724,-0.005119,0.032212
21:33:02.539,5.250,105,7.226389,7.085914,-4.750697,1,0.000000,0.000000,2.369081,0.015983,0.182475,0.025036,1,7.342630,7.032669,-4.617804,1,1,4.786316,7.271121,7.057051,-4.747704,-1.044906,1.068968,-0.054034,-0.001333,0.223683,-0.005165,0.053320
21:33:02.589,5.300,106,7.173079,7.138636,-4.752558,1,0.000000,0.000000,2.353809,0.003606,0.199770,-0.044833,1,7.130955,7.174804,-4.784741,0,1,4.786316,7.218972,7.110555,-4.750575,-1.052436,1.061406,-0.054678,-0.001275,0.223404,-0.005624,0.053839
21:33:02.639,5.350,107,7.119376,7.190956,-4.754434,1,0.000000,0.000000,2.373018,-0.040961,0.218839,-0.030779,1,7.002645,7.116457,-4.820533,0,1,4.788654,7.166552,7.162883,-4.753430,-1.059582,1.052699,-0.055215,-0.001734,0.223351,-0.005912,0.054906
21:33:02.689,5.400,108,7.065282,7.242872,-4.756323,1,0.000000,0.000000,2.355725,0.027107,0.224076,-0.018408,1,7.168880,7.228845,-5.026930,0,1,4.788654,7.113112,7.215753,-4.765285,-1.067800,1.045243,-0.066038,-0.001404,0.223359,-0.006096,0.055709
21:33:02.739,5.450,109,7.010800,7.294380,-4.758225,1,0.000000,0.000000,2.391348,0.017867,0.207213,0.025760,1,6.980175,7.396587,-4.944621,0,1,4.820499,7.059611,7.268269,-4.768466,-1.075326,1.037577,-0.066041,-0.001187,0.223177,-0.005739,0.056296
21:33:02.789,5.500,110,6.955934,7.345478,-4.760141,1,0.000000,0.000000,2.420231,0.003738,0.206334,-0.022262,1,6.874293,7.306511,-4.825731,1,1,4.820499,6.972553,7.316553,-4.773801,-1.101731,1.027192,-0.068673,-0.001154,0.223247,-0.005749,0.036047
21:33:02.839,5.550,111,6.900686,7.396163,-4.762070,1,0.000000,0.000000,2.382922,0.022248,0.284012,-0.018152,1,6.826712,7.310953,-4.767668,0,1,4.795681,6.916282,7.367534,-4.782355,-1.110620,1.018682,-0.074907,-0.000894,0.223925,-0.005909,0.038397
21:33:02.889,5.600,112,6.845060,7.446431,-4.764013,1,0.000000,0.000000,2.438562,-0.014283,0.259834,0.026819,1,6.740448,7.390457,-4.733239,0,1,4.795681,6.860185,7.417762,-4.785981,-1.118234,1.009448,-0.074901,-0.001041,0.224321,-0.005551,0.039157
21:33:02.939,5.650,113,6.789058,7.496281,-4.765969,1,0.000000,0.000000,2.392071,0.011162,0.216751,0.007691,1,6.897742,7.492568,-4.789028,0,1,4.734462,6.804083,7.468274,-4.789676,-1.125870,1.001497,-0.075051,-0.000908,0.224238,-0.005408,0.039650
21:33:02.989,5.700,114,6.732685,7.545709,-4.767937,1,0.000000,0.000000,2.416437,-0.000307,0.191088,-0.003303,1,6.664471,7.637486,-4.668304,0,1,4.734462,6.748103,7.518466,-4.776910,-1.132735,0.993518,-0.056288,-0.000902,0.223880,-0.005312,0.032564
21:33:03.039,5.750,115,6.675943,7.594713,-4.769919,1,0.000000,0.000000,2.432332,0.040271,0.201755,-0.006369,1,6.943290,7.763399,-4.585378,1,1,4.775460,6.754741,7.617149,-4.773172,-1.103398,1.013426,-0.048959,-0.000885,0.223699,-0.005283,0.081995
21:33:03.089,5.800,116,6.618835,7.643289,-4.771913,1,0.000000,0.000000,2.401620,-0.012709,0.234237,-0.026235,1,6.543794,7.865335,-4.616356,0,1,4.775460,6.699347,7.667378,-4.775714,-1.110918,1.004834,-0.049419,-0.001011,0.223812,-0.005505,0.084125
21:33:03.139,5.850,117,6.561364,7.691436,-4.773920,1,0.000000,0.000000,2.425836,-0.010444,0.269968,-0.022361,1,6.775140,7.544237,-4.747621,0,1,4.832548,6.643091,7.716880,-4.793295,-1.118791,0.995641,-0.067168,-0.001111,0.224299,-0.005747,0.087762
21:33:03.189,5.900,118,6.503535,7.739150,-4.775939,1,0.000000,0.000000,2.436646,-0.011964,0.243054,-0.025650,1,6.658136,7.626479,-4.924072,0,1,4.832548,6.586812,7.766124,-4.796735,-1.126160,0.986660,-0.067630,-0.001224,0.224494,-0.005953,0.089974
21:33:03.239,5.950,119,6.445349,7.786428,-4.777971,1,0.000000,0.000000,2.450803,-0.014863,0.280298,-0.013776,1,6.624800,7.492340,-4.935577,0,1,4.822981,6.529655,7.814496,-4.800156,-1.133937,0.977037,-0.067999,-0.001365,0.225071,-0.006033,0.091583
21:33:03.290,6.000,120,6.386810,7.833269,-4.780015,1,0.000000,0.000000,2.471511,0.007001,0.208468,-0.012373,1,6.293658,8.035894,-4.806816,1,1,4.822981,6.427701,7.906610,-4.808961,-1.166927,0.993262,-0.074509,-0.001230,0.225098,-0.006056,0.088819
21:33:03.340,6.050,121,6.327923,7.879669,-4.782072,1,0.000000,0.000000,2.478274,-0.022066,0.268365,-0.039095,1,6.587269,7.709576,-4.404096,0,1,4.806430,6.368841,7.955441,-4.812812,-1.174140,0.983548,-0.075094,-0.001443,0.225540,-0.006391,0.091436
21:33:03.390,6.100,122,6.268689,7.925626,-4.784140,1,0.000000,0.000000,2.466837,-0.025433,0.240088,0.025560,1,6.241681,7.782694,-4.788233,0,1,4.806430,6.309990,8.003968,-4.816448,-1.181029,0.974188,-0.075128,-0.001686,0.225687,-0.006070,0.094272
21:33:03.440,6.150,123,6.209112,7.971137,-4.786221,1,0.000000,0.000000,2.485890,0.033056,0.285759,0.030019,1,6.454637,7.920051,-4.933069,0,1,4.683743,6.249658,8.052340,-4.782087,-1.189117,0.964910,-0.031372,-0.001338,0.226289,-0.005556,0.090857
21:33:03.490,6.200,124,6.149195,8.016199,-4.788313,1,0.000000,0.000000,2.500935,0.016336,0.228529,-0.053836,1,6.171923,7.976360,-4.473568,0,1,4.683743,6.189828,8.100576,-4.783834,-1.196087,0.956018,-0.032053,-0.001163,0.226311,-0.006031,0.093758
21:33:03.540,6.250,125,6.088943,8.060811,-4.790417,1,0.000000,0.000000,2.474769,-0.040631,0.225545,0.042982,1,6.516359,7.795214,-4.571461,1,1,4.871180,6.227107,8.059343,-4.777412,-1.146819,0.895836,-0.023059,-0.001437,0.226257,-0.005998,0.138783
21:33:03.590,6.300,126,6.028358,8.104969,-4.792533,1,0.000000,0.000000,2.508914,0.076998,0.231414,0.023001,1,6.065403,8.012236,-5.021097,0,1,4.871180,6.168879,8.104742,-4.803944,-1.154464,0.887582,-0.052448,-0.000668,0.226308,-0.005818,0.140984
21:33:03.640,6.350,127,5.967444,8.148672,-4.794660,1,0.000000,0.000000,2.530083,0.024044,0.165456,-0.024467,1,6.036078,8.272261,-4.789733,0,1,4.832660,6.111486,8.149727,-4.806638,-1.160473,0.879363,-0.052890,-0.000428,0.225717,-0.005998,0.144543
21:33:03.690,6.400,128,5.906204,8.191916,-4.796799,1,0.000000,0.000000,2.525972,-0.001459,0.277846,-0.011807,1,6.085975,7.788534,-4.751093,0,1,4.832660,6.052671,8.192955,-4.809312,-1.167624,0.869464,-0.053240,-0.000438,0.226218,-0.006053,0.147005
21:33:03.740,6.450,129,5.844641,8.234699,-4.798948,1,0.000000,0.000000,2.543187,-0.016812,0.172388,0.004436,1,5.581736,8.141058,-4.686765,0,1,4.822454,5.994983,8.236527,-4.814882,-1.173072,0.860591,-0.056839,-0.000594,0.225706,-0.005965,0.151195
21:33:03.790,6.500,130,5.782760,8.277019,-4.801109,1,0.000000,0.000000,2.543442,0.033323,0.231629,-0.019085,1,6.013070,8.109382,-4.840178,1,1,4.822454,5.955519,8.236566,-4.818489,-1.168206,0.826559,-0.058014,-0.000687,0.225729,-0.005968,0.178282
21:33:03.840,6.550,131,5.720563,8.318873,-4.803281,1,0.000000,0.000000,2.535255,0.005725,0.194855,-0.029099,1,5.720718,7.965506,-4.747635,0,1,4.781818,5.897219,8.277993,-4.821483,-1.174336,0.817709,-0.058504,-0.000626,0.225438,-0.006185,0.182236
21:33:03.890,6.600,132,5.658054,8.360260,-4.805464,1,0.000000,0.000000,2.559442,-0.012822,0.237923,-0.015044,1,5.620399,8.462369,-4.666040,0,1,4.781818,5.838321,8.318395,-4.812651,-1.180501,0.807982,-0.045301,-0.000740,0.225555,-0.006222,0.185204
21:33:03.941,6.650,133,5.595236,8.401176,-4.807658,1,0.000000,0.000000,2.584156,0.049609,0.205829,0.029701,1,5.780473,8.641113,-4.855929,0,1,4.734997,5.778890,8.359321,-4.814805,-1.186840,0.799228,-0.045332,-0.000274,0.225372,-0.005892,0.188498
21:33:03.991,6.700,134,5.532114,8.441620,-4.809862,1,0.000000,0.000000,2.561052,0.025455,0.222432,-0.004995,1,5.384703,8.428872,-4.858759,0,1,4.734997,5.719167,8.399384,-4.817076,-1.193306,0.790139,-0.045619,-0.000038,0.225346,-0.005884,0.191898
21:33:04.041,6.750,135,5.468690,8.481588,-4.812077,1,0.000000,0.000000,2.572124,0.036343,0.226799,0.015791,1,5.585647,8.466507,-4.737600,1,1,4.728435,5.640808,8.445661,-4.792075,-1.210092,0.784687,-0.014528,-0.000004,0.225364,-0.005781,0.176962
21:33:04.091,6.800,136,5.404969,8.521080,-4.814302,1,0.000000,0.000000,2.597815,-0.003115,0.210153,0.022214,1,5.528983,8.648039,-4.858226,0,1,4.728435,5.580334,8.484754,-4.792720,-1.215727,0.775194,-0.014605,-0.000032,0.225226,-0.005529,0.180384
21:33:04.141,6.850,137,5.340953,8.560093,-4.816538,1,0.000000,0.000000,2.571076,-0.013144,0.234794,0.021447,1,5.412871,8.338254,-4.777737,0,1,4.802105,5.519417,8.523055,-4.793361,-1.221747,0.765460,-0.014666,-0.000150,0.225312,-0.005288,0.183735
21:33:04.191,6.900,138,5.276647,8.598624,-4.818783,1,0.000000,0.000000,2.586271,0.028083,0.236248,-0.003324,1,5.518556,8.419318,-4.846739,0,1,4.802105,5.457792,8.561285,-4.796324,-1.228150,0.756048,-0.017483,0.000102,0.225410,-0.005278,0.186312
21:33:04.241,6.950,139,5.212054,8.636671,-4.821039,1,0.000000,0.000000,2.613823,0.013536,0.244719,0.059979,1,5.305482,8.581426,-4.900805,0,1,4.843878,5.395891,8.598796,-4.796999,-1.234210,0.746212,-0.017260,0.000220,0.225580,-0.004705,0.189232
21:33:04.291,7.000,140,5.147177,8.674232,-4.823304,1,0.000000,0.000000,2.597511,0.069251,0.245361,-0.023911,1,5.320936,8.691831,-4.804079,1,1,4.843878,5.330739,8.649943,-4.798101,-1.241967,0.744695,-0.017765,0.000244,0.225567,-0.004706,0.186870
21:33:04.341,7.050,141,5.082021,8.711306,-4.825580,1,0.000000,0.000000,2.649194,0.033484,0.241739,-0.009815,1,5.257444,8.623267,-4.934853,0,1,4.801981,5.268073,8.687093,-4.799830,-1.247856,0.734884,-0.018980,0.000535,0.225708,-0.004754,0.189380
21:33:04.391,7.100,142,5.016588,8.747889,-4.827865,1,0.000000,0.000000,2.617271,0.019931,0.241715,0.003350,1,4.805464,8.571973,-4.946693,0,1,4.801981,5.205209,8.723631,-4.800760,-1.253918,0.725120,-0.019159,0.000703,0.225847,-0.004684,0.192096
21:33:04.441,7.150,143,4.950883,8.783981,-4.830159,1,0.000000,0.000000,2.624393,0.026637,0.257583,0.008936,1,4.989806,8.861339,-5.005964,0,1,4.923748,5.141806,8.759592,-4.801677,-1.260162,0.715180,-0.019289,0.000926,0.226120,-0.004567,0.194570
21:33:04.491,7.200,144,4.884910,8.819578,-4.832463,1,0.000000,0.000000,2.652242,-0.004226,0.277055,-0.051182,1,4.815409,8.920556,-4.891724,0,1,4.923748,5.078192,8.794528,-4.836682,-1.265952,0.704527,-0.058857,0.000882,0.226554,-0.005081,0.194944
21:33:04.541,7.250,145,4.818672,8.854679,-4.834776,1,0.000000,0.000000,2.630396,-0.056996,0.254062,0.000366,1,4.735054,8.762845,-4.539861,1,1,4.735568,4.944406,8.812741,-4.829517,-1.312137,0.684959,-0.047404,0.000952,0.226666,-0.005045,0.132649
21:33:04.591,7.300,146,4.752172,8.889282,-4.837098,1,0.000000,0.000000,2.655605,0.021137,0.200565,0.001651,1,4.637470,8.974158,-5.011304,0,1,4.735568,4.878712,8.847135,-4.831871,-1.317485,0.675440,-0.047606,0.001122,0.226446,-0.004989,0.133477
21:33:04.642,7.350,147,4.685415,8.923386,-4.839429,1,0.000000,0.000000,2.659386,0.059214,0.214648,0.008231,1,4.882103,8.822109,-4.640759,0,1,4.808839,4.812277,8.881277,-4.827188,-1.323381,0.666083,-0.039667,0.001609,0.226347,-0.004855,0.134227
21:33:04.692,7.400,148,4.618404,8.956987,-4.841770,1,0.000000,0.000000,2.686399,0.000444,0.189106,-0.003014,1,4.641471,8.966541,-4.899524,0,1,4.808839,4.746334,8.914678,-4.829172,-1.328085,0.656400,-0.039897,0.001599,0.226038,-0.004840,0.135333
21:33:04.742,7.450,149,4.551143,8.990084,-4.844118,1,0.000000,0.000000,2.697241,-0.000633,0.181107,0.014353,1,4.682271,9.098392,-4.851609,0,1,4.823676,4.680258,8.947682,-4.831109,-1.332586,0.646774,-0.039998,0.001581,0.225668,-0.004682,0.136521
21:33:04.792,7.500,150,4.483636,9.022676,-4.846476,1,0.000000,0.000000,2.673761,-0.006058,0.200243,0.011284,1,4.183443,9.114332,-4.719999,1,1,4.823676,4.505351,9.013609,-4.827111,-1.400177,0.656222,-0.033328,0.001761,0.225752,-0.004662,0.030475
21:33:04.842,7.550,151,4.415887,9.054760,-4.848842,1,0.000000,0.000000,2.708306,0.040444,0.188934,-0.034117,1,4.415581,9.141815,-5.026227,0,1,4.793761,4.435175,9.046785,-4.828868,-1.405159,0.646743,-0.033762,0.002077,0.225452,-0.004901,0.028889
21:33:04.892,7.600,152,4.347899,9.086335,-4.851216,1,0.000000,0.000000,2.680764,-0.054998,0.253625,0.006297,1,4.352631,9.190036,-4.867252,0,1,4.793761,4.365083,9.078149,-4.830526,-1.409809,0.635907,-0.033927,0.001615,0.225680,-0.004811,0.028113
21:33:04.942,7.650,153,4.279676,9.117399,-4.853598,1,0.000000,0.000000,2.711303,-0.041582,0.209028,-0.036657,1,4.143967,9.052127,-4.637569,0,1,4.880028,4.295032,9.109485,-4.845620,-1.413931,0.625542,-0.049695,0.001268,0.225546,-0.005109,0.019029
21:33:04.992,7.700,154,4.211222,9.147950,-4.855989,1,0.000000,0.000000,2.707769,-0.003755,0.282593,-0.022517,1,3.945612,9.159005,-4.951468,0,1,4.880028,4.223766,9.139880,-4.848161,-1.419129,0.614587,-0.050068,0.001228,0.226001,-0.005247,0.016844
21:33:05.042,7.750,155,4.142542,9.177986,-4.858387,1,0.000000,0.000000,2.741660,0.023687,0.264971,-0.043097,1,4.274995,9.322918,-4.555466,1,1,4.851250,4.183447,9.208710,-4.839593,-1.405858,0.626350,-0.037514,0.001230,0.225918,-0.005211,0.054502
21:33:05.092,7.800,156,4.073638,9.207506,-4.860793,1,0.000000,0.000000,2.742904,-0.015784,0.202993,0.021910,1,4.123315,9.434534,-5.162583,0,1,4.851250,4.113355,9.239844,-4.844094,-1.409944,0.616108,-0.040698,0.001095,0.225736,-0.005007,0.053870
21:33:05.142,7.850,157,4.004514,9.236508,-4.863207,1,0.000000,0.000000,2.749726,0.065456,0.239975,-0.010887,1,4.113260,9.214093,-4.929351,0,1,4.892176,4.042054,9.270740,-4.846152,-1.415163,0.605988,-0.040987,0.001600,0.225848,-0.005052,0.053590
21:33:05.192,7.900,158,3.935176,9.264991,-4.865628,1,0.000000,0.000000,2.754536,-0.001273,0.215478,-0.016025,1,3.812418,9.352886,-4.687361,0,1,4.892176,3.971296,9.300856,-4.848242,-1.419391,0.595665,-0.041316,0.001578,0.225767,-0.005137,0.053790
21:33:05.242,7.950,159,3.865625,9.292952,-4.868057,1,0.000000,0.000000,2.752034,0.002083,0.226075,0.052014,1,3.826003,9.291073,-5.075825,0,1,4.906733,3.900210,9.330380,-4.865969,-1.423759,0.585252,-0.059396,0.001582,0.225770,-0.004749,0.051003
21:33:05.293,8.000,160,3.795868,9.320391,-4.870493,1,0.000000,0.000000,2.747486,0.005218,0.241354,0.005086,1,3.952205,9.404415,-4.820073,1,1,4.906733,3.859907,9.370704,-4.867296,-1.410291,0.581403,-0.057726,0.001553,0.225724,-0.004744,0.081502
21:33:05.343,8.050,161,3.725906,9.347305,-4.872936,1,0.000000,0.000000,2.763203,0.001388,0.157484,-0.011426,1,3.959076,9.296487,-4.846829,0,1,4.804209,3.789737,9.400097,-4.870208,-1.414099,0.571718,-0.058008,0.001552,0.225202,-0.004794,0.082878
21:33:05.393,8.100,162,3.655745,9.373694,-4.875386,1,0.000000,0.000000,2.769063,-0.033527,0.210830,-0.023390,1,3.754674,9.322444,-4.824377,0,1,4.804209,3.719345,9.428312,-4.854090,-1.417770,0.561200,-0.036406,0.001285,0.225093,-0.004875,0.086497
21:33:05.443,8.150,163,3.585388,9.399555,-4.877843,1,0.000000,0.000000,2.783239,-0.017651,0.246885,0.058948,1,3.907419,9.434180,-4.579895,0,1,4.883807,3.648383,9.455765,-4.855745,-1.421694,0.550301,-0.036244,0.001143,0.225257,-0.004397,0.087272
21:33:05.493,8.200,164,3.514839,9.424888,-4.880307,1,0.000000,0.000000,2.805435,0.017377,0.183350,0.002692,1,3.683695,9.475905,-4.926658,0,1,4.883807,3.577350,9.483560,-4.857541,-1.425385,0.540303,-0.036416,0.001264,0.224943,-0.004344,0.088703
21:33:05.543,8.250,165,3.444102,9.449691,-4.882777,1,0.000000,0.000000,2.806378,0.034184,0.214319,0.036428,1,3.123434,9.549221,-4.784912,1,1,4.823857,3.409832,9.520090,-4.847424,-1.484609,0.535307,-0.022901,0.001396,0.225019,-0.004307,0.085909
21:33:05.593,8.300,166,3.373181,9.473962,-4.885254,1,0.000000,0.000000,2.787043,0.022312,0.194445,0.010473,1,3.509723,9.562459,-4.963847,0,1,4.823857,3.335507,9.546980,-4.848536,-1.488642,0.525241,-0.023024,0.001551,0.224792,-0.004198,0.089995
21:33:05.643,8.350,167,3.302080,9.497700,-4.887737,1,0.000000,0.000000,2.819739,0.007509,0.223875,-0.014599,1,3.238285,9.144654,-4.962062,0,1,4.878112,3.260936,9.573021,-4.849722,-1.492334,0.514648,-0.023302,0.001595,0.224786,-0.004274,0.093868
21:33:05.693,8.400,168,3.230804,9.520903,-4.890226,1,0.000000,0.000000,2.834103,-0.011869,0.252430,-0.015057,1,3.460927,9.293280,-4.709283,0,1,4.878112,3.186182,9.598135,-4.858496,-1.495814,0.503557,-0.032303,0.001497,0.224988,-0.004376,0.094671
21:33:05.743,8.450,169,3.159355,9.543572,-4.892721,1,0.000000,0.000000,2.878445,0.015964,0.197750,0.032822,1,3.398344,9.820170,-5.099107,0,1,4.908739,3.111354,9.623414,-4.860020,-1.498827,0.493126,-0.032293,0.001602,0.224790,-0.004107,0.098733
21:33:05.793,8.500,170,3.087739,9.565703,-4.895222,1,0.000000,0.000000,2.865359,-0.019996,0.265519,0.028214,1,3.105771,9.619221,-4.926552,1,1,4.908739,3.053784,9.640618,-4.864076,-1.491903,0.478199,-0.035315,0.001574,0.224785,-0.004114,0.087950
21:33:05.844,8.550,171,3.015958,9.587297,-4.897728,1,0.000000,0.000000,2.841803,0.019153,0.193030,-0.050452,1,3.167726,9.427647,-4.945481,0,1,4.852361,2.979129,9.664626,-4.862245,-1.495333,0.467924,-0.031520,0.001700,0.224556,-0.004435,0.092711
21:33:05.894,8.600,172,2.944018,9.608351,-4.900240,1,0.000000,0.000000,2.853510,-0.014137,0.216492,0.032217,1,2.757801,9.875970,-5.293674,0,1,4.852361,2.904469,9.687736,-4.863733,-1.498384,0.457194,-0.031521,0.001587,0.224498,-0.004175,0.095911
21:33:05.944,8.650,173,2.871922,9.628864,-4.902758,1,0.000000,0.000000,2.864972,0.011000,0.177030,0.005366,1,2.967161,9.752217,-4.985804,0,1,4.880058,2.829662,9.710833,-4.865288,-1.501392,0.447016,-0.031670,0.001654,0.224161,-0.004107,0.099543
21:33:05.994,8.700,174,2.799674,9.648836,-4.905281,1,0.000000,0.000000,2.864616,-0.022729,0.231638,0.023367,1,2.860845,9.764844,-4.894895,0,1,4.880058,2.754712,9.732690,-4.870505,-1.504286,0.436043,-0.035966,0.001482,0.224214,-0.003925,0.101304
21:33:06.044,8.750,175,2.727279,9.668266,-4.907809,1,0.000000,0.000000,2.891628,-0.066933,0.226546,0.021626,1,2.744592,9.832424,-5.052116,1,1,4.862735,2.695801,9.773872,-4.878373,-1.497696,0.436536,-0.043182,0.001476,0.224177,-0.003943,0.114061
21:33:06.094,8.800,176,2.654740,9.687151,-4.910342,1,0.000000,0.000000,2.917922,0.008938,0.263397,-0.049070,1,2.774442,9.676403,-5.139673,0,1,4.862735,2.620595,9.795132,-4.880661,-1.500508,0.425227,-0.043658,0.001528,0.224451,-0.004257,0.117076
21:33:06.144,8.850,177,2.582062,9.705492,-4.912880,1,0.000000,0.000000,2.870791,0.003564,0.217000,-0.027144,1,2.433364,9.630602,-4.889889,0,1,4.809091,2.545513,9.816201,-4.862490,-1.503573,0.414527,-0.020501,0.001543,0.224399,-0.004357,0.127010
21:33:06.194,8.900,178,2.509248,9.723286,-4.915423,1,0.000000,0.000000,2.886489,-0.057955,0.223081,-0.071613,1,2.649448,9.553132,-5.133414,0,1,4.809091,2.470829,9.836351,-4.863686,-1.505793,0.403435,-0.021111,0.001132,0.224390,-0.004819,0.130140
21:33:06.244,8.950,179,2.436303,9.740534,-4.917970,1,0.000000,0.000000,2.885850,0.017834,0.234573,0.033166,1,2.552530,9.773613,-4.763217,0,1,4.943304,2.395245,9.856243,-4.864643,-1.508928,0.392552,-0.021119,0.001246,0.224460,-0.004560,0.133858
21:33:06.294,9.000,180,2.363230,9.757234,-4.920522,1,0.000000,0.000000,2.894696,-0.055604,0.213166,-0.045545,1,2.286382,9.732339,-4.913408,1,1,4.943304,2.311350,9.839605,-4.888317,-1.516549,0.360929,-0.047345,0.001232,0.224511,-0.004623,0.102536
21:33:06.344,9.050,181,2.290035,9.773385,-4.923078,1,0.000000,0.000000,2.868743,0.007862,0.231972,0.034868,1,2.290942,9.825554,-4.816787,0,1,4.888894,2.235357,9.857349,-4.890596,-1.519734,0.350081,-0.047351,0.001277,0.224562,-0.004356,0.105332
21:33:06.394,9.100,182,2.216720,9.788986,-4.925638,1,0.000000,0.000000,2.948087,0.066298,0.228877,-0.007018,1,2.088370,10.096463,-4.839810,0,1,4.888894,2.158720,9.874842,-4.892976,-1.522689,0.339282,-0.047584,0.001717,0.224591,-0.004374,0.108638
21:33:06.444,9.150,183,2.143291,9.804036,-4.928202,1,0.000000,0.000000,2.909058,-0.007909,0.184977,-0.069705,1,2.161551,10.001818,-4.913171,0,1,4.930869,2.082799,9.891857,-4.905386,-1.525094,0.328783,-0.059531,0.001652,0.224325,-0.004838,0.109052
21:33:06.494,9.200,184,2.069751,9.818535,-4.930770,1,0.000000,0.000000,2.932523,0.010348,0.235079,-0.030285,1,2.311892,9.861308,-4.849200,0,1,4.930869,2.006345,9.907959,-4.908429,-1.527646,0.317739,-0.059917,0.001710,0.224397,-0.005006,0.111875
21:33:06.544,9.250,185,1.996104,9.832482,-4.933342,1,0.000000,0.000000,2.935602,0.046235,0.231829,-0.036689,1,2.207785,10.105548,-4.994288,1,1,4.957859,1.999713,9.969288,-4.914540,-1.489791,0.333155,-0.063763,0.001651,0.224297,-0.005015,0.138139
21:33:06.594,9.300,186,1.922355,9.845876,-4.935918,1,0.000000,0.000000,2.982099,-0.004238,0.158769,-0.006289,1,1.906901,9.925014,-4.926542,0,1,4.957859,1.925489,9.986188,-4.928764,-1.491370,0.322769,-0.076709,0.001612,0.223863,-0.005053,0.140530
21:33:06.645,9.350,187,1.848507,9.858716,-4.938496,1,0.000000,0.000000,2.955576,0.033049,0.255165,0.006931,1,1.916065,9.733070,-5.129087,0,1,4.965584,1.850461,10.001909,-4.932578,-1.493968,0.311552,-0.076895,0.001819,0.224069,-0.004975,0.143329
21:33:06.695,9.400,188,1.774565,9.871001,-4.941079,1,0.000000,0.000000,2.970683,-0.049171,0.233666,0.011372,1,1.961891,9.729520,-4.984643,0,1,4.965584,1.776143,10.016903,-4.936387,-1.495430,0.300245,-0.077049,0.001486,0.224131,-0.004869,0.145986
21:33:06.745,9.450,189,1.700534,9.882731,-4.943664,1,0.000000,0.000000,3.000050,-0.010980,0.224297,-0.031839,1,1.753827,9.727044,-5.005776,0,1,4.986963,1.701451,10.031581,-4.953379,-1.496944,0.289116,-0.092477,0.001405,0.224133,-0.005078,0.149169
21:33:06.795,9.500,190,1.626416,9.893905,-4.946252,1,0.000000,0.000000,2.993584,-0.056933,0.199569,0.025091,1,1.573729,9.771697,-5.061616,1,1,4.986963,1.613289,9.976916,-4.961503,-1.506294,0.238349,-0.096775,0.001384,0.224225,-0.005087,0.085414
21:33:06.846,9.550,191,1.552217,9.904523,-4.948843,1,0.000000,0.000000,2.986130,0.006016,0.249432,-0.009335,1,1.626418,9.841605,-4.852855,0,1,4.900973,1.537801,9.988366,-4.966359,-1.508220,0.227034,-0.097054,0.001413,0.224387,-0.005114,0.086858
21:33:06.896,9.600,192,1.477940,9.914583,-4.951437,1,0.000000,0.000000,3.002467,0.034199,0.205324,-0.047739,1,1.694396,9.846216,-5.332070,0,1,4.900973,1.462136,9.999727,-4.951868,-1.510140,0.216232,-0.075153,0.001623,0.224265,-0.005335,0.086599
21:33:06.946,9.650,193,1.403590,9.924086,-4.954033,1,0.000000,0.000000,2.998049,-0.008078,0.246557,0.013225,1,1.801540,9.962660,-4.840679,0,1,4.957334,1.386590,10.010021,-4.955591,-1.511784,0.204873,-0.075320,0.001562,0.224407,-0.005217,0.087613
21:33:06.996,9.700,194,1.329171,9.933031,-4.956632,1,0.000000,0.000000,3.018289,0.049188,0.226423,0.053504,1,1.390120,9.871505,-4.844402,0,1,4.957334,1.310497,10.020155,-4.959214,-1.513779,0.193866,-0.075249,0.001863,0.224420,-0.004848,0.089140
21:33:07.046,9.750,195,1.254687,9.941417,-4.959233,1,0.000000,0.000000,3.011793,-0.053504,0.246994,0.015929,1,1.132094,10.210780,-5.058047,1,1,4.909722,1.208980,10.075086,-4.951337,-1.530205,0.208983,-0.062103,0.001916,0.224377,-0.004818,0.141488
21:33:07.096,9.800,196,1.180142,9.949243,-4.961836,1,0.000000,0.000000,3.048028,-0.041636,0.235933,-0.036831,1,1.429883,10.061124,-5.195456,0,1,4.909722,1.132757,10.085025,-4.954519,-1.530930,0.197598,-0.062512,0.001643,0.224449,-0.005018,0.143998
21:33:07.146,9.850,197,1.105540,9.956511,-4.964441,1,0.000000,0.000000,3.037942,-0.014164,0.226715,-0.066533,1,1.224088,10.257782,-5.092029,0,1,4.994008,1.056308,10.094555,-4.957802,-1.532013,0.186382,-0.063104,0.001544,0.224463,-0.005400,0.146711
21:33:07.196,9.900,198,1.030887,9.963218,-4.967048,1,0.000000,0.000000,3.030609,0.006629,0.233160,-0.042657,1,0.967516,9.868389,-4.993364,0,1,4.994008,0.979599,10.103534,-4.970237,-1.533409,0.175156,-0.074146,0.001576,0.224517,-0.005653,0.149430
21:33:07.246,9.950,199,0.956185,9.969364,-4.969657,1,0.000000,0.000000,3.065150,0.088677,0.238958,0.018491,1,0.670073,9.920838,-4.911448,0,1,4.898674,0.902025,10.112177,-4.973898,-1.535336,0.164024,-0.074303,0.002112,0.224606,-0.005505,0.152796
21:33:07.296,10.000,200,0.881439,9.974950,-4.972267,1,0.000000,0.000000,3.060751,0.054360,0.207175,0.005451,1,0.970352,10.048184,-4.963866,1,1,4.898674,0.861681,10.102036,-4.977104,-1.515332,0.142438,-0.073981,0.002061,0.224612,-0.005504,0.128704
21:33:07.346,10.050,201,0.806653,9.979975,-4.974879,1,0.000000,0.000000,3.053673,-0.044704,0.220282,-0.013385,1,1.021335,10.121755,-5.152981,0,1,4.946117,0.786274,10.108783,-4.971291,-1.515941,0.131211,-0.063325,0.001775,0.224586,-0.005528,0.130460
21:33:07.396,10.100,202,0.731832,9.984438,-4.977492,1,0.000000,0.000000,3.046183,-0.003576,0.215701,0.050762,1,0.592753,10.007741,-5.003666,0,1,4.946117,0.710518,10.115125,-4.974343,-1.517026,0.120122,-0.063313,0.001742,0.224532,-0.005187,0.132451
21:33:07.446,10.150,203,0.656979,9.988340,-4.980106,1,0.000000,0.000000,3.058443,0.029373,0.260699,-0.016009,1,0.660179,9.951414,-4.927456,0,1,5.059006,0.634288,10.120610,-4.977541,-1.518410,0.108616,-0.063630,0.001909,0.224751,-0.005252,0.134227
21:33:07.497,10.200,204,0.582099,9.991679,-4.982720,1,0.000000,0.000000,3.111858,-0.028726,0.215000,0.014318,1,0.614069,10.005477,-4.716901,0,1,5.059006,0.558675,10.125759,-5.002602,-1.518489,0.097430,-0.089005,0.001725,0.224692,-0.005189,0.137554
21:33:07.547,10.250,205,0.507196,9.994457,-4.985336,1,0.000000,0.000000,3.102279,-0.022807,0.173436,-0.027448,1,0.739396,10.131118,-4.900714,1,1,4.895804,0.547197,10.130542,-5.003471,-1.481861,0.086337,-0.085114,0.001649,0.224668,-0.005180,0.142997
21:33:07.597,10.300,206,0.432275,9.996673,-4.987952,1,0.000000,0.000000,3.097966,-0.018971,0.240701,0.023180,1,0.517733,10.003860,-5.293281,0,1,4.895804,0.473214,10.134403,-5.007667,-1.482254,0.074927,-0.085223,0.001525,0.224763,-0.005012,0.145031
21:33:07.647,10.350,207,0.357339,9.998326,-4.990569,1,0.000000,0.000000,3.128893,0.062921,0.174958,-0.049032,1,0.353519,10.072363,-5.003044,0,1,5.044103,0.398706,10.138435,-5.020918,-1.483017,0.064291,-0.095926,0.001890,0.224468,-0.005294,0.149207
21:33:07.697,10.400,208,0.282393,9.999417,-4.993186,1,0.000000,0.000000,3.119855,-0.009091,0.195421,-0.004816,1,-0.031696,9.971958,-4.935562,0,1,5.044103,0.324717,10.141598,-5.025719,-1.483196,0.053356,-0.096188,0.001825,0.224296,-0.005291,0.151872
21:33:07.747,10.450,209,0.207441,9.999946,-4.995804,1,0.000000,0.000000,3.151412,0.010344,0.217500,0.033945,1,0.075835,9.552005,-4.974319,0,1,4.986597,0.250496,10.144070,-5.030443,-1.483257,0.042226,-0.096247,0.001875,0.224257,-0.005061,0.154355
21:33:07.797,10.500,210,0.132486,9.999912,-4.998421,1,0.000000,0.000000,3.160822,-0.033265,0.224725,-0.035523,1,0.147725,9.804305,-4.843060,1,1,4.986597,0.169151,10.060114,-5.016165,-1.487252,-0.018437,-0.074547,0.001856,0.224359,-0.005015,0.072687
21:33:07.847,10.550,211,0.057535,9.999315,-5.001039,1,0.000000,0.000000,3.162361,0.066475,0.201849,0.009695,1,0.268554,9.916218,-4.852445,0,1,5.059922,0.094334,10.059220,-5.019868,-1.487713,-0.029362,-0.074726,0.002233,0.224228,-0.004930,0.072783
21:33:07.898,10.600,212,-0.017410,9.998156,-5.003656,1,0.000000,0.000000,3.150003,-0.019491,0.227529,0.019465,1,-0.012963,9.991753,-5.195993,0,1,5.059922,0.020120,10.057399,-5.023555,-1.487519,-0.040631,-0.074847,0.002107,0.224247,-0.004789,0.072898
21:33:07.948,10.650,213,-0.092345,9.996435,-5.006272,1,0.000000,0.000000,3.133474,0.003008,0.185913,0.013548,1,-0.194650,9.936105,-4.952611,0,1,5.006971,-0.054186,10.055422,-5.021609,-1.487681,-0.051452,-0.068488,0.002112,0.224026,-0.004670,0.071908
21:33:07.998,10.700,214,-0.167264,9.994151,-5.008889,1,0.000000,0.000000,3.176780,-0.038613,0.196229,0.015831,1,-0.330467,9.823997,-5.165337,0,1,5.006971,-0.128130,10.052735,-5.024997,-1.486938,-0.062407,-0.068622,0.001879,0.223867,-0.004554,0.072270
21:33:08.048,10.750,215,-0.242164,9.991305,-5.011504,1,0.000000,0.000000,3.190338,-0.022277,0.210660,-0.056197,1,-0.222474,9.982960,-5.244824,1,1,4.995497,-0.207490,10.032666,-5.036552,-1.489378,-0.083200,-0.078237,0.001880,0.223888,-0.004573,0.059501
21:33:08.098,10.800,216,-0.317041,9.987897,-5.014119,1,0.000000,0.000000,3.178631,-0.010891,0.225913,0.026347,1,-0.323428,9.574165,-5.077332,0,1,4.995497,-0.281857,10.028189,-5.028056,-1.488937,-0.094419,-0.064108,0.001807,0.223899,-0.004368,0.055278
21:33:08.148,10.850,217,-0.391890,9.983928,-5.016733,1,0.000000,0.000000,3.188066,-0.061825,0.220996,-0.005667,1,-0.363127,9.827696,-4.958967,0,1,5.004913,-0.355772,10.023102,-5.031270,-1.487886,-0.105626,-0.064332,0.001447,0.223883,-0.004376,0.055231
21:33:08.198,10.900,218,-0.466707,9.979397,-5.019346,1,0.000000,0.000000,3.176826,-0.040201,0.196599,0.005013,1,-0.534680,9.806055,-5.011618,0,1,5.004913,-0.429754,10.017701,-5.034471,-1.487128,-0.116574,-0.064504,0.001213,0.223729,-0.004323,0.055332
21:33:08.248,10.950,219,-0.541489,9.974304,-5.021957,1,0.000000,0.000000,3.199686,0.065503,0.214452,0.048828,1,-0.639640,10.256420,-5.223141,0,1,5.041789,-0.504658,10.011791,-5.038750,-1.487188,-0.127605,-0.065799,0.001573,0.223677,-0.004029,0.055171
21:33:08.299,11.000,220,-0.616229,9.968650,-5.024567,1,0.000000,0.000000,3.209495,0.000495,0.191107,-0.012402,1,-0.686146,9.885369,-5.099354,1,1,5.041789,-0.605906,9.975058,-5.043978,-1.502007,-0.156109,-0.068236,0.001597,0.223717,-0.004034,0.022900
21:33:08.349,11.050,221,-0.690926,9.962436,-5.027175,1,0.000000,0.000000,3.260162,0.009999,0.236470,-0.022325,1,-0.741937,9.881012,-4.819314,0,1,5.115426,-0.681057,9.966890,-5.047435,-1.500847,-0.167342,-0.068528,0.001643,0.223788,-0.004135,0.022971
21:33:08.399,11.100,222,-0.765574,9.955661,-5.029782,1,0.000000,0.000000,3.213973,-0.021087,0.218772,0.062648,1,-0.758593,10.215052,-4.887034,0,1,5.115426,-0.755892,9.958252,-5.068610,-1.499901,-0.178468,-0.088998,0.001518,0.223761,-0.003808,0.040101
21:33:08.449,11.150,223,-0.840168,9.948326,-5.032387,1,0.000000,0.000000,3.243933,-0.003973,0.256808,-0.009848,1,-0.824522,9.845813,-5.134294,0,1,4.982922,-0.830861,9.948764,-5.073077,-1.498791,-0.189930,-0.089217,0.001487,0.223942,-0.003841,0.041743
21:33:08.499,11.200,224,-0.914706,9.940432,-5.034990,1,0.000000,0.000000,3.251559,-0.031087,0.238646,0.014128,1,-1.146816,9.942780,-5.080086,0,1,4.982922,-0.905503,9.938813,-5.077503,-1.497316,-0.201224,-0.089321,0.001309,0.224023,-0.003743,0.043528
21:33:08.549,11.250,225,-0.989183,9.931979,-5.037591,1,0.000000,0.000000,3.241419,0.016113,0.191326,-0.027784,1,-0.740173,9.816227,-5.358195,1,1,4.927886,-0.920035,9.900287,-5.048321,-1.461499,-0.228605,-0.050825,0.001237,0.224044,-0.003667,0.076817
21:33:08.599,11.300,226,-1.063594,9.922966,-5.040189,1,0.000000,0.000000,3.262959,0.039563,0.237743,0.022500,1,-0.896076,9.906892,-5.136498,0,1,4.927886,-0.993377,9.888518,-5.050817,-1.460554,-0.239856,-0.050889,0.001445,0.224119,-0.003525,0.078931
21:33:08.649,11.350,227,-1.137935,9.913396,-5.042785,1,0.000000,0.000000,3.289732,0.038052,0.255332,0.000929,1,-1.108368,9.726808,-5.089094,0,1,5.144736,-1.066685,9.876042,-5.053356,-1.459313,-0.251241,-0.051044,0.001644,0.224287,-0.003501,0.081140
21:33:08.699,11.400,228,-1.212203,9.903268,-5.045379,1,0.000000,0.000000,3.254595,0.026893,0.266308,0.020336,1,-1.102880,9.976848,-5.185603,0,1,5.144736,-1.139874,9.862879,-5.080596,-1.458371,-0.262795,-0.079570,0.001779,0.224514,-0.003428,0.090016
21:33:08.749,11.450,229,-1.286392,9.892583,-5.047970,1,0.000000,0.000000,3.270193,0.007623,0.218024,0.023126,1,-1.049530,9.905997,-4.812823,0,1,5.059767,-1.212803,9.849524,-5.084528,-1.457077,-0.273876,-0.079621,0.001811,0.224479,-0.003287,0.092768
21:33:08.799,11.500,230,-1.360500,9.881342,-5.050557,1,0.000000,0.000000,3.283683,-0.058497,0.204152,0.009412,1,-0.870815,9.955603,-5.002660,1,1,5.059767,-1.181463,9.865696,-5.085293,-1.395556,-0.267601,-0.076062,0.001700,0.224433,-0.003280,0.183045
21:33:08.849,11.550,231,-1.434521,9.869544,-5.053142,1,0.000000,0.000000,3.267934,0.039221,0.206790,-0.022796,1,-1.347146,9.893301,-5.126701,0,1,5.019411,-1.251468,9.852195,-5.069984,-1.394566,-0.278597,-0.054277,0.001900,0.224339,-0.003341,0.184643
21:33:08.899,11.600,232,-1.508451,9.857192,-5.055724,1,0.000000,0.000000,3.304741,-0.004018,0.268737,-0.001497,1,-1.732780,10.250428,-4.880368,0,1,5.019411,-1.321141,9.837641,-5.072698,-1.392770,-0.290084,-0.054436,0.001868,0.224574,-0.003331,0.189092
21:33:08.949,11.650,233,-1.582287,9.844285,-5.058302,1,0.000000,0.000000,3.290116,0.032345,0.190353,0.047956,1,-1.733702,10.125026,-5.040149,0,1,5.117709,-1.390963,9.823159,-5.075316,-1.391497,-0.300894,-0.054362,0.002029,0.224394,-0.003062,0.193237
21:33:09.001,11.700,234,-1.656024,9.830824,-5.060877,1,0.000000,0.000000,3.329515,-0.006229,0.206795,0.004107,1,-1.708752,9.805143,-5.259538,0,1,5.117709,-1.460405,9.807984,-5.089129,-1.389429,-0.311763,-0.067256,0.001985,0.224302,-0.003049,0.198964
21:33:09.051,11.750,235,-1.729658,9.816811,-5.063449,1,0.000000,0.000000,3.343322,0.025356,0.218606,0.037622,1,-1.631280,9.653681,-5.153469,1,1,5.012891,-1.555297,9.757360,-5.094552,-1.401952,-0.342810,-0.069787,0.002010,0.224341,-0.003053,0.186825
21:33:09.101,11.800,236,-1.803185,9.802245,-5.066016,1,0.000000,0.000000,3.308391,0.030641,0.196959,-0.070040,1,-1.678644,9.637999,-5.304692,0,1,5.012891,-1.625543,9.740152,-5.098182,-1.400455,-0.353666,-0.070249,0.002159,0.224199,-0.003401,0.190911
21:33:09.151,11.850,237,-1.876601,9.787128,-5.068580,1,0.000000,0.000000,3.350472,-0.034066,0.240663,0.016861,1,-1.777450,9.871727,-4.917660,0,1,5.057719,-1.695244,9.722053,-5.089499,-1.397902,-0.364779,-0.056332,0.001972,0.224284,-0.003271,0.193811
21:33:09.201,11.900,238,-1.949901,9.771460,-5.071140,1,0.000000,0.000000,3.344444,-0.015996,0.276111,-0.033397,1,-1.901964,9.684465,-5.075206,0,1,5.057719,-1.764962,9.703118,-5.092375,-1.395540,-0.376243,-0.056627,0.001879,0.224551,-0.003425,0.198303
21:33:09.251,11.950,239,-2.023082,9.755242,-5.073695,1,0.000000,0.000000,3.369074,-0.037220,0.221175,0.016963,1,-1.965924,9.675679,-5.224214,0,1,4.996210,-1.834349,9.684046,-5.095169,-1.392737,-0.387142,-0.056705,0.001679,0.224534,-0.003321,0.202856
21:33:09.301,12.000,240,-2.096139,9.738476,-5.076247,1,0.000000,0.000000,3.342527,0.006845,0.169787,0.042602,1,-2.059286,9.682451,-5.302791,1,1,4.996210,-1.942938,9.668943,-5.076452,-1.413059,-0.395559,-0.032095,0.001720,0.224530,-0.003276,0.168243
